Crazyflie name,QTM packet timestamp (s),x (m),y (m),z (m),yaw (째),vx (m/s),vy (m/s),vz (m/s),vx_c (m/s),vy_c (m/s),vz_c (m/s),roll_c (째),pitch_c (째),yaw_rate_c (째/s),thrust_c (PWM)
cf1,157.29999999999998,0.5581160278320313,0.4441847839355469,0.013802977561950683,0.0030566134955734015,-0.0005249023437463918,-0.0004852294921868755,0.000363254547119403,None,None,None,None,None,None,None
cf2,157.29999999999998,0.5641500854492187,-0.5470001220703126,0.007926907062530518,-0.04132097586989403,0.0005767822265639571,-0.00028076171875194287,-9.143352508551156e-05,None,None,None,None,None,None,None
cf3,157.29999999999998,-0.4522221374511719,-0.5476118774414063,0.00041194516420364383,0.03389181196689606,0.00014190673827975815,-0.0002410888671868755,0.0005408525466923878,None,None,None,None,None,None,None
cf1,157.32,0.5581077270507813,0.44416198730468753,0.013796182632446289,0.0030566134955734015,-0.0004150390625010755,-0.0011398315429672343,-0.00033974647521955276,None,None,None,None,None,None,None
cf2,157.32,0.5641268920898438,-0.5470195922851563,0.007963364601135253,-0.04132097586989403,-0.0011596679687469642,-0.000973510742185492,0.0018228769302358484,None,None,None,None,None,None,None
cf3,157.32,-0.4522344360351563,-0.5476088256835938,0.00041127905249595644,0.03389181196689606,-0.0006149291992188128,0.0001525878906227015,-3.330558538435271e-05,None,None,None,None,None,None,None
cf1,157.34,0.5581021118164062,0.44416275024414065,0.013812932968139648,0.005205223802477121,-0.0002807617187515439,3.814697265567537e-05,0.0008375167846675548,None,None,None,None,None,None,None
cf2,157.34,0.5641422729492188,-0.5470223388671875,0.007959644317626953,-0.041298385709524155,0.00076904296875085,-0.0001373291015626518,-0.00018601417541493626,None,None,None,None,None,None,None
cf3,157.34,-0.4522259521484375,-0.5476139526367187,0.0004217548668384552,0.032021474093198776,0.00042419433593766047,-0.0002563476562465826,0.0005237907171246713,None,None,None,None,None,None,None
cf1,157.35999999999999,0.55810498046875,0.444171142578125,0.013819211959838868,0.005205223802477121,0.00014343261718909595,0.00041961669921857653,0.0003139495849612584,None,None,None,None,None,None,None
cf2,157.35999999999999,0.5641448364257813,-0.5470050659179687,0.007955366611480713,-0.041298385709524155,0.00012817382812347345,0.0008636474609421491,-0.00021388530731215213,None,None,None,None,None,None,None
cf3,157.35999999999999,-0.4522182312011719,-0.5476098022460938,0.0004278305172920227,0.032021474093198776,0.0003860473632825337,0.0002075195312480571,0.00030378252267865123,None,None,None,None,None,None,None
cf1,157.38,0.5581099853515625,0.4441739196777344,0.01381059741973877,0.007941331714391708,0.00025024414062589336,0.00013885498046921186,-0.0004307270050046361,None,None,None,None,None,None,None
cf2,157.38,0.5641548461914062,-0.546992431640625,0.008010116577148438,-0.02939598448574543,0.0005004882812462356,0.0006317138671826471,0.0027374982833848183,None,None,None,None,None,None,None
cf3,157.38,-0.45222003173828124,-0.5476151123046875,0.0004752015471458435,0.041668593883514404,-9.002685546761593e-05,-0.00026550292968594306,0.002368551492689828,None,None,None,None,None,None,None
cf1,157.4,0.5581085205078126,0.44417718505859377,0.013869152069091797,0.007941331714391708,-7.324218749823058e-05,0.00016326904296862205,0.002927732467649842,None,None,None,None,None,None,None
cf2,157.4,0.5642158813476562,-0.5469464111328125,0.008139396667480469,-0.02939598448574543,0.0030517578124984387,0.00230102539062631,0.006464004516598231,None,None,None,None,None,None,None
cf3,157.4,-0.4522409973144531,-0.5475851440429688,0.0005518428087234497,0.041668593883514404,-0.0010482788085930583,0.001498413085936689,0.00383206307887835,None,None,None,None,None,None,None
cf1,157.42,0.5580592651367188,0.4441666564941406,0.01392275619506836,0.007941331714391708,-0.0024627685546918716,-0.0005264282226585051,0.0026802062988305884,None,None,None,None,None,None,None
cf2,157.42,0.564229248046875,-0.5469273681640625,0.008309788703918457,-0.02939598448574543,0.0006683349609410388,0.0009521484375005551,0.008519601821907157,None,None,None,None,None,None,None
cf3,157.42,-0.4522662963867188,-0.5475289306640625,0.0007247520685195923,0.041668593883514404,-0.0012649536132847542,0.0028106689453159,0.008645462989814992,None,None,None,None,None,None,None
cf1,157.44,0.5580653076171875,0.444140869140625,0.013982918739318848,-0.01296924240887165,0.00030212402343783395,-0.0012893676757795912,0.0030081272125228333,None,None,None,None,None,None,None
cf2,157.44,0.5641616821289063,-0.5469329833984375,0.008755662918090821,0.04448162019252777,-0.003378295898435683,-0.0002807617187515439,0.02229371070860682,None,None,None,None,None,None,None
cf3,157.44,-0.4523013916015625,-0.5474671020507813,0.0010847747325897217,0.12742479145526886,-0.0017547607421860472,0.0030914306640578986,0.01800113320349726,None,None,None,None,None,None,None
cf1,157.45999999999998,0.5580236206054687,0.44411410522460937,0.01417753028869629,-0.01296924240887165,-0.002084350585942149,-0.0013381958007830889,0.009730577468880945,None,None,None,None,None,None,None
cf2,157.45999999999998,0.5639664916992188,-0.546974365234375,0.010373291969299316,0.04448162019252777,-0.009759521484384854,-0.0020690917968765265,0.0808814525604983,None,None,None,None,None,None,None
cf3,157.45999999999998,-0.45232171630859375,-0.5473457641601562,0.0020566720962524416,0.12742479145526886,-0.0010162353515622917,0.00606689453125916,0.04859486818318019,None,None,None,None,None,None,None
cf1,157.48,0.5578823242187501,0.44411788940429686,0.014618721961975098,0.06347022205591202,-0.007064819335929889,0.00018920898437459235,0.022059583663929124,None,None,None,None,None,None,None
cf2,157.48,0.5635256958007813,-0.5469859619140625,0.013438641548156738,0.4192931652069092,-0.02203979492186297,-0.0005798339843707066,0.1532674789427927,None,None,None,None,None,None,None
cf3,157.48,-0.45234390258789064,-0.5471268310546875,0.004289793014526367,0.4490176737308502,-0.0011093139648443594,0.01094665527343048,0.11165604591363916,None,None,None,None,None,None,None
cf1,157.5,0.55773388671875,0.44424838256835936,0.015593899726867677,0.06347022205591202,-0.007421874999998334,0.006524658203121418,0.048758888244604,None,None,None,None,None,None,None
cf2,157.5,0.5628389282226562,-0.5469031372070312,0.018636081695556642,0.4192931652069092,-0.034338378906233674,0.004141235351560292,0.25987200736986227,None,None,None,None,None,None,None
cf3,157.5,-0.45240316772460937,-0.5467902221679688,0.008418663024902344,0.4490176737308502,-0.002963256835934607,0.016830444335927112,0.20644350051869323,None,None,None,None,None,None,None
cf1,157.51999999999998,0.557528564453125,0.44442034912109374,0.017159513473510742,0.06347022205591202,-0.010266113281258048,0.008598327636726903,0.07828068733222447,None,None,None,None,None,None,None
cf2,157.51999999999998,0.561760498046875,-0.5467158813476563,0.026140174865722655,0.4192931652069092,-0.053921508789111144,0.009362792968756384,0.3752046585086419,None,None,None,None,None,None,None
cf3,157.51999999999998,-0.4526000671386719,-0.5462923583984375,0.014702967643737793,0.4490176737308502,-0.009844970703135687,0.024893188476588383,0.3142152309420582,None,None,None,None,None,None,None
cf1,157.54,0.5573081665039062,0.4446145629882813,0.01973293113708496,0.6436405181884766,-0.01101989746093426,0.009710693359372163,0.12867088317864506,None,None,None,None,None,None,None
cf2,157.54,0.560294189453125,-0.5464254760742188,0.03594855880737305,1.4617342948913574,-0.07331542968746076,0.014520263671866995,0.4904191970822688,None,None,None,None,None,None,None
cf3,157.54,-0.45286050415039064,-0.5456102905273438,0.02325071334838867,1.1835448741912842,-0.013021850585930306,0.034103393554667835,0.4273872852323253,None,None,None,None,None,None,None
cf1,157.56,0.5570278930664062,0.44479956054687503,0.02339844512939453,0.6436405181884766,-0.014013671874994518,0.009249877929682612,0.18327569961538473,None,None,None,None,None,None,None
cf2,157.56,0.5584418334960938,-0.5460184936523438,0.047997390747070316,1.4617342948913574,-0.09261779785151561,0.020349121093738567,0.6024415969845551,None,None,None,None,None,None,None
cf3,157.56,-0.45322183227539065,-0.5448828735351563,0.03386874389648437,1.1835448741912842,-0.01806640624999098,0.03637084960935537,0.5309015274045135,None,None,None,None,None,None,None
cf1,157.57999999999998,0.55668212890625,0.44494464111328125,0.028093692779541015,1.3973969221115112,-0.017288208007825337,0.007254028320317565,0.23476238250753775,None,None,None,None,None,None,None
cf2,157.57999999999998,0.5562116088867187,-0.5455045776367188,0.062197933197021486,2.8042871952056885,-0.11151123046885408,0.025695800781273592,0.7100271224982043,None,None,None,None,None,None,None
cf3,157.57999999999998,-0.45359689331054687,-0.5440009765625,0.046423313140869144,2.0900440216064453,-0.018753051757828113,0.044094848632854206,0.6277284622198095,None,None,None,None,None,None,None
cf1,157.6,0.5562771606445313,0.44507379150390625,0.03376048278808594,1.3973969221115112,-0.020248413085927806,0.006457519531246652,0.2833395004271012,None,None,None,None,None,None,None
cf2,157.6,0.5535867309570313,-0.54489990234375,0.07805693054199218,2.8042871952056885,-0.13124389648430604,0.030233764648425275,0.7929498672481292,None,None,None,None,None,None,None
cf3,157.6,-0.4541141357421875,-0.5429669799804687,0.060752826690673827,2.0900440216064453,-0.025862121582018817,0.051699829101538225,0.7164756774898676,None,None,None,None,None,None,None
cf1,157.62,0.5557946166992188,0.44517861938476566,0.040358673095703124,1.3973969221115112,-0.024127197265609725,0.005241394042968067,0.3299095153806905,None,None,None,None,None,None,None
cf2,157.62,0.5507730102539062,-0.5441439819335938,0.09555093383789062,2.8042871952056885,-0.14068603515617914,0.037796020507788276,0.8747001647944744,None,None,None,None,None,None,None
cf3,157.62,-0.4546764221191406,-0.5418192749023437,0.07643762969970704,2.0900440216064453,-0.028114318847640755,0.05738525390622091,0.7842401504512593,None,None,None,None,None,None,None
cf1,157.64,0.5551348266601562,0.44530523681640627,0.04789020156860352,2.2506067752838135,-0.032989501953159,0.006330871582036142,0.37657642364536226,None,None,None,None,None,None,None
cf2,157.64,0.5477445678710937,-0.5433922729492188,0.11435124969482423,3.536404609680176,-0.15142211914076392,0.03758544921878636,0.9400157928475352,None,None,None,None,None,None,None
cf3,157.64,-0.45529299926757816,-0.5405896606445313,0.09308750915527345,2.46571683883667,-0.030828857421905394,0.061480712890677316,0.8324939727790777,None,None,None,None,None,None,None
cf1,157.66,0.55442578125,0.44539666748046874,0.05623313522338867,2.2506067752838135,-0.03545227050779494,0.004571533203121418,0.41714668273904426,None,None,None,None,None,None,None
cf2,157.66,0.5445457763671875,-0.5425648803710937,0.13438052368164063,3.536404609680176,-0.1599395751952296,0.041369628906230346,1.001463699340308,None,None,None,None,None,None,None
cf3,157.66,-0.45593948364257814,-0.5393619384765626,0.11058206939697265,2.46571683883667,-0.03232421874998238,0.06138610839840543,0.8747280120845129,None,None,None,None,None,None,None
cf1,157.68,0.5536981201171876,0.44537890625,0.065078125,2.2506067752838135,-0.036383056640602304,-0.0008880615234375564,0.44224948883034015,None,None,None,None,None,None,None
cf2,157.68,0.5413275756835938,-0.5417848510742188,0.15544184875488282,3.8159360885620117,-0.16091003417960198,0.0390014648437265,1.0530662536615703,None,None,None,None,None,None,None
cf3,157.68,-0.4566571960449219,-0.5381195678710937,0.12866139221191406,2.6409380435943604,-0.035885620117169184,0.06211853027340994,0.9039661407466076,None,None,None,None,None,None,None
cf1,157.7,0.5528455810546875,0.4452937927246094,0.07432512664794921,3.02771258354187,-0.04262695312504108,-0.004255676269533366,0.46235008239788117,None,None,None,None,None,None,None
cf2,157.7,0.5381461791992188,-0.541119140625,0.17712860107421877,3.8159360885620117,-0.15906982421889404,0.033285522460971016,1.0843376159677838,None,None,None,None,None,None,None
cf3,157.7,-0.45737307739257815,-0.5369627685546875,0.14692927551269533,2.6409380435943604,-0.03579406738284588,0.05783996582036364,0.9133941650398945,None,None,None,None,None,None,None
cf1,157.72,0.551918212890625,0.44521514892578123,0.08396285247802734,3.02771258354187,-0.046368408203099766,-0.0039321899414059705,0.48188629150366,None,None,None,None,None,None,None
cf2,157.72,0.535109619140625,-0.5404692993164063,0.19936341857910156,3.8159360885620117,-0.15182800292961046,0.0324920654296679,1.111740875243571,None,None,None,None,None,None,None
cf3,157.72,-0.4580040283203125,-0.5358701171875,0.16521621704101563,2.6409380435943604,-0.0315475463867015,0.05463256835934718,0.9143470764155475,None,None,None,None,None,None,None
cf1,157.73999999999998,0.5509972534179688,0.4450221862792969,0.0937686767578125,3.7026166915893555,-0.046047973632854206,-0.009648132324225237,0.4902912139897038,None,None,None,None,None,None,None
cf2,157.73999999999998,0.5321806640625,-0.5399769287109375,0.22190805053710938,3.7827398777008057,-0.14644775390638684,0.02461853027346269,1.1272315979014162,None,None,None,None,None,None,None
cf3,157.73999999999998,-0.4586636962890625,-0.5349133911132813,0.18328323364257812,2.790107250213623,-0.032983398437529975,0.047836303710978786,0.9033508300789459,None,None,None,None,None,None,None
cf1,157.76,0.5502452392578125,0.44479055786132815,0.10350623321533203,3.7026166915893555,-0.037600708007793,-0.011581420898431798,0.48687782287572745,None,None,None,None,None,None,None
cf2,157.76,0.5294515991210937,-0.5395333251953125,0.24455508422851563,3.7827398777008057,-0.1364532470702419,0.02218017578123874,1.1323516845697332,None,None,None,None,None,None,None
cf3,157.76,-0.45929684448242186,-0.5339713134765625,0.20103984069824218,2.790107250213623,-0.03165740966795162,0.0471038818359174,0.887830352782749,None,None,None,None,None,None,None
cf1,157.78,0.5494236450195312,0.44451199340820313,0.11340316009521485,4.211078643798828,-0.04107971191404499,-0.013928222656243806,0.4948463439938878,None,None,None,None,None,None,None
cf2,157.78,0.5269598388671876,-0.5392137451171876,0.26707794189453127,3.687222719192505,-0.12458801269524543,0.015979003906238673,1.1261428833002058,None,None,None,None,None,None,None
cf3,157.78,-0.45988021850585936,-0.5330697021484375,0.21832777404785156,2.8766963481903076,-0.029168701171860056,0.04508056640622396,0.8643966674800265,None,None,None,None,None,None,None
cf1,157.79999999999998,0.54863916015625,0.44422250366210936,0.12319786834716798,4.211078643798828,-0.0392242431640956,-0.014474487304701864,0.4897354125981016,None,None,None,None,None,None,None
cf2,157.79999999999998,0.5247694702148438,-0.5391040649414063,0.2893040466308594,3.687222719192505,-0.10951843261728901,0.005484008789068953,1.1113052368174174,None,None,None,None,None,None,None
cf3,157.79999999999998,-0.4604251098632813,-0.5323367309570313,0.23488681030273437,2.8766963481903076,-0.027244567871120638,0.03664855957034588,0.8279518127448935,None,None,None,None,None,None,None
cf1,157.82,0.5478631591796875,0.4439214172363281,0.13275811767578125,4.211078643798828,-0.03880004882810497,-0.015054321289054776,0.4780124664304189,None,None,None,None,None,None,None
cf2,157.82,0.5226712036132812,-0.538952880859375,0.31113864135742186,3.687222719192505,-0.10491333007807319,0.007559204101560986,1.0917297363275646,None,None,None,None,None,None,None
cf3,157.82,-0.4609345703125,-0.5316685791015625,0.2508373718261719,2.8766963481903076,-0.025473022460923714,0.033407592773420765,0.7975280761714678,None,None,None,None,None,None,None
cf1,157.84,0.5471773681640625,0.44356838989257813,0.14214230346679688,4.523613929748535,-0.03428955078123486,-0.017651367187489903,0.46920928955054153,None,None,None,None,None,None,None
cf2,157.84,0.5209446411132813,-0.5390240478515625,0.33248104858398436,3.572053909301758,-0.08632812499995171,-0.0035583496093764657,1.067120361327579,None,None,None,None,None,None,None
cf3,157.84,-0.46138238525390624,-0.5311460571289063,0.2659541320800781,2.8204710483551025,-0.022390747070299623,0.026126098632798203,0.7558380126949251,None,None,None,None,None,None,None
cf1,157.85999999999999,0.546643310546875,0.44317944335937504,0.15114085388183593,4.523613929748535,-0.026702880859399286,-0.019447326660172383,0.44992752075236186,None,None,None,None,None,None,None
cf2,157.85999999999999,0.51936767578125,-0.5391794433593751,0.35310906982421875,3.572053909301758,-0.07884826660163834,-0.00776977539063291,1.0314010620126572,None,None,None,None,None,None,None
cf3,157.85999999999999,-0.4618161010742188,-0.530724853515625,0.280181640625,2.8204710483551025,-0.02168579101564679,0.021060180664081166,0.7113754272467413,None,None,None,None,None,None,None
cf1,157.88,0.546148193359375,0.4426871643066406,0.15984498596191407,4.657599449157715,-0.024755859374984805,-0.024613952636708025,0.43520660400368444,None,None,None,None,None,None,None
cf2,157.88,0.5181199951171875,-0.5394028930664062,0.3730213623046875,3.40201473236084,-0.062384033203090335,-0.01117248535155141,0.9956146240229293,None,None,None,None,None,None,None
cf3,157.88,-0.46211828613281253,-0.53049072265625,0.29355923461914063,2.6562845706939697,-0.015109252929679837,0.01170654296874752,0.668879699706689,None,None,None,None,None,None,None
cf1,157.9,0.5457471313476563,0.44216662597656253,0.16820166015625002,4.657599449157715,-0.020053100585926974,-0.026026916503891225,0.41783370971658346,None,None,None,None,None,None,None
cf2,157.9,0.5171665649414062,-0.5397928466796875,0.392027099609375,3.40201473236084,-0.047671508789041174,-0.01949768066405568,0.9502868652338871,None,None,None,None,None,None,None
cf3,157.9,-0.46245675659179686,-0.5303231201171875,0.3059654541015625,2.6562845706939697,-0.01692352294920785,0.008380126953118227,0.6203109741207765,None,None,None,None,None,None,None
cf1,157.92,0.5454593505859375,0.4415849914550781,0.1760980224609375,4.657599449157715,-0.01438903808595103,-0.02908172607424689,0.3948181152347335,None,None,None,None,None,None,None
cf2,157.92,0.5164329223632813,-0.540270751953125,0.41011944580078125,3.40201473236084,-0.03668212890627914,-0.02389526367189651,0.9046173095711358,None,None,None,None,None,None,None
cf3,157.92,-0.4626812438964844,-0.53026025390625,0.31755532836914063,2.6562845706939697,-0.01122436523438763,0.0031433105468798572,0.5794937133794333,None,None,None,None,None,None,None
cf1,157.94,0.5453248291015625,0.44099420166015624,0.18368748474121094,4.699858665466309,-0.006726074218745715,-0.029539489746079214,0.3794731140134776,None,None,None,None,None,None,None
cf2,157.94,0.5159862670898437,-0.540809326171875,0.42728836059570313,3.2082085609436035,-0.022332763671866995,-0.02692871093748782,0.8584457397456551,None,None,None,None,None,None,None
cf3,157.94,-0.4628607177734375,-0.5303587646484376,0.3282100830078125,2.504981517791748,-0.00897369384765075,-0.004925537109376744,0.5327377319333215,None,None,None,None,None,None,None
cf1,157.95999999999998,0.5452407836914063,0.44039956665039065,0.19077529907226562,4.699858665466309,-0.004202270507817565,-0.029731750488306403,0.3543907165530564,None,None,None,None,None,None,None
cf2,157.95999999999998,0.5157100830078125,-0.5415175170898437,0.4434894714355469,3.2082085609436035,-0.01380920410157395,-0.03540954589846713,0.8100555419929252,None,None,None,None,None,None,None
cf3,157.95999999999998,-0.46292117309570313,-0.530546630859375,0.33789675903320315,2.504981517791748,-0.003022766113283644,-0.009393310546882078,0.48433380126997244,None,None,None,None,None,None,None
cf1,157.98,0.5451780395507813,0.4397957458496094,0.19747758483886718,4.643361568450928,-0.00313720703124915,-0.030191040039047143,0.3351142883299067,None,None,None,None,None,None,None
cf2,157.98,0.5155634155273437,-0.5420999145507812,0.4584672546386719,2.9621593952178955,-0.007333374023434504,-0.02911987304685846,0.748889160155866,None,None,None,None,None,None,None
cf3,157.98,-0.4629886474609375,-0.5308786621093751,0.34681097412109374,2.368692398071289,-0.0033737182617160025,-0.01660156249999306,0.4457107543943013,None,None,None,None,None,None,None
cf1,158.0,0.545204345703125,0.4392057800292969,0.2037672576904297,4.643361568450928,0.001315307617188337,-0.02949829101561042,0.3144836425779647,None,None,None,None,None,None,None
cf2,158.0,0.515876220703125,-0.5428224487304688,0.47258905029296877,2.9621593952178955,0.0156402587890545,-0.03612670898436127,0.7060897827144831,None,None,None,None,None,None,None
cf3,158.0,-0.46291403198242187,-0.5312756958007813,0.35484951782226565,2.368692398071289,0.0037307739257788973,-0.019851684570299902,0.40192718505838976,None,None,None,None,None,None,None
cf1,158.01999999999998,0.5452902221679687,0.4386064453125,0.2095122528076172,4.643361568450928,0.004293823242189096,-0.029966735839872582,0.28724975585963686,None,None,None,None,None,None,None
cf2,158.01999999999998,0.5163551025390625,-0.5435762939453125,0.48577117919921875,2.9621593952178955,0.0239440917968954,-0.03769226074221796,0.6591064453130984,None,None,None,None,None,None,None
cf3,158.01999999999998,-0.46285659790039063,-0.5318129272460937,0.3621388854980469,2.368692398071289,0.002871704101564512,-0.026861572265648455,0.3644683837893942,None,None,None,None,None,None,None
cf1,158.04,0.54554443359375,0.4379815368652344,0.2149232177734375,4.513274192810059,0.012710571289058663,-0.031245422363263668,0.27054824829087676,None,None,None,None,None,None,None
cf2,158.04,0.51708642578125,-0.5444839477539063,0.49791424560546876,2.6702756881713867,0.036566162109356204,-0.04538269042966735,0.60715332031219,None,None,None,None,None,None,None
cf3,158.04,-0.4627161254882813,-0.5324563598632812,0.36870458984375,2.22926664352417,0.007023620605463869,-0.0321716308593569,0.3282852172849862,None,None,None,None,None,None,None
cf1,158.06,0.5458756103515625,0.437318115234375,0.21991319274902343,4.513274192810059,0.01655883789061493,-0.033171081542951134,0.24949874877916864,None,None,None,None,None,None,None
cf2,158.06,0.5180769653320313,-0.5453519897460938,0.5091003723144532,2.6702756881713867,0.049526977539040756,-0.04340209960935204,0.5593063354489334,None,None,None,None,None,None,None
cf3,158.06,-0.4624541015625,-0.53313671875,0.374598876953125,2.22926664352417,0.013101196289057551,-0.03401794433592267,0.2947143554685996,None,None,None,None,None,None,None
cf1,158.07999999999998,0.5462630004882812,0.4367881469726563,0.2245563507080078,4.340431213378906,0.019369506835954363,-0.026498413085961577,0.2321578979494298,None,None,None,None,None,None,None
cf2,158.07999999999998,0.5191851806640625,-0.5463248291015625,0.5194403076171875,2.6702756881713867,0.05541076660161059,-0.048641967773482675,0.5169967651371882,None,None,None,None,None,None,None
cf3,158.07999999999998,-0.46216400146484377,-0.5339505615234376,0.37997787475585937,2.1409859657287598,0.014505004882824782,-0.04069213867191428,0.26894989013696335,None,None,None,None,None,None,None
cf1,158.1,0.5466905517578126,0.4362159423828125,0.22869137573242188,4.340431213378906,0.021377563476554673,-0.028610229492172862,0.20675125122059765,None,None,None,None,None,None,None
cf2,158.1,0.52070654296875,-0.5471729736328125,0.5287424926757812,2.3908631801605225,0.07606811523433449,-0.042407226562474705,0.46510925292944727,None,None,None,None,None,None,None
cf3,158.1,-0.46173513793945314,-0.5347825317382813,0.38475430297851565,2.1409859657287598,0.021443176269520102,-0.0415985107421644,0.2388214111326919,None,None,None,None,None,None,None
cf1,158.12,0.5473265380859376,0.43562222290039065,0.23258039855957033,4.340431213378906,0.03179931640623396,-0.029685974121078453,0.19445114135732317,None,None,None,None,None,None,None
cf2,158.12,0.5222918090820312,-0.548126953125,0.5373490600585937,2.0886669158935547,0.07926330566402182,-0.047698974609353705,0.4303283691404055,None,None,None,None,None,None,None
cf3,158.12,-0.46131057739257814,-0.5356854858398438,0.3891534118652344,2.0835776329040527,0.02122802734373954,-0.0451477050781015,0.21995544433582442,None,None,None,None,None,None,None
cf1,158.14,0.5478577270507813,0.43509085083007815,0.23607754516601562,4.340431213378906,0.02655944824221019,-0.026568603515649564,0.1748573303224235,None,None,None,None,None,None,None
cf2,158.14,0.5239259033203125,-0.5491290893554688,0.5452058715820313,2.0886669158935547,0.08170471191414001,-0.050106811523482675,0.392840576172234,None,None,None,None,None,None,None
cf3,158.14,-0.46083535766601563,-0.5367031250000001,0.3931655578613281,2.0835776329040527,0.02376098632814679,-0.05088195800786086,0.20060729980486897,None,None,None,None,None,None,None
cf1,158.16,0.5485276489257812,0.43464639282226564,0.2393748321533203,4.16819953918457,0.03349609374997904,-0.022222900390614097,0.1648643493651503,None,None,None,None,None,None,None
cf2,158.16,0.5257219848632813,-0.5501572265625,0.552455078125,2.0886669158935547,0.08980407714839057,-0.0514068603515342,0.36246032714825405,None,None,None,None,None,None,None
cf3,158.16,-0.46025076293945316,-0.5377324829101563,0.3968809509277344,2.0835776329040527,0.02922973632810858,-0.0514678955077855,0.185769653320219,None,None,None,None,None,None,None
cf1,158.18,0.5492736816406251,0.43410821533203126,0.24235281372070314,4.029836654663086,0.037301635742173836,-0.026908874511705316,0.1488990783690651,None,None,None,None,None,None,None
cf2,158.18,0.5276752319335938,-0.5512198486328125,0.5589889526367188,2.0886669158935547,0.09766235351557628,-0.053131103515597376,0.32669372558576876,None,None,None,None,None,None,None
cf3,158.18,-0.4596330871582031,-0.5387581176757813,0.40032388305664063,2.0462262630462646,0.030883789062486643,-0.05128173828122403,0.17214660644522337,None,None,None,None,None,None,None
cf1,158.2,0.5500154418945312,0.4336976928710938,0.24509162902832032,4.029836654663086,0.037088012695341434,-0.020526123046892625,0.1369407653809839,None,None,None,None,None,None,None
cf2,158.2,0.52973779296875,-0.5521768188476562,0.5649057006835938,1.8169729709625244,0.10312805175790528,-0.04784851074223129,0.2958374023440206,None,None,None,None,None,None,None
cf3,158.2,-0.4589599609375,-0.53987890625,0.403619140625,2.0462262630462646,0.03365631103518515,-0.05603942871098656,0.16476287841811763,None,None,None,None,None,None,None
cf1,158.22,0.5507386474609375,0.43329055786132814,0.24759738159179687,4.029836654663086,0.03616027832029449,-0.020356750488271368,0.12528762817376307,None,None,None,None,None,None,None
cf2,158.22,0.5318872680664063,-0.5532159423828125,0.5702821044921875,1.8169729709625244,0.1074737548827592,-0.05195617675778481,0.2688201904295486,-0.010468772157733739,0.005060932106238757,0.029717895507812453,None,None,None,None
cf3,158.22,-0.45818051147460936,-0.5409618530273438,0.40672076416015623,2.0462262630462646,0.03897247314451296,-0.054147338867161,0.1550811767577332,-0.004573116149500033,0.006353768438242627,0.04327923583984378,None,None,None,None
cf1,158.23999999999998,0.5516428833007813,0.43285791015625,0.24981350708007813,3.9085495471954346,0.045211791992230174,-0.021632385253925437,0.11080627441416388,None,None,None,None,None,None,None
cf2,158.23999999999998,0.5341045532226563,-0.5541972045898438,0.5753347778320312,1.8169729709625244,0.11086425781259937,-0.04906311035161059,0.2526336669924156,-0.016237393273244916,0.007512617123921521,0.024665222167968737,None,None,None,None
cf3,158.23999999999998,-0.45738720703125,-0.5421069946289062,0.4097257385253906,2.007272958755493,0.03966522216800327,-0.057257080078173435,0.15024871826185623,-0.00730242739049213,0.010345199933635092,0.040274261474609385,None,None,None,None
cf1,158.26,0.5524532470703125,0.4326037902832031,0.2519892883300781,3.9085495471954346,0.04051818847654191,-0.012705993652338982,0.10878906249994338,None,None,None,None,None,None,None
cf2,158.26,0.536379638671875,-0.55509912109375,0.579865478515625,1.6698344945907593,0.1137542724608782,-0.04509582519528956,0.2265350341795709,-0.02072034960129465,0.009116611087671438,0.020134521484375,None,None,None,None
cf3,158.26,-0.4566117858886719,-0.543198974609375,0.4127133178710938,1.9704582691192627,0.03877105712888588,-0.05459899902341397,0.14937896728508113,-0.009351380435283357,0.013221851716360554,0.037286682128906234,None,None,None,None
cf1,158.28,0.5533386840820312,0.4323746643066406,0.2540096130371094,3.9085495471954346,0.04427185058591365,-0.01145629882811885,0.10101623535151255,-0.005736137400585833,0.0014843496106568732,0.045990386962890595,None,None,None,None
cf2,158.28,0.538636474609375,-0.5560086059570313,0.58396240234375,1.6698344945907593,0.112841796874944,-0.045474243164038745,0.20484619140614457,-0.02439867585467604,0.010506110388190175,0.016037597656250013,None,None,None,None
cf3,158.28,-0.4557723693847656,-0.5442831420898437,0.41546401977539066,1.9704582691192627,0.041970825195292896,-0.054208374023406745,0.13753509521477372,-0.011262406167202761,0.015561056698723283,0.03453598022460935,None,None,None,None
cf1,158.29999999999998,0.5542538452148438,0.43208966064453125,0.25578787231445316,3.804678440093994,0.04575805664066844,-0.014250183105481621,0.08891296386726903,-0.009523210156641121,0.002719187849715764,0.04421212768554683,None,None,None,None
cf2,158.29999999999998,0.5409152221679687,-0.5568408813476563,0.587648193359375,1.5807321071624756,0.11393737792978846,-0.04161376953128913,0.18428955078142015,-0.02767049467936944,0.011546207476717387,0.012351806640624963,None,None,None,None
cf3,158.29999999999998,-0.45495489501953124,-0.5453696899414062,0.418054443359375,1.9704582691192627,0.04087371826175632,-0.054327392578173435,0.12952117919933626,-0.012857823321859144,0.01762755671158889,0.031945556640624984,None,None,None,None
cf1,158.32,0.5551273193359375,0.4319309692382813,0.257490966796875,3.804678440093994,0.043673706054664224,-0.007934570312494275,0.08515472412104848,-0.012366009745613474,0.0031114011784616584,0.04250903320312499,None,None,None,None
cf2,158.32,0.5431388549804688,-0.55769970703125,0.5907307739257812,1.5807321071624756,0.11118164062494525,-0.042941284179665265,0.1541290283202312,-0.030517678192641857,0.012577042336903816,0.009269226074218762,None,None,None,None
cf3,158.32,-0.4540962829589844,-0.5463961791992188,0.4204071350097656,1.9704582691192627,0.042930603027319346,-0.05132446289060216,0.11763458251946945,-0.014427194175493764,0.019332275440194502,0.02959286499023439,None,None,None,None
cf1,158.34,0.5559461059570313,0.43179156494140625,0.25912451171875,3.7338759899139404,0.04093933105466922,-0.006970214843748144,0.08167724609370859,-0.014620515642162846,0.003399837697381968,0.04087548828124998,None,None,None,None
cf2,158.34,0.5452733764648438,-0.5584898071289063,0.5934478759765626,1.5427438020706177,0.10672607421869465,-0.0395050048827914,0.13585510253899802,-0.033036499886063164,0.013424602731315183,0.006552124023437411,None,None,None,None
cf3,158.34,-0.45320217895507814,-0.5474050903320312,0.4224964599609375,1.9098716974258423,0.04470520019529067,-0.05044555664059564,0.10446624755853991,-0.015946215381017332,0.020843816722420003,0.027503540039062524,None,None,None,None
cf1,158.35999999999999,0.5568834228515626,0.4316763000488281,0.2604459228515625,3.7338759899139404,0.04686584472660504,-0.005763244628911558,0.06607055664068398,-0.016893044125882606,0.003536684373097487,0.039554077148437505,None,None,None,None
cf2,158.35999999999999,0.5473806762695312,-0.5592014770507813,0.5955878295898438,1.5427438020706177,0.10536499023447034,-0.03558349609378192,0.10699768066415888,-0.03537245249634426,0.014083831103847554,0.00441217041015618,None,None,None,None
cf3,158.35999999999999,-0.4523224487304688,-0.54832666015625,0.42425912475585936,1.9098716974258423,0.04398651123050771,-0.0460784912109799,0.08813323974617393,-0.017362376344065664,0.022097598920720513,0.02574087524414065,None,None,None,None
cf1,158.38,0.557730224609375,0.43152416992187503,0.2615248718261719,3.7338759899139404,0.042340087890602715,-0.007606506347650472,0.05394744873044326,-0.018718120720658784,0.0038295528275851588,0.03847512817382809,None,None,None,None
cf2,158.38,0.549389892578125,-0.5598417358398438,0.5972474975585937,1.5433602333068848,0.10046081542963571,-0.03201293945310796,0.0829833984374548,-0.03747771879972383,0.014617451028967441,0.002752502441406235,None,None,None,None
cf3,158.38,-0.451482177734375,-0.5492039184570313,0.4256986389160156,1.8397892713546753,0.042013549804668246,-0.04386291503904437,0.0719757080077758,-0.018624714915614772,0.023225558861883707,0.024301361083984396,None,None,None,None
cf1,158.4,0.5585023193359375,0.43147479248046877,0.2625178527832031,3.6702377796173096,0.03860473632810414,-0.0024688720703118366,0.04964904785153503,-0.020273549237945873,0.0037838517277000126,0.03748214721679688,None,None,None,None
cf2,158.4,0.5512836303710937,-0.5604531860351563,0.5984014892578126,1.5433602333068848,0.09468688964838919,-0.03057250976560945,0.057699584960911224,-0.03935767830674348,0.015118400423771867,0.00159851074218742,None,None,None,None
cf3,158.4,-0.45066998291015625,-0.549983154296875,0.42676837158203124,1.8397892713546753,0.04060974121091608,-0.03896179199216703,0.05348663330075371,-0.019811193783415955,0.024146893445564817,0.023231628417968775,None,None,None,None
cf1,158.42,0.5592258911132812,0.4314607238769531,0.26312435913085935,3.6702377796173096,0.03617858886721907,-0.0007034301757836439,0.03032531738283977,-0.021642898265712633,0.0036528230015434745,0.036875640869140636,None,None,None,None
cf2,158.42,0.5530025634765625,-0.5609841918945313,0.5991084594726562,1.5433602333068848,0.0859466552735171,-0.026550292968776368,0.03534851074221574,-0.04099686931217976,0.015520235699943813,0.0008915405273437482,None,None,None,None
cf3,158.42,-0.44987646484375,-0.550731201171875,0.4275530395507813,1.8397892713546753,0.039675903320349204,-0.037402343750032194,0.039233398437537745,-0.02091787903111346,0.02499114768618023,0.022446960449218734,None,None,None,None
cf1,158.44,0.5599801025390625,0.43141921997070315,0.26349658203125,3.6294021606445312,0.03771057128904312,-0.002075195312497051,0.018611145019521907,-0.0229812548107076,0.0036167709484771445,0.03650341796875001,None,None,None,None
cf2,158.44,0.5546251831054687,-0.5614580688476563,0.5994379272460938,1.4794975519180298,0.08113098144526833,-0.02369384765623548,0.01647338867186977,-0.04249399257661438,0.015847277132519075,0.0005620727539061843,None,None,None,None
cf3,158.44,-0.44909411621093753,-0.5513702392578125,0.4279971618652344,1.7796621322631836,0.03911743164060286,-0.031951904296856654,0.022206115722644713,-0.022009487655700096,0.02563575233472286,0.022002838134765612,None,None,None,None
cf1,158.45999999999998,0.5607620239257812,0.4313819580078125,0.26356121826171874,3.6294021606445312,0.03909606933597212,-0.0018630981445350316,0.003231811523441039,-0.02429503083905884,0.003572662177253562,0.036438781738281245,None,None,None,None
cf2,158.45999999999998,0.556022216796875,-0.5618970947265625,0.599311767578125,1.4794975519180298,0.06985168457037919,-0.02195129394533033,-0.0063079833984460345,-0.04373404449507674,0.016173342074085363,0.0006882324218749902,None,None,None,None
cf3,158.45999999999998,-0.4483813171386719,-0.551882568359375,0.4281460266113281,1.7796621322631836,0.03563995361331362,-0.025616455078149008,0.007443237304692427,-0.022998973410839382,0.026097098166477463,0.0218539733886719,None,None,None,None
cf1,158.48,0.5613511352539062,0.4314263916015625,0.2634304504394531,3.5792887210845947,0.029455566406235065,0.002221679687499063,-0.006538391113277683,-0.025253517945477807,0.0033416309715621375,0.036569549560546866,None,None,None,None
cf2,158.48,0.5572722778320313,-0.5621913452148437,0.5989614868164063,1.4202077388763428,0.06250305175777982,-0.014712524414054707,-0.01751403808592725,-0.044839740790500716,0.01630859515527571,0.0010385131835937145,None,None,None,None
cf3,158.48,-0.4477073059082031,-0.5523258666992188,0.42804559326171876,1.74215567111969,0.03370056152342201,-0.022164916992178693,-0.0050216674804650484,-0.023921991213530627,0.0264609621219304,0.02195440673828125,None,None,None,None
cf1,158.5,0.5619199218750001,0.4314786071777344,0.263149169921875,3.5792887210845947,0.02843933105467699,0.0026107788085941684,-0.014064025878899898,-0.02614666026352452,0.003107720609392908,0.03685083007812501,None,None,None,None
cf2,158.5,0.55831005859375,-0.5624692382812501,0.5983191528320313,1.4202077388763428,0.05188903808591282,-0.013894653320310587,-0.03211669921873184,-0.045729015175002684,0.016472694557847264,0.0016808471679686798,None,None,None,None
cf3,158.5,-0.44707196044921876,-0.5527026977539062,0.427722412109375,1.74215567111969,0.031767272949201744,-0.01884155273436252,-0.016159057617179454,-0.024784707997569544,0.026735692697803775,0.022277587890625006,None,None,None,None
cf1,158.51999999999998,0.562396484375,0.4314836730957031,0.2625504760742188,3.5792887210845947,0.023828125000018872,0.00025329589843659797,-0.02993469238283755,-0.02686653490331927,0.0030265462436051315,0.037449523925781214,None,None,None,None
cf2,158.51999999999998,0.5591876220703125,-0.5626834106445313,0.5974636230468751,1.4202077388763428,0.04387817382816122,-0.010708618164072283,-0.042776489257850873,-0.04647278123748999,0.01657974110626934,0.002536376953124919,None,None,None,None
cf3,158.51999999999998,-0.4464975280761719,-0.5529733276367188,0.4271759033203125,1.74215567111969,0.02872161865237036,-0.013531494140640681,-0.027325439453149008,-0.025576995749746197,0.02687404328514069,0.02282409667968749,None,None,None,None
cf1,158.54,0.5628671875,0.43151748657226563,0.2617388916015625,3.5141568183898926,0.02353515624998654,0.0016906738281244015,-0.040579223632793204,-0.02756297729958007,0.002875161878174688,0.03826110839843749,None,None,None,None
cf2,158.54,0.5598605346679688,-0.562844970703125,0.5963948364257813,1.4117999076843262,0.033645629882799725,-0.008078002929680392,-0.05343933105466145,-0.04703575250942081,0.016657997317015817,0.003605163574218695,None,None,None,None
cf3,158.54,-0.4460113830566406,-0.5531756591796875,0.42646719360351565,1.724101185798645,0.02430725097655051,-0.010116577148428329,-0.03543548583982555,-0.0262446083882271,0.026950301159365437,0.023532806396484363,None,None,None,None
cf1,158.56,0.5633079223632813,0.4315924987792969,0.2607133483886719,3.5141568183898926,0.022036743164055402,0.003750610351561403,-0.05127716064450435,-0.02820420204689961,0.0026276852263798054,0.039286651611328105,None,None,None,None
cf2,158.56,0.5603312377929688,-0.5629258422851563,0.5952846069335938,1.4117999076843262,0.02353515624998654,-0.004043579101562652,-0.05551147460934815,-0.04743313649245108,0.01666565824152873,0.004715393066406226,None,None,None,None
cf3,158.56,-0.4455545349121094,-0.553236328125,0.42557952880859373,1.724101185798645,0.022842407226549816,-0.003033447265625269,-0.04438323974607311,-0.026920994724885884,0.02682459200877741,0.02442047119140628,None,None,None,None
cf1,158.57999999999998,0.5636870727539063,0.43163482666015623,0.25966238403320313,3.4669811725616455,0.018957519531265822,0.002116394042968854,-0.05254821777348545,-0.028741445037280364,0.002479067728066864,0.04033761596679686,None,None,None,None
cf2,158.57999999999998,0.5605529174804688,-0.5629093627929688,0.594034423828125,1.4117999076843262,0.011083984375008881,0.0008239746093770817,-0.06250915527349489,-0.047631850418600685,0.016589610975603086,0.005965576171874987,None,None,None,None
cf3,158.57999999999998,-0.44517724609375003,-0.5532080078125,0.42453436279296874,1.724101185798645,0.01886444091798495,0.0014160156250011102,-0.05225830078129691,-0.027507041659288283,0.02660173674904355,0.025465637207031266,None,None,None,None
cf1,158.6,0.5639791870117188,0.43165509033203125,0.2584457092285156,3.4669811725616455,0.014605712890617706,0.0010131835937505032,-0.06083374023434448,-0.029147257103194456,0.002399110313880436,0.04155429077148437,None,None,None,None
cf2,158.6,0.5606754150390625,-0.5628408203125,0.592792236328125,1.3758015632629395,0.006124877929683167,0.003427124023434503,-0.06210937499996503,-0.047754997756229774,0.016460843851173967,0.007207763671874923,None,None,None,None
cf3,158.6,-0.44484814453125,-0.5531084594726563,0.42354931640625,1.7138735055923462,0.016455078124993826,0.004977416992183133,-0.04925231933591268,-0.028046137163623645,0.026292707729087744,0.026450683593750024,None,None,None,None
cf1,158.62,0.5642781372070312,0.4317585754394531,0.25709564208984376,3.4669811725616455,0.014947509765615,0.0051742553710905255,-0.06750335693355858,-0.02956386760877287,0.0021131544946876276,0.04290435791015623,None,None,None,None
cf2,158.62,0.5605469360351563,-0.5626826782226563,0.5915377197265625,1.3758015632629395,-0.006423950195307881,0.00790710449218452,-0.06272583007809318,-0.04767900425548287,0.01625845005712975,0.008462280273437428,None,None,None,None
cf3,158.62,-0.44456747436523436,-0.5528696899414063,0.4224270324707031,1.7377411127090454,0.014033508300774248,0.011938476562494691,-0.05611419677731449,-0.02857242177125851,0.025789716662672265,0.027572967529296888,None,None,None,None
cf1,158.64,0.5644619140625,0.43179925537109376,0.2556767120361328,3.400743007659912,0.009188842773447146,0.0020339965820339216,-0.07094650268561278,-0.029814715332130644,0.0019974722752247563,0.0443232879638672,None,None,None,None
cf2,158.64,0.5601824951171875,-0.5624733276367188,0.590234619140625,1.366532325744629,-0.018222045898452697,0.010467529296885408,-0.06515502929693537,-0.04740727173518332,0.016033311401991882,0.00976538085937495,None,None,None,None
cf3,158.64,-0.44435400390625,-0.5525454711914063,0.42130853271484375,1.7377411127090454,0.010673522949226903,0.016210937500014434,-0.05592498779301937,-0.029035374132443743,0.025180031083190956,0.028691467285156258,None,None,None,None
cf1,158.66,0.5645548706054687,0.43184149169921876,0.2542557678222656,3.400743007659912,0.004647827148432769,0.002111816406248942,-0.07104721069332272,-0.029942294228288,0.0018861079610647685,0.04574423217773438,None,None,None,None
cf2,158.66,0.5597357788085937,-0.5622936401367188,0.5890890502929688,1.366532325744629,-0.022335815429680113,0.008984374999993893,-0.05727844238278391,-0.0470542050591999,0.01586903154179596,0.010910949707031214,None,None,None,None
cf3,158.66,-0.4442090759277344,-0.5521825561523438,0.42013681030273436,1.7377411127090454,0.007246398925777232,0.01814575195311545,-0.05858612060543945,-0.029413835638951162,0.024533954115102122,0.029863189697265646,None,None,None,None
cf1,158.68,0.56464404296875,0.43193399047851566,0.2527140655517578,3.3549728393554688,0.004458618164063727,0.004624938964842694,-0.07708511352535138,-0.030067357102130036,0.0016519930349302165,0.047285934448242195,None,None,None,None
cf2,158.68,0.5590402221679688,-0.561971923828125,0.587889892578125,1.366532325744629,-0.03477783203122861,0.016085815429681224,-0.0599578857421594,-0.04650880470259753,0.015546786973900703,0.012110107421875016,None,None,None,None
cf3,158.68,-0.4441321105957031,-0.5517836303710938,0.4190359497070313,1.7400296926498413,0.003848266601561819,0.019946289062489974,-0.055043029785125805,-0.02970958631222014,0.023852710989524576,0.030964050292968726,None,None,None,None
cf1,158.7,0.564651123046875,0.4319685668945313,0.2512538909912109,3.3549728393554688,0.00035400390625027754,0.0017288208007825337,-0.07300872802740978,-0.03007887392625989,0.0015664042050914664,0.04874610900878906,None,None,None,None
cf2,158.7,0.5582647705078125,-0.5615908813476562,0.5868713378906251,1.3371219635009766,-0.03877258300784754,0.019052124023456025,-0.05092773437504108,-0.045898103306428614,0.015146631379595309,0.013128662109374911,None,None,None,None
cf3,158.7,-0.44412576293945316,-0.5512731323242187,0.4179375610351563,1.7400296926498413,0.0003173828124983347,0.025524902343777477,-0.054919433593800235,-0.029955433228995326,0.02300892696775891,0.03206243896484373,None,None,None,None
cf1,158.72,0.5646336669921875,0.43204388427734375,0.2496868591308594,3.3549728393554688,-0.0008728027343747312,0.0037658691406214527,-0.07835159301753675,-0.030059863518025177,0.0013817830770209048,0.0503131408691406,None,None,None,None
cf2,158.72,0.5572779541015626,-0.5611336059570312,0.5858593139648438,1.3371219635009766,-0.049340820312473735,0.022863769531238882,-0.05060119628903701,-0.04510205946134334,0.014668379855930353,0.01414068603515617,None,None,None,None
cf3,158.72,-0.4441495361328125,-0.5506824340820312,0.416943115234375,1.7400296926498413,-0.0011886596679660548,0.029534912109359535,-0.049722290039038816,-0.030194613056684257,0.022025589869107298,0.033056884765625016,None,None,None,None
cf1,158.73999999999998,0.56453759765625,0.4320670166015625,0.248236572265625,3.345996618270874,-0.004803466796880968,0.0011566162109382632,-0.07251434326178491,-0.02993303371953035,0.0013295927321905605,0.05176342773437498,None,None,None,None
cf2,158.73999999999998,0.556205078125,-0.560742431640625,0.5849541015625,1.351772665977478,-0.05364379882817787,0.019558715820329222,-0.04526062011722906,-0.04419492920882718,0.01430281378617656,0.015045898437499927,None,None,None,None
cf3,158.73999999999998,-0.4442160339355469,-0.5500673217773437,0.4159354553222656,1.7668339014053345,-0.0033248901367219073,0.030755615234401505,-0.05038299560551493,-0.030383255409363038,0.020995575408301822,0.0340645446777344,None,None,None,None
cf1,158.76,0.5643824462890625,0.4321064147949219,0.2468904266357422,3.345996618270874,-0.007757568359369388,0.0019699096679693853,-0.06730728149410585,-0.02972710680231357,0.0012394406355247228,0.053109573364257784,None,None,None,None
cf2,158.76,0.5549110107421875,-0.5602532348632813,0.5841271362304687,1.351772665977478,-0.06470336914058981,0.02445983886717321,-0.04134826660154405,-0.04307952685042804,0.0138213629950588,0.01587286376953123,None,None,None,None
cf3,158.76,-0.4443316345214844,-0.5493781127929688,0.41498995971679686,1.7668339014053345,-0.005780029296872754,0.034460449218730725,-0.047274780273413274,-0.03053458131055791,0.019828262394698905,0.03501004028320315,None,None,None,None
cf1,158.78,0.5642106323242188,0.4321789245605469,0.24542991638183595,3.3551266193389893,-0.00859069824218466,0.003625488281248456,-0.07302551269527541,-0.029498538309966547,0.0010659613107601377,0.05457008361816404,None,None,None,None
cf2,158.78,0.5535872802734375,-0.5597484130859375,0.58340234375,1.351772665977478,-0.06618652343746645,0.02524108886717654,-0.03623962402341896,-0.041908820759477404,0.013304964661997301,0.01659765624999998,None,None,None,None
cf3,158.78,-0.444509521484375,-0.5486566162109375,0.4141171875,1.7778187990188599,-0.008894348144526278,0.036074829101543776,-0.04363861083982167,-0.03061010352767216,0.01859366363990204,0.03588281250000003,None,None,None,None
cf1,158.79999999999998,0.5640261840820313,0.4322422180175781,0.24411653137207032,3.3551266193389893,-0.009222412109380412,0.003164672851563402,-0.06566925048834138,-0.029250202604659225,0.0009138615387820321,0.05588346862792967,None,None,None,None
cf2,158.79999999999998,0.552151123046875,-0.5592503662109375,0.5827471313476562,1.3747252225875854,-0.07180786132819231,0.024902343750022204,-0.03276062011721907,-0.040588000089040316,0.012809392446814331,0.017252868652343767,None,None,None,None
cf3,158.79999999999998,-0.44469049072265626,-0.5478911743164062,0.4133230895996094,1.7778187990188599,-0.009048461914071174,0.03827209472660059,-0.03970489501956556,-0.030695254631296437,0.01723530059418092,0.03667691040039062,None,None,None,None
cf1,158.82,0.5637613525390626,0.43227008056640626,0.24288946533203126,3.3551266193389893,-0.013241577148430548,0.0013931274414062478,-0.06135330200192133,-0.028887407971931754,0.0008524866309346733,0.057110534667968726,None,None,None,None
cf2,158.82,0.5506161499023438,-0.558687744140625,0.5822174072265626,1.3747252225875854,-0.07674865722652151,0.028131103515607367,-0.026486206054668664,-0.039134895247409325,0.012204235233379719,0.01778259277343741,None,None,None,None
cf3,158.82,-0.4449332275390625,-0.5471104736328125,0.4126100463867188,1.7778187990188599,-0.01213684082030587,0.039035034179665265,-0.035652160644512675,-0.030693527139272314,0.01582423386963047,0.037389953613281235,None,None,None,None
cf1,158.84,0.5635006713867188,0.43229476928710936,0.24164903259277346,3.385510206222534,-0.013034057617182786,0.0012344360351545305,-0.06202163696285864,-0.028525760033709928,0.0007979288680762874,0.058350967407226534,None,None,None,None
cf2,158.84,0.54903125,-0.5581729125976562,0.5816329956054688,1.3526203632354736,-0.07924499511714865,0.025741577148428327,-0.02922058105467477,-0.03755822895638989,0.01167248884125396,0.018367004394531206,None,None,None,None
cf3,158.84,-0.4451800537109375,-0.5463080444335937,0.4119529113769531,1.7764288187026978,-0.012341308593743286,0.04012145996091955,-0.032856750488266376,-0.0306839145103528,0.014315853013899009,0.0380470886230469,None,None,None,None
cf1,158.85999999999999,0.5632642822265626,0.4323270263671875,0.24047431945800782,3.385510206222534,-0.011819458007822007,0.0016128540039087827,-0.05873565673833527,-0.02819417252372506,0.0007217745094441527,0.05952568054199217,None,None,None,None
cf2,158.85999999999999,0.5474584350585937,-0.55758935546875,0.5812838745117188,1.3526203632354736,-0.07864074707038474,0.029177856445338105,-0.017456054687513878,-0.035945353287208916,0.010979034508951427,0.018716125488281166,None,None,None,None
cf3,158.85999999999999,-0.4454966125488281,-0.545468994140625,0.41135464477539063,1.7764288187026978,-0.015827941894545023,0.04195251464847379,-0.02991333007815123,-0.030577492360688227,0.012696014753282532,0.03864535522460938,None,None,None,None
cf1,158.88,0.5629510498046875,0.43229046630859375,0.23941404724121093,3.418549060821533,-0.01566162109374634,-0.0018280029296870533,-0.053013610839817225,-0.02774622322472716,0.0008281311014450054,0.06058595275878906,None,None,None,None
cf2,158.88,0.5457539672851562,-0.5570928344726562,0.5809119262695313,1.323553204536438,-0.0852233886718298,0.024826049804675464,-0.018597412109368418,-0.03407344378720926,0.010458526408762586,0.019088073730468724,None,None,None,None
cf3,158.88,-0.44583709716796877,-0.5446810302734375,0.4108462829589844,1.7512484788894653,-0.017024230957024163,0.0393981933593544,-0.025418090820298653,-0.03039920920483904,0.011124155167639456,0.03915371704101561,None,None,None,None
cf1,158.9,0.5626244506835938,0.432264404296875,0.23855378723144532,3.418549060821533,-0.016329956054675326,-0.0013031005859358564,-0.043013000488258325,-0.02727178255227499,0.0009099867795728259,0.061446212768554664,None,None,None,None
cf2,158.9,0.5439828491210937,-0.5565338134765625,0.5806254272460938,1.323553204536438,-0.08855590820307978,0.027951049804672133,-0.014324951171866161,-0.032026898803364005,0.00979575121182115,0.019374572753906194,None,None,None,None
cf3,158.9,-0.4461856384277344,-0.5438692626953125,0.4103370056152344,1.7512484788894653,-0.017427062988272755,0.04058837890622702,-0.025463867187487128,-0.03019349694991556,0.009431640313489358,0.039662994384765615,None,None,None,None
cf1,158.92,0.5623021240234375,0.43223449707031253,0.23761155700683595,3.418549060821533,-0.01611633300782978,-0.0014953613281256939,-0.0471115112305116,-0.02679519977628477,0.0010047120562603471,0.06238844299316404,None,None,None,None
cf2,158.92,0.542279052734375,-0.5559657592773437,0.5803470458984376,1.323553204536438,-0.0851898193360121,0.028402709960965465,-0.013919067382824227,-0.029937502756642493,0.009044658724750496,0.019652954101562425,None,None,None,None
cf3,158.92,-0.4465160217285156,-0.5430693969726562,0.40991165161132814,1.7512484788894653,-0.016519165039076168,0.03999328613285309,-0.021267700195331998,-0.029977132219783827,0.007685810789722136,0.04008834838867187,None,None,None,None
cf1,158.94,0.5619915771484375,0.4321662292480469,0.2367415466308594,3.4374477863311768,-0.015527343749991257,-0.0034133911132810135,-0.04350051879880574,-0.026325766041490648,0.0012076673113686248,0.0632584533691406,None,None,None,None
cf2,158.94,0.5405897827148438,-0.5555032958984375,0.580064697265625,1.3229918479919434,-0.08446350097651831,0.023123168945298582,-0.0141174316406184,-0.027680273428845128,0.008484876642419172,0.019935302734374938,None,None,None,None
cf3,158.94,-0.4469039001464844,-0.5422609252929688,0.4094681091308594,1.6948988437652588,-0.01939392089842902,0.040423583984351835,-0.022177124023425622,-0.029645473101298787,0.0058573096709777644,0.04053189086914061,None,None,None,None
cf1,158.95999999999998,0.561672607421875,0.43215332031250003,0.2360635528564453,3.4374477863311768,-0.015948486328141238,-0.000645446777342605,-0.03389968872073464,-0.02583785858170066,0.0012624714681378657,0.06393644714355468,None,None,None,None
cf2,158.95999999999998,0.5388327026367188,-0.5550379638671875,0.5798782348632813,1.3229918479919434,-0.08785400390633133,0.02326660156252054,-0.009323120117196868,-0.02511863322246161,0.007902008372330498,0.020121765136718706,None,None,None,None
cf3,158.95999999999998,-0.44728326416015624,-0.5414816284179688,0.4091286010742188,1.6948988437652588,-0.01896820068360898,0.038964843750035526,-0.01697540283204669,-0.02927189328001692,0.004017806846652635,0.04087139892578123,None,None,None,None
cf1,158.98,0.5612988891601562,0.43210324096679686,0.2354085693359375,3.42374324798584,-0.018685913085926698,-0.002503967285157167,-0.03274917602537331,-0.025252049236618675,0.0014289404720273706,0.06459143066406248,None,None,None,None
cf2,158.98,0.537170654296875,-0.5545113525390625,0.5797198486328126,1.3029686212539673,-0.08310241699214428,0.026330566406238393,-0.007919311523431451,-0.022471991005229026,0.007058065232049563,0.020280151367187416,None,None,None,None
cf3,158.98,-0.4476929626464844,-0.5407323608398438,0.40882644653320316,1.6620672941207886,-0.020484924316397434,0.037463378906230346,-0.015107727050773278,-0.02879848371278267,0.00218143266470662,0.04117355346679685,None,None,None,None
cf1,159.0,0.5609147338867188,0.4320049743652344,0.23475001525878908,3.42374324798584,-0.019207763671864775,-0.004913330078121487,-0.03292770385740476,-0.024631054311955062,0.0017431295135688033,0.06524998474121091,None,None,None,None
cf2,159.0,0.5354972534179687,-0.554091796875,0.5795685424804687,1.3029686212539673,-0.08367004394527361,0.020977783203113647,-0.007565307617187227,-0.019417324429906076,0.006456116846521488,0.020431457519531238,None,None,None,None
cf3,159.0,-0.44806149291992187,-0.5400331420898438,0.4085007934570313,1.6620672941207886,-0.01842651367186422,0.03496093749998251,-0.016282653808585842,-0.028320517146882166,0.00040079383083141157,0.041499206542968736,None,None,None,None
cf1,159.01999999999998,0.5606055908203125,0.4319873046875,0.23432546997070314,3.42374324798584,-0.015457153320328113,-0.0008834838867191316,-0.021227264404316427,-0.02412492312040166,0.001824342551940641,0.06567453002929685,None,None,None,None
cf2,159.01999999999998,0.5338598022460938,-0.5537139892578126,0.5794130859375,1.3029686212539673,-0.081872558593823,0.018890380859388184,-0.0077728271484460345,-0.01590161893127943,0.0059299958952290545,0.020586914062500017,None,None,None,None
cf3,159.01999999999998,-0.44845492553710936,-0.539330322265625,0.40823663330078125,1.6620672941207886,-0.019671630859392625,0.035140991210967684,-0.013208007812513323,-0.027744998673920482,-0.001448872977472433,0.04176336669921876,None,None,None,None
cf1,159.04,0.5602836303710937,0.43193753051757816,0.23392501831054688,3.434138298034668,-0.016098022460928153,-0.0024887084960915663,-0.020022583007802713,-0.023583038076445587,0.0020065977383213673,0.06607498168945311,None,None,None,None
cf2,159.04,0.5322765502929687,-0.5533043212890625,0.5793408203125,1.3029686212539673,-0.07916259765621106,0.020483398437493652,-0.0036132812499959756,-0.01170843814279252,0.005199903301161417,0.020659179687499973,None,None,None,None
cf3,159.04,-0.4488191528320313,-0.5387244873046875,0.4079908447265625,1.6335455179214478,-0.018211364746086433,0.030291748046863454,-0.012289428710931347,-0.02715454315010031,-0.003091244675745067,0.042009155273437515,None,None,None,None
cf1,159.06,0.5599633178710938,0.43182974243164063,0.23355300903320314,3.434138298034668,-0.01601562499999056,-0.005389404296873864,-0.018600463867177373,-0.023023206912520272,0.0023729555046086964,0.06644699096679685,None,None,None,None
cf2,159.06,0.5307540283203125,-0.5529586181640626,0.5793248291015625,1.2326213121414185,-0.07612609863277267,0.017285156249987648,-0.0007995605468765005,-0.00603006565448844,0.004638985643744792,0.02067517089843751,None,None,None,None
cf3,159.06,-0.449209228515625,-0.5380995483398437,0.407810791015625,1.6335455179214478,-0.019503784179676367,0.031246948242170225,-0.00900268554686984,-0.026460076193719265,-0.004828554804048066,0.042189208984375004,None,None,None,None
cf1,159.07999999999998,0.5596675415039063,0.43170330810546875,0.23323179626464843,3.4596776962280273,-0.014788818359387074,-0.006321716308599544,-0.01606063842774997,-0.022487181633148858,0.0028068311426040476,0.06676820373535156,None,None,None,None
cf2,159.07999999999998,0.529317626953125,-0.5526044921875,0.5791723022460937,1.1737176179885864,-0.07182006835943926,0.01770629882814568,-0.007626342773443815,0.0029780022084930973,0.0030312117191908655,0.02082769775390625,None,None,None,None
cf3,159.07999999999998,-0.4495821228027344,-0.5375338745117187,0.40759780883789065,1.604972004890442,-0.018644714355487174,0.02828369140627581,-0.010649108886727458,-0.025738962281625807,-0.0064363110765448825,0.04240219116210936,None,None,None,None
cf1,159.1,0.5593577270507812,0.43154583740234376,0.23298248291015625,3.4596776962280273,-0.015490722656244918,-0.00787353515624575,-0.012465667724602954,-0.02190246325652911,0.0033560491399365544,0.06701751708984374,None,None,None,None
cf2,159.1,0.5279676513671875,-0.552336181640625,0.5790902709960938,1.1737176179885864,-0.06749877929684167,0.01341552734373954,-0.004101562499995282,0.009521332285069045,0.0008571891109689818,0.020909729003906197,None,None,None,None
cf3,159.1,-0.44995602416992186,-0.5370419921875,0.4074323425292969,1.604972004890442,-0.01869506835936328,0.02459411621092274,-0.008273315429684,-0.024979138079809227,-0.007870298283625107,0.042567657470703124,None,None,None,None
cf1,159.12,0.5591267700195313,0.43139453125,0.23273217773437502,3.4596776962280273,-0.011547851562493026,-0.007565307617184451,-0.012515258789055054,-0.02144396907842198,0.003885700778004515,0.06726782226562497,None,None,None,None
cf2,159.12,0.5265895385742188,-0.5520760498046875,0.5791207275390625,1.1737176179885864,-0.0689056396484014,0.013006591796870255,0.0015228271484360992,0.013853321419602294,-0.0004434158636661001,0.02087927246093746,None,None,None,None
cf3,159.12,-0.4503173828125,-0.5365831909179688,0.40728872680664063,1.604972004890442,-0.01806793212889754,0.02294006347655023,-0.0071807861328090266,-0.024198592653465974,-0.009227764177324746,0.04271127319335938,None,None,None,None
cf1,159.14,0.5589366455078125,0.43124755859375,0.2326296844482422,3.445274591445923,-0.00950622558594548,-0.007348632812504996,-0.005124664306645708,-0.02104844802139941,0.0044030260511701055,0.06737031555175779,None,None,None,None
cf2,159.14,0.5253919677734376,-0.551873779296875,0.5791012573242188,1.1737176179885864,-0.05987854003911447,0.01011352539063513,-0.0009735107421868755,0.01683208083581032,-0.0011737209818516543,0.02089874267578118,None,None,None,None
cf3,159.14,-0.45064599609375,-0.53618798828125,0.40712686157226563,1.5627163648605347,-0.016430664062514987,0.019760131835956582,-0.008093261718757494,-0.023454469207242507,-0.010412423370972276,0.04287313842773438,None,None,None,None
cf1,159.16,0.5587528686523437,0.43109075927734375,0.23254579162597658,3.445274591445923,-0.009188842773434087,-0.007839965820309755,-0.004194641113278793,-0.02064906835641569,0.004959453557413942,0.06745420837402341,None,None,None,None
cf2,159.16,0.5242617797851563,-0.5516957397460938,0.5791383056640625,1.1572455167770386,-0.05650939941403306,0.008901977539056303,0.0018524169921864636,0.01925775801405007,-0.001691833933355661,0.02086169433593743,None,None,None,None
