Crazyflie name,QTM packet timestamp (s),x (m),y (m),z (m),yaw (째),vx (m/s),vy (m/s),vz (m/s),vx_c (m/s),vy_c (m/s),vz_c (m/s),roll_c (째),pitch_c (째),yaw_rate_c (째/s),thrust_c (PWM)
cf1,4017.52,0.512994384765625,0.48800360107421875,0.013702139854431153,0.06087448447942734,-0.00013732910156284694,-0.0003936767578125694,0.0002794742584231432,None,None,None,None,None,None,None
cf1,4017.54,0.5129872436523437,0.48800543212890624,0.013710089683532715,0.06087448447942734,-0.00035705566406340203,9.155273437430611e-05,0.0003974914550784546,None,None,None,None,None,None,None
cf1,4017.56,0.5129822998046875,0.488008056640625,0.013712062835693359,0.05924856662750244,-0.0002471923828131245,0.0001312255859393735,9.86576080322927e-05,None,None,None,None,None,None,None
cf1,4017.58,0.512985107421875,0.48800411987304687,0.013744853973388671,0.05924856662750244,0.00014038085937597143,-0.00019683837890767248,0.001639556884767117,None,None,None,None,None,None,None
cf1,4017.6,0.5129828491210937,0.4879874572753906,0.013799769401550293,0.06347129493951797,-0.00011291503906340206,-0.0008331298828136796,0.0027457714080835775,None,None,None,None,None,None,None
cf1,4017.62,0.5129642333984376,0.48799441528320314,0.013877727508544923,0.06347129493951797,-0.0009307861328086836,0.0003479003906268041,0.003897905349735029,None,None,None,None,None,None,None
cf1,4017.64,0.51294970703125,0.4879892272949219,0.013980743408203126,0.06347129493951797,-0.0007263183593793021,-0.00025939941406284694,0.005150794982914862,None,None,None,None,None,None,None
cf1,4017.66,0.5129340209960938,0.4879960632324219,0.014089372634887696,0.13892029225826263,-0.0007843017578120143,0.0003417968750005551,0.0054314613342334095,None,None,None,None,None,None,None
cf1,4017.68,0.51293115234375,0.4880093994140625,0.014547190666198731,0.13892029225826263,-0.00014343261718909595,0.0006668090820317011,0.02289090156557261,None,None,None,None,None,None,None
cf1,4017.7,0.5128417358398437,0.4881116333007813,0.01556593704223633,0.3670153021812439,-0.00447082519531701,0.005111694335942704,0.050937318801926215,None,None,None,None,None,None,None
cf1,4017.72,0.512691650390625,0.48832876586914065,0.017303327560424804,0.3670153021812439,-0.007504272460941039,0.010856628417978291,0.08686952590950275,None,None,None,None,None,None,None
cf1,4017.74,0.5124345092773438,0.4884296569824219,0.02019657325744629,0.3670153021812439,-0.012857055664073394,0.005044555664067843,0.1446622848512058,None,None,None,None,None,None,None
cf1,4017.7599999999998,0.5120361938476563,0.48860562133789065,0.024206655502319336,1.2074426412582397,-0.019915771484392625,0.008798217773444925,0.20050411224383471,None,None,None,None,None,None,None
cf1,4017.7799999999997,0.5115716247558594,0.48878448486328124,0.02933605194091797,1.2074426412582397,-0.023228454589867584,0.008943176269537808,0.256469821930165,None,None,None,None,None,None,None
cf1,4017.7999999999997,0.5109787292480469,0.48895962524414066,0.03554337692260742,2.2734012603759766,-0.029644775390651783,0.008757019042978846,0.3103662490847549,None,None,None,None,None,None,None
cf1,4017.8199999999997,0.5102494201660156,0.48909329223632814,0.04286637878417969,2.2734012603759766,-0.03646545410159727,0.006683349609379857,0.3661500930789464,None,None,None,None,None,None,None
cf1,4017.8399999999997,0.5094772644042969,0.4893554382324219,0.0511541748046875,2.2734012603759766,-0.03860778808597212,0.013107299804699643,0.41438980102576745,None,None,None,None,None,None,None
cf1,4017.8599999999997,0.5086129150390625,0.48957095336914064,0.060258098602294925,3.1464922428131104,-0.04321746826175855,0.010775756835947146,0.4551961898807852,None,None,None,None,None,None,None
cf1,4017.8799999999997,0.5076675720214844,0.48971771240234374,0.07001024627685547,3.1464922428131104,-0.04726715087894764,0.0073379516601618355,0.48760738372847057,None,None,None,None,None,None,None
cf1,4017.8999999999996,0.5066978149414063,0.48990310668945314,0.0802760467529297,3.7690634727478027,-0.04848785400394764,0.009269714355478291,0.5132900238041782,None,None,None,None,None,None,None
cf1,4017.9199999999996,0.5057735290527344,0.49001870727539065,0.09079249572753906,3.7690634727478027,-0.04621429443363618,0.005780029296880968,0.5258224487309464,None,None,None,None,None,None,None
cf1,4017.9399999999996,0.5048818359375,0.49008410644531253,0.10130902099609375,3.7690634727478027,-0.044584655761760766,0.0032699584960967686,0.5258262634282128,None,None,None,None,None,None,None
cf1,4017.96,0.5039379577636719,0.4901365051269531,0.11207355499267578,4.226105690002441,-0.04719390869037624,0.0026199340819721305,0.5382266998173533,None,None,None,None,None,None,None
cf1,4017.98,0.503136962890625,0.49018899536132815,0.12274002838134766,4.226105690002441,-0.04004974365237924,0.0026245117187541633,0.5333236694340792,None,None,None,None,None,None,None
cf1,4018.0,0.5024145202636718,0.4901527099609375,0.13333473205566407,4.535733699798584,-0.036122131347692925,-0.0018142700195333664,0.529735183716302,None,None,None,None,None,None,None
cf1,4018.02,0.5017441101074219,0.4900893859863281,0.14365505981445312,4.535733699798584,-0.03352050781252609,-0.00316619873047274,0.5160163879399218,None,None,None,None,None,None,None
cf1,4018.04,0.5011966247558594,0.49009243774414063,0.1537853240966797,4.535733699798584,-0.02737426757815345,0.0001525878906256939,0.5065132141117894,None,None,None,None,None,None,None
cf1,4018.06,0.5007088928222656,0.4899250183105469,0.16345591735839843,4.7024431228637695,-0.024386596679709636,-0.008370971679693537,0.4835296630863765,None,None,None,None,None,None,None
cf1,4018.08,0.5003160095214844,0.48964514160156253,0.17277999877929687,4.7024431228637695,-0.019644165039080057,-0.0139938354492319,0.46620407104534595,None,None,None,None,None,None,None
cf1,4018.1,0.5000033569335938,0.4893987731933594,0.18168434143066406,4.797749042510986,-0.015632629394543913,-0.012318420410167941,0.4452171325687645,None,None,None,None,None,None,None
cf1,4018.12,0.4998070068359375,0.4890870361328125,0.19017460632324218,4.797749042510986,-0.009817504882823116,-0.015586853027358148,0.4245132446292921,None,None,None,None,None,None,None
cf1,4018.14,0.4996672668457031,0.48872113037109377,0.19813308715820313,4.797749042510986,-0.006986999511724682,-0.018295288085953806,0.3979240417484095,None,None,None,None,None,None,None
cf1,4018.16,0.4995990905761719,0.488274658203125,0.20570144653320313,4.785560607910156,-0.003408813476563402,-0.022323608398459358,0.37841796875034417,None,None,None,None,None,None,None
cf1,4018.18,0.4996604309082031,0.4877565612792969,0.21271327209472657,4.785560607910156,0.003067016601562847,-0.025904846191428212,0.35059127807649076,None,None,None,None,None,None,None
cf1,4018.2,0.49980667114257815,0.487279541015625,0.21920150756835938,4.686913967132568,0.007312011718758604,-0.023851013183617306,0.32441177368193547,None,None,None,None,None,None,None
cf1,4018.22,0.5000078735351563,0.48668991088867186,0.2253385925292969,4.686913967132568,0.010060119628916554,-0.02948150634768293,0.30685424804715467,None,None,None,None,None,None,None
cf1,4018.24,0.5003044128417968,0.4861690368652344,0.23092941284179688,4.686913967132568,0.014826965332040028,-0.02604370117189762,0.27954101562525396,None,None,None,None,None,None,None
cf1,4018.2599999999998,0.5006147766113281,0.48554620361328127,0.23608995056152343,4.586510181427002,0.0155181884765795,-0.03114166259768404,0.25802688598656215,None,None,None,None,None,None,None
cf1,4018.2799999999997,0.5010655212402344,0.48499298095703125,0.240759765625,4.586510181427002,0.022537231445333664,-0.02766113281252609,0.2334907531740413,None,None,None,None,None,None,None
cf1,4018.2999999999997,0.501604248046875,0.48436782836914066,0.245018310546875,4.508327960968018,0.02693634033205335,-0.03125762939455779,0.21292724609394345,None,None,None,None,None,None,None
cf1,4018.3199999999997,0.5021484985351563,0.48374337768554687,0.24898556518554688,4.508327960968018,0.02721252441409116,-0.031222534179717962,0.19836273193377385,None,None,None,None,None,None,None
cf1,4018.3399999999997,0.5027330627441406,0.48318487548828126,0.25250714111328126,4.508327960968018,0.029228210449243557,-0.027925109863305847,0.17607879638687957,None,None,None,None,None,None,None
cf1,4018.3599999999997,0.50336962890625,0.4825266723632813,0.2556689605712891,4.431635856628418,0.031828308105498276,-0.03291015625002887,0.1580909729005342,-0.004122727167327342,0.0042628591756513545,0.04433103942871092,None,None,None,None
cf1,4018.3799999999997,0.5040480346679688,0.48206011962890627,0.25859057617187503,4.431635856628418,0.033920288085967684,-0.023327636718771926,0.14608078002943078,-0.0071335518685396275,0.006101654428436381,0.04140942382812496,None,None,None,None
cf1,4018.3999999999996,0.5047225952148438,0.4814788818359375,0.26114816284179687,4.353720188140869,0.0337280273437797,-0.029061889648464352,0.12787933349620834,-0.009372365755995267,0.008036660231798713,0.03885183715820312,None,None,None,None
cf1,4018.4199999999996,0.5054635314941406,0.480942138671875,0.2634124755859375,4.353720188140869,0.03704681396487536,-0.026837158203149008,0.1132156372071344,-0.011495386019648415,0.009442014469152125,0.03658752441406249,None,None,None,None
cf1,4018.4399999999996,0.5061558837890625,0.48056036376953126,0.26531768798828126,4.353720188140869,0.03461761474612785,-0.019088745117205194,0.09526062011727458,-0.013310885209118425,0.010206368886885477,0.03468231201171873,None,None,None,None
cf1,4018.46,0.5068377380371094,0.48008538818359375,0.2669159240722656,4.305295944213867,0.034092712401600736,-0.023748779296357082,0.07991180419747321,-0.01484476936679236,0.011209455294113836,0.03308407592773438,None,None,None,None
cf1,4018.48,0.5075960998535156,0.47968386840820315,0.26804290771484374,4.305295944213867,0.037918090820344766,-0.020075988769548355,0.056349182128957634,-0.016485516336927176,0.011868284801499998,0.03195709228515625,None,None,None,None
cf1,4018.5,0.50823681640625,0.47930517578125004,0.26885601806640624,4.270966529846191,0.03203582763674633,-0.01893463134767294,0.04065551757816233,-0.01774046989739881,0.012505591654179568,0.031143981933593745,None,None,None,None
cf1,4018.52,0.5088334045410157,0.47899627685546875,0.269366943359375,4.270966529846191,0.02982940673831251,-0.01544494628907839,0.025546264648461024,-0.018867669534274618,0.012954863423571553,0.03063305664062499,None,None,None,None
cf1,4018.54,0.5094431762695313,0.4787508239746094,0.26953839111328126,4.270966529846191,0.030488586425808623,-0.0122726440429794,0.008572387695320895,-0.02000229655647199,0.013217542890673393,0.030461608886718727,None,None,None,None
cf1,4018.56,0.5100242919921875,0.47857299804687503,0.26942041015625,4.224860668182373,0.02905578613283533,-0.008891296386725794,-0.005899047851567843,-0.021064355988637574,0.0133237105701719,0.030579589843749977,None,None,None,None
cf1,4018.58,0.5104886779785156,0.4784309997558594,0.26898779296875003,4.224860668182373,0.023219299316428212,-0.007099914550788085,-0.021630859375018872,-0.021879073821113766,0.013410979650596563,0.03101220703124996,None,None,None,None
cf1,4018.6,0.5109160461425781,0.4783504943847656,0.26836529541015625,4.160744667053223,0.02136840820314568,-0.004025268554692427,-0.031124877929717406,-0.02263228860756089,0.013370809037031257,0.03163470458984374,None,None,None,None
cf1,4018.62,0.511282470703125,0.4783352966308594,0.26754522705078126,4.160744667053223,0.01832122802736259,-0.0007598876953125693,-0.04100341796878636,-0.023288496295226783,0.013210201197124273,0.032454772949218724,None,None,None,None
cf1,4018.64,0.5116113891601562,0.478377197265625,0.2664262390136719,4.160744667053223,0.01644592285157506,0.002095031738282534,-0.05594940185551881,-0.023891317512935068,0.012937321915795429,0.03357376098632808,None,None,None,None
cf1,4018.66,0.5118236083984375,0.4784261169433594,0.26533740234375003,4.122275352478027,0.010610961914074504,0.0024459838867224625,-0.0544418334961434,-0.0242832435283591,0.012711898386910971,0.03466259765624996,None,None,None,None
cf1,4018.68,0.51203271484375,0.47850634765625,0.26410287475585936,4.122275352478027,0.010455322265632911,0.004011535644533366,-0.061726379394589435,-0.024678646719484467,0.012415489772872799,0.035897125244140626,None,None,None,None
cf1,4018.7,0.5121681518554687,0.4787121276855469,0.2627188720703125,4.076789855957031,0.006771850585941039,0.010289001464853707,-0.06920013427740478,-0.025003704894402966,0.011853122403728728,0.03728112792968746,None,None,None,None
cf1,4018.72,0.5121754150390625,0.4788571472167969,0.2613254699707031,4.076789855957031,0.00036315917968965107,0.007250976562507216,-0.06967010498053436,-0.025082973427550784,0.011496318909185654,0.03867453002929688,None,None,None,None
cf1,4018.74,0.5121492919921875,0.4791342468261719,0.25993612670898436,4.076789855957031,-0.0013061523437508326,0.01385498046876249,-0.06946716308600044,-0.02516471831319182,0.010825238700987075,0.04006387329101563,None,None,None,None
cf1,4018.7599999999998,0.51207568359375,0.47938232421875,0.25852078247070315,4.050667762756348,-0.003680419921878747,0.012403869628915999,-0.07076721191412502,-0.02515164351001642,0.010237000462649625,0.04147921752929684,None,None,None,None
cf1,4018.7799999999997,0.5119044189453125,0.4796601257324219,0.2570787353515625,4.050667762756348,-0.008563232421884299,0.01389007568360787,-0.07210235595709776,-0.024986971257084645,0.009603031319056297,0.042921264648437485,None,None,None,None
cf1,4018.7999999999997,0.5116976013183594,0.4800118103027344,0.2557309265136719,4.030120849609375,-0.010340881347662947,0.017584228515640128,-0.0673904418945911,-0.024787761734343976,0.008773812855586123,0.04426907348632808,None,None,None,None
cf1,4018.8199999999997,0.5113907470703125,0.48037420654296875,0.254444580078125,4.030120849609375,-0.015342712402358148,0.01811981201173523,-0.06431732177740478,-0.024416795023844116,0.00792677636791644,0.04555541992187501,None,None,None,None
cf1,4018.8399999999997,0.5110449829101562,0.4808133850097656,0.25308120727539063,4.030120849609375,-0.017288208007830888,0.021958923339863143,-0.06816864013677965,-0.02399289878121504,0.006845461683364131,0.04691879272460936,None,None,None,None
cf1,4018.8599999999997,0.5106739501953125,0.48116656494140625,0.25186862182617187,4.03378438949585,-0.018551635742203528,0.0176589965820478,-0.06062927246099322,-0.023476475383643745,0.005966942380384392,0.04813137817382812,None,None,None,None
cf1,4018.8799999999997,0.5102494506835937,0.4816312255859375,0.2506393737792969,4.03378438949585,-0.021224975585956582,0.023233032226584495,-0.06146240234380412,-0.02287539561797585,0.004728382363208458,0.049360626220703085,None,None,None,None
cf1,4018.8999999999996,0.5097722473144531,0.4820316162109375,0.2495253448486328,4.0181565284729,-0.02386016845705113,0.020019531250016653,-0.055701446533255185,-0.022125714951794075,0.003624949137381072,0.050474655151367176,None,None,None,None
cf1,4018.9199999999996,0.5091645812988281,0.4824938659667969,0.2485823974609375,4.0181565284729,-0.030383300781278034,0.02311248779299106,-0.047147369384808874,-0.02109584988857274,0.0022665616234884985,0.051417602539062496,None,None,None,None
cf1,4018.9399999999996,0.5086871643066406,0.48296646118164066,0.2475714569091797,4.0181565284729,-0.023870849609397067,0.02362976074221019,-0.050547027587935674,-0.02023354012462466,0.0007422269490729244,0.05242854309082029,None,None,None,None
cf1,4018.96,0.5081316528320312,0.4833946533203125,0.24672471618652345,3.961270809173584,-0.02777557372986451,0.021409606933124957,-0.042337036131888515,None,None,None,None,None,None,None
cf1,4018.98,0.5075326843261719,0.48386962890625,0.24603442382812502,3.961270809173584,-0.02994842529299106,0.023748779296897067,-0.034514617919952945,None,None,None,None,None,None,None
cf1,4019.0,0.5069650573730469,0.484320068359375,0.24533297729492187,3.8841054439544678,-0.028381347656279143,0.022521972656270817,-0.035072326660189036,None,None,None,None,None,None,None
cf1,4019.02,0.5063744506835938,0.4847149353027344,0.24472941589355468,3.8841054439544678,-0.02953033447268182,0.019743347167987174,-0.030178070068387044,None,None,None,None,None,None,None
cf1,4019.04,0.5057783813476563,0.4851081237792969,0.24423989868164064,3.8841054439544678,-0.029803466796900952,0.019659423828142904,-0.024475860595724097,None,None,None,None,None,None,None
cf1,4019.06,0.5052105407714844,0.4854720458984375,0.24392568969726564,3.8070361614227295,-0.02839202880861953,0.01819610595704669,-0.01571044921876471,None,None,None,None,None,None,None
cf1,4019.08,0.504717529296875,0.485806640625,0.24370787048339845,3.8070361614227295,-0.024650573730494944,0.016729736328140128,-0.010890960693369003,None,None,None,None,None,None,None
cf1,4019.1,0.5042154846191407,0.48611892700195314,0.24354920959472656,3.7680013179779053,-0.02510223388673745,0.015614318847670717,-0.007933044433601764,None,None,None,None,None,None,None
cf1,4019.12,0.5036959533691406,0.4864105834960938,0.24348422241210937,3.7680013179779053,-0.025976562500025537,0.01458282470704558,-0.003249359130862341,None,None,None,None,None,None,None
cf1,4019.14,0.5031700134277344,0.48669607543945315,0.24358139038085938,3.7680013179779053,-0.026296997070336996,0.014274597167981067,0.004858398437504718,None,None,None,None,None,None,None
cf1,4019.16,0.5027267150878907,0.4869217834472656,0.2437604217529297,3.749842405319214,-0.022164916992204638,0.011285400390633466,0.0089515686035239,None,None,None,None,None,None,None
cf1,4019.18,0.5023249816894532,0.4870932312011719,0.24399232482910158,3.749842405319214,-0.02008666992189429,0.008572387695320895,0.01159515380860454,None,None,None,None,None,None,None
cf1,4019.2,0.5019487915039063,0.4872702026367188,0.24433560180664063,3.7085492610931396,-0.01880950927736259,0.008848571777353152,0.017163848876968268,None,None,None,None,None,None,None
cf1,4019.22,0.5015959472656251,0.487445068359375,0.24476626586914063,3.7085492610931396,-0.017642211914075615,0.008743286132819786,0.021533203125019707,None,None,None,None,None,None,None
cf1,4019.24,0.5012833862304688,0.4876082763671875,0.24529754638671875,3.7085492610931396,-0.01562805175782978,0.008160400390632355,0.02656402587892988,None,None,None,None,None,None,None
cf1,4019.2599999999998,0.5010081787109375,0.48771316528320313,0.24586178588867189,3.659012794494629,-0.013760375976575059,0.005244445800785864,0.028211975097682654,None,None,None,None,None,None,None
cf1,4019.2799999999997,0.5007214660644531,0.4877853698730469,0.24646792602539064,3.659012794494629,-0.014335632324232454,0.003610229492190761,0.030307006835965187,None,None,None,None,None,None,None
cf1,4019.2999999999997,0.5005079040527344,0.48783868408203124,0.24705003356933594,3.6436667442321777,-0.01067810058594659,0.0026657104492202417,0.029105377197291664,None,None,None,None,None,None,None
cf1,4019.3199999999997,0.5002868041992188,0.48785287475585937,0.24772901916503906,3.6436667442321777,-0.01105499267578975,0.0007095336914071174,0.03394927978518682,None,None,None,None,None,None,None
cf1,4019.3399999999997,0.5001190490722657,0.48790460205078123,0.24838554382324218,3.6436667442321777,-0.008387756347662947,0.002586364746095658,0.032826232910185986,None,None,None,None,None,None,None
cf1,4019.3599999999997,0.49996295166015625,0.4879403991699219,0.24906831359863282,3.636772394180298,-0.007804870605478291,0.0017898559570339214,0.03413848876956307,None,None,None,None,None,None,None
cf1,4019.3799999999997,0.49984402465820316,0.48790576171875,0.24971487426757813,3.636772394180298,-0.00594635009766017,-0.0017318725585956582,0.032328033447294714,None,None,None,None,None,None,None
cf1,4019.3999999999996,0.4997173461914063,0.4878134765625,0.25049327087402345,3.5903327465057373,-0.006333923339849267,-0.00461425781250333,0.03891983032230165,None,None,None,None,None,None,None
cf1,4019.4199999999996,0.4996314392089844,0.48784915161132814,0.2514593505859375,3.5903327465057373,-0.004295349121098434,0.0017837524414076726,0.048303985595745745,None,None,None,None,None,None,None
cf1,4019.4399999999996,0.4995057373046875,0.4878279724121094,0.25265815734863284,3.5903327465057373,-0.006285095214850376,-0.0010589599609377083,0.05994033813482192,None,None,None,None,None,None,None
cf1,4019.46,0.49941387939453125,0.4878075561523438,0.2542085113525391,3.5673253536224365,-0.00459289550771258,-0.001020812988258768,0.07751770019361996,None,None,None,None,None,None,None
cf1,4019.48,0.49930752563476566,0.48780422973632814,0.2563046569824219,3.5673253536224365,-0.005317687988284199,-0.0001663208007819786,0.10480728149423564,None,None,None,None,None,None,None
cf1,4019.5,0.4992285461425781,0.4877610168457031,0.2587471008300781,3.641361951828003,-0.003948974609380968,-0.002160644531253608,0.12212219238292303,None,None,None,None,None,None,None
cf1,4019.52,0.49914456176757815,0.48781985473632816,0.2618265075683594,3.641361951828003,-0.004199218750001665,0.0029418945312552737,0.15397033691420384,None,None,None,None,None,None,None
cf1,4019.54,0.49902713012695316,0.487816650390625,0.265451904296875,3.641361951828003,-0.005871582031255274,-0.00016021728515850514,0.18126983642594408,None,None,None,None,None,None,None
cf1,4019.56,0.49888870239257815,0.48785833740234374,0.2696846008300781,3.7483580112457275,-0.006921386718756384,0.0020843505859393734,0.2116348266603489,None,None,None,None,None,None,None
cf1,4019.58,0.49874514770507816,0.48791897583007815,0.27442868041992186,3.7483580112457275,-0.007177734375006106,0.0030319213867230172,0.23720397949240282,None,None,None,None,None,None,None
cf1,4019.6,0.4985451354980469,0.4879541015625,0.27974169921875003,3.810359239578247,-0.010000610351571728,0.001756286621095103,0.26565093994165023,None,None,None,None,None,None,None
cf1,4019.62,0.4983220520019531,0.4880157165527344,0.28552816772460937,3.810359239578247,-0.011154174804699643,0.0030807495117219073,0.2893234252932303,None,None,None,None,None,None,None
cf1,4019.64,0.4981544494628906,0.4880259704589844,0.2917392578125,3.810359239578247,-0.008380126953132911,0.0005126953124994449,0.31055450439481314,None,None,None,None,None,None,None
cf1,4019.66,0.49798046875,0.48816824340820314,0.2983140563964844,3.8488264083862305,-0.008699035644537808,0.007113647460944369,0.32873992919951944,None,None,None,None,None,None,None
cf1,4019.68,0.4977545166015625,0.48820269775390623,0.3052348937988281,3.8488264083862305,-0.011297607421885963,0.0017227172851562848,0.3460418701175011,None,None,None,None,None,None,None
cf1,4019.7,0.49754931640625,0.4882123718261719,0.3124627685546875,3.8760972023010254,-0.010260009765634575,0.0004837036132830888,0.3613937377932986,None,None,None,None,None,None,None
cf1,4019.72,0.49730505371093753,0.48834344482421876,0.3198628234863281,3.8760972023010254,-0.012213134765634575,0.0065536499023498215,0.37000274658236587,None,None,None,None,None,None,None
cf1,4019.74,0.497082275390625,0.48841265869140627,0.327462158203125,3.8760972023010254,-0.011138916015636796,0.003460693359378192,0.3799667358401912,None,None,None,None,None,None,None
cf1,4019.7599999999998,0.49685757446289064,0.4884833984375,0.3351623229980469,3.8240694999694824,-0.011235046386728013,0.0035369873046896512,0.38500823974644316,None,None,None,None,None,None,None
cf1,4019.7799999999997,0.49662237548828125,0.4885144958496094,0.3429707946777344,3.8240694999694824,-0.011759948730479957,0.0015548706054705195,0.3904235839847307,None,None,None,None,None,None,None
cf1,4019.7999999999997,0.49641851806640624,0.4884872741699219,0.3508038635253906,3.744492292404175,-0.010192871093759714,-0.0013610839843759715,0.3916534423831673,None,None,None,None,None,None,None
cf1,4019.8199999999997,0.4962080688476563,0.488471923828125,0.3585059204101563,3.744492292404175,-0.010522460937507772,-0.0007675170898453806,0.3851028442386334,None,None,None,None,None,None,None
cf1,4019.8399999999997,0.49598303222656254,0.4884346618652344,0.3660845031738281,3.744492292404175,-0.011251831054697422,-0.001863098144532256,0.37892913818393703,None,None,None,None,None,None,None
cf1,4019.8599999999997,0.4957958374023438,0.4883211364746094,0.37351858520507814,3.644803047180176,-0.009359741210946034,-0.005676269531254163,0.3717041015628386,None,None,None,None,None,None,None
cf1,4019.8799999999997,0.49559869384765626,0.4881853942871094,0.38077056884765625,3.644803047180176,-0.009857177734385408,-0.0067871093750066615,0.36259918212923575,None,None,None,None,None,None,None
cf1,4019.8999999999996,0.49541659545898437,0.48808563232421875,0.38773480224609375,3.522221565246582,-0.009104919433602875,-0.004988098144536142,0.34821166992219127,None,None,None,None,None,None,None
cf1,4019.9199999999996,0.49521401977539065,0.4879606628417969,0.39432980346679686,3.522221565246582,-0.010128784179695201,-0.006248474121098434,0.3297500610354555,None,None,None,None,None,None,None
cf1,4019.9399999999996,0.49509490966796876,0.48786813354492187,0.4005287170410156,3.522221565246582,-0.005955505371099544,-0.0046264648437558285,0.3099456787112197,None,None,None,None,None,None,None
cf1,4019.96,0.4949346618652344,0.48759356689453126,0.4064835205078125,3.358822822570801,-0.008012390136544168,-0.013728332519230658,0.29774017333334535,None,None,None,None,None,None,None
cf1,4019.98,0.4948539733886719,0.4874732666015625,0.41187002563476566,3.358822822570801,-0.004034423828129024,-0.006015014648444369,0.2693252563479028,None,None,None,None,None,None,None
cf1,4020.0,0.4946963806152344,0.48720980834960936,0.41700393676757813,3.1894431114196777,-0.007879638671880412,-0.013172912597667941,0.2566955566408572,None,None,None,None,None,None,None
cf1,4020.02,0.49464514160156253,0.4869722595214844,0.4215751647949219,3.1894431114196777,-0.0025619506835962134,-0.01187744140626027,0.22856140136739672,None,None,None,None,None,None,None
cf1,4020.04,0.49452981567382814,0.4867440795898438,0.425710205078125,3.1894431114196777,-0.005766296386724682,-0.011408996582040028,0.20675201416034336,None,None,None,None,None,None,None
cf1,4020.06,0.4944710693359375,0.4864908142089844,0.42939559936523436,3.038499593734741,-0.002937316894535587,-0.012663269042981621,0.18426971435563483,None,None,None,None,None,None,None
cf1,4020.08,0.4944019470214844,0.48622024536132813,0.43270303344726563,3.038499593734741,-0.003456115722658505,-0.013528442382824782,0.16537170410171384,None,None,None,None,None,None,None
cf1,4020.1,0.4943689880371094,0.48591433715820315,0.43555947875976564,2.832585573196411,-0.0016479492187513878,-0.015295410156263045,0.14282226562513045,None,None,None,None,None,None,None
cf1,4020.12,0.49437335205078126,0.48564886474609376,0.43793429565429687,2.832585573196411,0.00021820068359399287,-0.013273620605481621,0.11874084472666943,None,None,None,None,None,None,None
cf1,4020.14,0.4943370361328125,0.4854248962402344,0.43989697265625,2.832585573196411,-0.0018157958984399286,-0.011198425292978846,0.09813385009774565,None,None,None,None,None,None,None
cf1,4020.16,0.4943472900390625,0.4850997314453125,0.4416729125976563,2.6714224815368652,0.0005126953125022205,-0.016258239746109536,0.08879699707039528,None,None,None,None,None,None,None
cf1,4020.18,0.49434249877929687,0.48489730834960937,0.4429671325683594,2.6714224815368652,-0.0002395629882830888,-0.010121154785165166,0.06471099853521457,None,None,None,None,None,None,None
cf1,4020.2,0.4943472900390625,0.484622802734375,0.44406900024414064,2.5583975315093994,0.0002395629882830888,-0.013725280761729679,0.05509338378911225,None,None,None,None,None,None,None
cf1,4020.22,0.49428897094726565,0.4843545227050781,0.4449442749023438,2.5583975315093994,-0.0029159545898464908,-0.013414001464857593,0.043763732910196806,None,None,None,None,None,None,None
cf1,4020.24,0.49432125854492187,0.4841013488769531,0.4455796813964844,2.5583975315093994,0.0016143798828125693,-0.012658691406261935,0.03177032470706001,None,None,None,None,None,None,None
cf1,4020.2599999999998,0.4943828125,0.4839073486328125,0.44598504638671876,2.462156295776367,0.0030776977539087825,-0.009700012207040028,0.02026824951173634,None,None,None,None,None,None,None
cf1,4020.2799999999997,0.4943912048339844,0.48368038940429686,0.44633132934570313,2.462156295776367,0.0004196166992213521,-0.011347961425791416,0.01731414794923412,None,None,None,None,None,None,None
cf1,4020.2999999999997,0.49441961669921874,0.48346295166015624,0.4465850830078125,2.3905560970306396,0.0014205932617180213,-0.010871887207041138,0.012687683105481067,None,None,None,None,None,None,None
cf1,4020.3199999999997,0.4944490966796875,0.4832785339355469,0.44673260498046874,2.3905560970306396,0.0014739990234393734,-0.009220886230476625,0.007376098632817565,None,None,None,None,None,None,None
cf1,4020.3399999999997,0.4944758911132813,0.48306289672851566,0.4468634033203125,2.3905560970306396,0.001339721679689651,-0.010781860351570619,0.006539916992193537,None,None,None,None,None,None,None
cf1,4020.3599999999997,0.49444207763671877,0.48285659790039065,0.4469501647949219,2.275883674621582,-0.001690673828126804,-0.010314941406259714,0.00433807373047385,None,None,None,None,None,None,None
cf1,4020.3799999999997,0.4944374694824219,0.4826833190917969,0.4470345764160156,2.275883674621582,-0.0002304077148437153,-0.008663940429695201,0.004220581054690762,None,None,None,None,None,None,None
cf1,4020.3999999999996,0.4943717956542969,0.48250405883789066,0.447201904296875,0.020386086776852608,-0.003283691406253053,-0.00896301269532034,0.008366394042976625,None,None,None,None,None,None,None
cf1,4020.4199999999996,0.4942911987304688,0.4823884887695313,0.44734356689453125,0.020386086776852608,-0.004029846191409338,-0.005778503417974405,0.0070831298828186754,None,None,None,None,None,None,None
cf1,4020.4399999999996,0.49419454956054687,0.482305908203125,0.4475250244140625,0.020386086776852608,-0.004832458496100099,-0.0041290283203164555,0.009072875976570619,None,None,None,None,None,None,None
cf1,4020.46,0.4940989074707031,0.4822430114746094,0.44775698852539064,-3.4644267559051514,-0.004782104492083139,-0.0031448364257121385,0.011598205566153952,None,None,None,None,None,None,None
cf1,4020.48,0.49398309326171874,0.4822239990234375,0.44803677368164063,-3.4644267559051514,-0.005790710449224128,-0.0009506225585967684,0.013989257812512212,None,None,None,None,None,None,None
cf1,4020.5,0.49388323974609377,0.48218362426757816,0.448418701171875,-7.000589847564697,-0.004992675781253053,-0.002018737792968299,0.01909637451173523,None,None,None,None,None,None,None
cf1,4020.52,0.49373272705078125,0.48218096923828124,0.4488329162597656,-7.000589847564697,-0.00752563476563291,-0.00013275146484593574,0.020710754394550574,None,None,None,None,None,None,None
cf1,4020.54,0.4935870056152344,0.482181884765625,0.4493260803222656,-7.000589847564697,-0.0072860717773498215,4.5776367188540834e-05,0.024658203125022204,None,None,None,None,None,None,None
cf1,4020.56,0.4934535522460938,0.48215313720703123,0.4498387145996094,-10.211146354675293,-0.006672668457036697,-0.0014373779296902062,0.025631713867211855,None,None,None,None,None,None,None
cf1,4020.58,0.4933110961914063,0.48215542602539063,0.45039846801757816,-10.211146354675293,-0.007122802734380968,0.0001144409179699643,0.0279876708984638,None,None,None,None,None,None,None
cf1,4020.6,0.4932400817871094,0.48222674560546874,0.4509706726074219,-12.930691719055176,-0.003550720214848711,0.0035659790039087825,0.02861022949221352,None,None,None,None,None,None,None
cf1,4020.62,0.49316967773437503,0.48227734375000003,0.45157769775390627,-12.930691719055176,-0.0035202026367202417,0.002529907226566733,0.030351257324245776,None,None,None,None,None,None,None
cf1,4020.64,0.49315435791015627,0.4823402709960938,0.4522500305175781,-12.930691719055176,-0.0007659912109388184,0.003146362304690206,0.03361663818362286,None,None,None,None,None,None,None
cf1,4020.66,0.4931166076660156,0.4824014892578125,0.45295840454101566,-15.167486190795898,-0.0018875122070344766,0.0030609130859393734,0.035418701171909275,None,None,None,None,None,None,None
cf1,4020.68,0.493134033203125,0.4824062194824219,0.4536774597167969,-15.167486190795898,0.0008712768554694092,0.0002365112304699643,0.03595275878909504,None,None,None,None,None,None,None
cf1,4020.7,0.49315374755859376,0.4823739318847656,0.45437615966796874,-17.021799087524414,0.0009857177734393734,-0.001614379882815345,0.034934997558623414,None,None,None,None,None,None,None
cf1,4020.72,0.49317169189453125,0.4824410400390625,0.45503146362304686,-17.021799087524414,0.0008972167968754163,0.003355407714847601,0.032765197753935986,None,None,None,None,None,None,None
cf1,4020.74,0.49320166015625,0.48254138183593753,0.4557155456542969,-17.021799087524414,0.0014984130859388184,0.005017089843755274,0.03420410156253275,None,None,None,None,None,None,None
cf1,4020.7599999999998,0.49320852661132814,0.4825808715820313,0.4563896179199219,-20.02199363708496,0.00034332275390711736,0.001974487304689096,0.033703613281280256,None,None,None,None,None,None,None
cf1,4020.7799999999997,0.49325473022460936,0.4826239624023438,0.4570924072265625,-20.02199363708496,0.002310180664063402,0.002154541015627359,0.0351394653320639,None,None,None,None,None,None,None
cf1,4020.7999999999997,0.49332107543945314,0.48266986083984376,0.4578403015136719,-24.393945693969727,0.0033172607421918716,0.002294921875000555,0.03739471435550216,None,None,None,None,None,None,None
cf1,4020.8199999999997,0.4933644714355469,0.4827359008789063,0.4585081787109375,-24.393945693969727,0.002169799804690206,0.0033020019531290246,0.033393859863311955,None,None,None,None,None,None,None
cf1,4020.8399999999997,0.4934289245605469,0.4828343811035156,0.4591139831542969,-24.393945693969727,0.003222656250001665,0.0049240112304716295,0.030290222167997163,None,None,None,None,None,None,None
cf1,4020.8599999999997,0.4935130920410156,0.48300018310546877,0.45971035766601565,-28.722196578979492,0.004208374023441039,0.008290100097665166,0.0298187255859638,None,None,None,None,None,None,None
cf1,4020.8799999999997,0.4935603942871094,0.48314627075195316,0.4602644348144531,-28.722196578979492,0.0023651123046913164,0.007304382324225793,0.02770385742189873,None,None,None,None,None,None,None
cf1,4020.8999999999996,0.4936237487792969,0.48326513671875,0.46080603027343753,-33.64604187011719,0.0031677246093765265,0.005943298339847046,0.027079772949245223,None,None,None,None,None,None,None
cf1,4020.9199999999996,0.4936622314453125,0.4834290466308594,0.4613059997558594,-33.64604187011719,0.0019241333007836438,0.008195495605477736,0.024998474121116197,None,None,None,None,None,None,None
cf1,4020.9399999999996,0.4937184448242188,0.48365203857421873,0.4618489685058594,-33.64604187011719,0.0028106689453159,0.011149597167977181,0.02714843750002387,None,None,None,None,None,None,None
cf1,4020.96,0.49375244140625,0.483906005859375,0.46234658813476565,-39.96048355102539,0.0016998291015247525,0.0126983642575355,0.024880981444770155,None,None,None,None,None,None,None
cf1,4020.98,0.49381423950195313,0.48415789794921876,0.46280459594726564,-39.96048355102539,0.003089904785158505,0.012594604492200198,0.02290039062502054,None,None,None,None,None,None,None
cf1,4021.0,0.49385305786132816,0.48436578369140626,0.46314288330078124,-46.07688522338867,0.0019409179687530532,0.010394287109384299,0.0169143676757953,None,None,None,None,None,None,None
cf1,4021.02,0.49393161010742187,0.4846259765625,0.4634430847167969,-46.07688522338867,0.003927612304689096,0.013009643554699088,0.015010070800796967,None,None,None,None,None,None,None
cf1,4021.04,0.49398928833007816,0.48487808227539064,0.46374978637695313,-46.07688522338867,0.0028839111328170103,0.012605285644543359,0.015335083007825337,None,None,None,None,None,None,None
cf1,4021.06,0.49403955078125,0.48514456176757814,0.4640603332519531,-51.97892761230469,0.002513122558594548,0.013323974609387074,0.015527343750013323,None,None,None,None,None,None,None
cf1,4021.08,0.4940974731445313,0.48545733642578126,0.4643476257324219,-51.97892761230469,0.002896118164066733,0.015638732910170164,0.014364624023451586,None,None,None,None,None,None,None
cf1,4021.1,0.49417077636718754,0.48581146240234374,0.4646683349609375,-59.24406814575195,0.0036651611328159,0.017706298828140128,0.016035461425795858,None,None,None,None,None,None,None
cf1,4021.12,0.49423416137695314,0.48609735107421875,0.4649080505371094,-59.24406814575195,0.0031692504882830886,0.0142944335937636,0.011985778808603985,None,None,None,None,None,None,None
cf1,4021.14,0.49431695556640626,0.4864247436523438,0.46513143920898437,-59.24406814575195,0.0041397094726596155,0.016369628906266375,0.011169433593759714,None,None,None,None,None,None,None
cf1,4021.16,0.4944067687988281,0.48669943237304686,0.4653498229980469,-66.44607543945312,0.004490661621096769,0.013734436035166277,0.010919189453136241,None,None,None,None,None,None,None
cf1,4021.18,0.49449777221679686,0.48691616821289063,0.4655094909667969,-66.44607543945312,0.004550170898441594,0.010836791992198534,0.007983398437507217,None,None,None,None,None,None,None
cf1,4021.2,0.4945934143066406,0.487166259765625,0.46567535400390625,-72.94022369384766,0.004782104492191871,0.012504577636729679,0.008293151855475515,None,None,None,None,None,None,None
cf1,4021.22,0.49472509765625,0.4874270935058594,0.46590466308593753,-72.94022369384766,0.006584167480475515,0.013041687011731345,0.011465454101574504,None,None,None,None,None,None,None
cf1,4021.24,0.4948619384765625,0.48771502685546875,0.4661256103515625,-72.94022369384766,0.0068420410156318,0.014396667480481067,0.011047363281259714,None,None,None,None,None,None,None
cf1,4021.2599999999998,0.4950310974121094,0.4879700927734375,0.4663583374023438,-80.68215942382812,0.008457946777350931,0.012753295898449365,0.011636352539073394,None,None,None,None,None,None,None
cf1,4021.2799999999997,0.49526516723632813,0.48819412231445314,0.4665487976074219,-80.68215942382812,0.011703491210948255,0.011201477050791971,0.00952301025391489,None,None,None,None,None,None,None
cf1,4021.2999999999997,0.495471923828125,0.48839889526367186,0.466753662109375,-86.8752212524414,0.010337829589852597,0.01023864746094548,0.010243225097665166,None,None,None,None,None,None,None
cf1,4021.3199999999997,0.495689697265625,0.4885982666015625,0.4669997863769531,-86.8752212524414,0.010888671875010547,0.009968566894542247,0.012306213378915444,None,None,None,None,None,None,None
cf1,4021.3399999999997,0.49592437744140627,0.4887978515625,0.46724517822265627,-86.8752212524414,0.01173400878907395,0.009979248046882633,0.012269592285169053,None,None,None,None,None,None,None
cf1,4021.3599999999997,0.4961944274902344,0.4890433654785156,0.4674910583496094,-94.8802719116211,0.013502502441418774,0.012275695800792526,0.012294006347668498,None,None,None,None,None,None,None
cf1,4021.3799999999997,0.4965438232421875,0.48927056884765624,0.46772930908203125,-94.8802719116211,0.017469787597670164,0.011360168457041138,0.011912536621102875,None,None,None,None,None,None,None
cf1,4021.3999999999996,0.4968744812011719,0.4894819030761719,0.4679311828613281,-103.77098846435547,0.01653289794923523,0.010566711425792526,0.010093688964852597,None,None,None,None,None,None,None
cf1,4021.4199999999996,0.49726638793945316,0.48972262573242187,0.4682188415527344,-103.77098846435547,0.019595336914081166,0.012036132812509436,0.014382934570327558,None,None,None,None,None,None,None
cf1,4021.4399999999996,0.49767092895507814,0.4899591979980469,0.4684512329101563,-103.77098846435547,0.020227050781267485,0.01182861328126138,0.011619567871103985,None,None,None,None,None,None,None
cf1,4021.46,0.49806106567382813,0.4901822814941406,0.4686647644042969,-112.0085220336914,0.019506835937073676,0.011154174804443251,0.010676574706797271,None,None,None,None,None,None,None
cf1,4021.48,0.4984488220214844,0.49035867309570313,0.468841064453125,-112.0085220336914,0.01938781738283033,0.00881958007813402,0.008815002441414335,None,None,None,None,None,None,None
cf1,4021.5,0.4988717041015625,0.4905659484863281,0.46904849243164065,-119.0130615234375,0.021144104003925437,0.010363769531258605,0.010371398925791416,None,None,None,None,None,None,None
cf1,4021.52,0.49934594726562503,0.4907408447265625,0.46917315673828125,-119.0130615234375,0.0237121582031479,0.008744812011726348,0.006233215332035587,None,None,None,None,None,None,None
cf1,4021.54,0.4997840576171875,0.49090353393554687,0.469291259765625,-119.0130615234375,0.021905517578144566,0.008134460449226348,0.005905151367194092,None,None,None,None,None,None,None
cf1,4021.56,0.5002561950683594,0.4910877685546875,0.46949114990234375,-125.66077423095703,0.02360687255861453,0.009211730957040028,0.00999450683594548,None,None,None,None,None,None,None
cf1,4021.58,0.5007023010253906,0.4912510681152344,0.4696119384765625,-125.66077423095703,0.02230529785158061,0.008164978027352042,0.006039428710943815,None,None,None,None,None,None,None
cf1,4021.6,0.501168212890625,0.4913839416503906,0.4697972106933594,-133.17013549804688,0.02329559326173967,0.006643676757817565,0.009263610839852042,None,None,None,None,None,None,None
cf1,4021.62,0.5017143249511719,0.4915419921875,0.4699648132324219,-133.17013549804688,0.02730560302736925,0.00790252685547607,0.008380126953132911,None,None,None,None,None,None,None
cf1,4021.64,0.5022622680664063,0.49169229125976566,0.470084716796875,-133.17013549804688,0.027397155761746332,0.00751495361328975,0.0059951782226618355,None,None,None,None,None,None,None
cf1,4021.66,0.5028541870117188,0.49182632446289065,0.47021221923828127,-141.9483184814453,0.029595947265652893,0.0067016601562558285,0.006375122070318121,None,None,None,None,None,None,None
cf1,4021.68,0.5035067749023437,0.49194012451171876,0.4703614501953125,-141.9483184814453,0.032629394531276924,0.005690002441410448,0.007461547851568398,None,None,None,None,None,None,None
cf1,4021.7,0.5042123107910156,0.49207373046875,0.4704193725585938,-151.08718872070312,0.03527679443362397,0.0066802978515695085,0.002896118164066733,None,None,None,None,None,None,None
cf1,4021.72,0.5048662414550782,0.49217709350585936,0.47045397949218754,-151.08718872070312,0.032696533203160114,0.0051681518554716295,0.001730346679689096,None,None,None,None,None,None,None
cf1,4021.74,0.5056050720214844,0.49231188964843753,0.4705492858886719,-151.08718872070312,0.036941528320344766,0.006739807128914334,0.0047653198242224625,None,None,None,None,None,None,None
cf1,4021.7599999999998,0.5063312072753906,0.4924095764160156,0.47055447387695315,-160.3606719970703,0.03630676269534255,0.004884338378909338,0.00025939941406284694,None,None,None,None,None,None,None
cf1,4021.7799999999997,0.5071283264160157,0.4924194030761719,0.4705558471679688,-160.3606719970703,0.039855957031290246,0.0004913330078131245,6.866455078142347e-05,None,None,None,None,None,None,None
cf1,4021.7999999999997,0.5079108581542969,0.492428955078125,0.4705006408691406,-170.2947998046875,0.039126586914097816,0.0004776000976568398,-0.002760314941410448,None,None,None,None,None,None,None
cf1,4021.8199999999997,0.5087131042480468,0.4924383850097656,0.4704161071777344,-170.2947998046875,0.040112304687531644,0.0004714965820305908,-0.004226684570314235,None,None,None,None,None,None,None
cf1,4021.8399999999997,0.5094837646484375,0.49242926025390626,0.4702500915527344,-170.2947998046875,0.03853302001956723,-0.00045623779296774384,-0.008300781250008327,None,None,None,None,None,None,None
cf1,4021.8599999999997,0.510277587890625,0.4923645324707031,0.469952392578125,-179.44235229492188,0.039691162109414826,-0.0032363891601607255,-0.014884948730483842,None,None,None,None,None,None,None
cf1,4021.8799999999997,0.5110488891601562,0.4922572937011719,0.46965814208984374,-179.44235229492188,0.038565063476593935,-0.005361938476566177,-0.014712524414075615,None,None,None,None,None,None,None
cf1,4021.8999999999996,0.5117957763671875,0.4921165161132813,0.4692697448730469,172.82940673828125,0.037344360351599486,-0.007038879394536697,-0.019419860839859814,None,None,None,None,None,None,None
cf1,4021.9199999999996,0.5125684814453125,0.4918759765625,0.4688330993652344,172.82940673828125,0.038635253906284694,-0.012026977539075615,-0.021832275390646232,None,None,None,None,None,None,None
cf1,4021.9399999999996,0.51330419921875,0.4916263122558594,0.4683382873535156,172.82940673828125,0.036785888671908726,-0.012483215332040583,-0.024740600585959914,None,None,None,None,None,None,None
cf1,4021.96,0.5139769287109375,0.49130548095703125,0.4677443542480469,166.62815856933594,0.03363647460863781,-0.01604156494105736,-0.029696655272788575,None,None,None,None,None,None,None
cf1,4021.98,0.514640380859375,0.49101373291015626,0.4671574401855469,166.62815856933594,0.03317260742190761,-0.01458740234376249,-0.029345703125026646,None,None,None,None,None,None,None
cf1,4022.0,0.5152520751953125,0.4906666259765625,0.46648617553710936,161.74554443359375,0.030584716796899843,-0.017355346679702975,-0.033563232421907056,None,None,None,None,None,None,None
cf1,4022.02,0.515818115234375,0.4902698974609375,0.4657332458496094,161.74554443359375,0.02830200195315456,-0.01983642578126804,-0.037646484375032194,None,None,None,None,None,None,None
cf1,4022.04,0.516347412109375,0.48986431884765624,0.46497659301757815,161.74554443359375,0.026464843750019985,-0.020278930664082276,-0.03783264160159671,None,None,None,None,None,None,None
cf1,4022.06,0.5168892822265625,0.4894323120117188,0.46423779296875,158.15829467773438,0.027093505859401505,-0.02160034179689318,-0.03694000244144098,None,None,None,None,None,None,None
cf1,4022.08,0.5173631591796876,0.4889197998046875,0.46346075439453127,158.15829467773438,0.023693847656274702,-0.025625610351585608,-0.03885192871097212,None,None,None,None,None,None,None
cf1,4022.1,0.5178347778320312,0.4884062194824219,0.46266845703125004,155.49827575683594,0.02358093261720575,-0.025679016113304184,-0.039614868164097816,None,None,None,None,None,None,None
cf1,4022.12,0.51825341796875,0.4878935546875,0.461876220703125,155.49827575683594,0.02093200683595769,-0.02563323974611842,-0.03961181640628747,None,None,None,None,None,None,None
cf1,4022.14,0.5186859741210937,0.4873289794921875,0.46099942016601564,155.49827575683594,0.02162780761720575,-0.028228759765650674,-0.043840026855508266,None,None,None,None,None,None,None
cf1,4022.16,0.51910400390625,0.48674118041992187,0.46023709106445315,153.6010284423828,0.020901489257831998,-0.029389953613308623,-0.038116455078159,None,None,None,None,None,None,None
cf1,4022.18,0.5194862670898438,0.48612637329101566,0.45938638305664065,153.6010284423828,0.019113159179707413,-0.030740356445338658,-0.042535400390663995,None,None,None,None,None,None,None
cf1,4022.2,0.5198271484375,0.48543936157226564,0.45851046752929686,152.30189514160156,0.017044067382825337,-0.034350585937532194,-0.04379577636722906,None,None,None,None,None,None,None
cf1,4022.22,0.5201617431640625,0.48481753540039063,0.45769854736328125,152.30189514160156,0.016729736328140128,-0.031091308593778587,-0.040596008300817506,None,None,None,None,None,None,None
cf1,4022.24,0.52049365234375,0.48413037109375,0.45679162597656253,152.30189514160156,0.016595458984390403,-0.03435821533206223,-0.045346069335977124,None,None,None,None,None,None,None
cf1,4022.2599999999998,0.5208250732421875,0.48343170166015625,0.45595913696289064,151.38821411132812,0.01657104492189096,-0.03493347167971963,-0.0416244506836323,None,None,None,None,None,None,None
cf1,4022.2799999999997,0.521072509765625,0.4826752014160156,0.45508502197265627,151.38821411132812,0.012371826171886518,-0.037825012207066674,-0.04370574951175855,None,None,None,None,None,None,None
cf1,4022.2999999999997,0.5212899780273438,0.481896728515625,0.4542137756347656,151.3953399658203,0.0108734130859477,-0.038923645019566674,-0.043562316894572226,None,None,None,None,None,None,None
cf1,4022.3199999999997,0.5215330200195313,0.4812080078125,0.4534704895019531,151.3953399658203,0.012152099609385963,-0.034436035156280256,-0.037164306640658444,None,None,None,None,None,None,None
cf1,4022.3399999999997,0.5217255859375,0.48039236450195316,0.45271435546875,151.3953399658203,0.009628295898442704,-0.04078216552737924,-0.0378067016601907,None,None,None,None,None,None,None
cf1,4022.3599999999997,0.52192822265625,0.479625732421875,0.4520905151367188,154.04908752441406,0.010131835937513878,-0.03833160400394264,-0.031192016601589493,None,None,None,None,None,None,None
cf1,4022.3799999999997,0.5221489868164063,0.47890420532226563,0.45155838012695315,154.04908752441406,0.011038208007823116,-0.03607635498050161,-0.026606750488305294,None,None,None,None,None,None,None
cf1,4022.3999999999996,0.522372314453125,0.4781301879882813,0.4509671630859375,157.4939727783203,0.01116638183594659,-0.038700866699252996,-0.02956085205081029,None,None,None,None,None,None,None
cf1,4022.4199999999996,0.5225513305664062,0.4773307800292969,0.45052954101562503,157.4939727783203,0.008950805664067843,-0.03997039794925466,-0.021881103515642347,None,None,None,None,None,None,None
cf1,4022.4399999999996,0.5227656860351563,0.4766002197265625,0.45013543701171876,157.4939727783203,0.010717773437511657,-0.03652801513675244,-0.019705200195331445,None,None,None,None,None,None,None
cf1,4022.46,0.5229471435546875,0.4758524169921875,0.4497301940917969,161.10447692871094,0.009072875976364326,-0.0373901367179351,-0.02026214599565216,None,None,None,None,None,None,None
cf1,4022.48,0.5231624755859375,0.4751029052734375,0.4493822937011719,161.10447692871094,0.010766601562510547,-0.03747558593753331,-0.017395019531265266,None,None,None,None,None,None,None
cf1,4022.5,0.5233345336914063,0.4743919372558594,0.4491312561035156,166.74578857421875,0.008602905273443814,-0.03554840087893931,-0.012551879882824782,None,None,None,None,None,None,None
cf1,4022.52,0.523528076171875,0.4737499084472656,0.4489382019042969,166.74578857421875,0.009677124023447146,-0.03210144042971741,-0.009652709960944925,None,None,None,None,None,None,None
cf1,4022.54,0.5238113403320312,0.47305657958984376,0.44874346923828123,166.74578857421875,0.014163208007824227,-0.03466644287112397,-0.009736633300791971,None,None,None,None,None,None,None
cf1,4022.56,0.5240739135742187,0.4723845520019531,0.4486436462402344,172.8885040283203,0.013128662109385963,-0.033601379394562786,-0.004991149902346491,None,None,None,None,None,None,None
cf1,4022.58,0.5243219604492187,0.4717347412109375,0.4486324157714844,172.8885040283203,0.012402343750012212,-0.03249053955081029,-0.0005615234375011102,None,None,None,None,None,None,None
cf1,4022.6,0.524625,0.4711457214355469,0.44861538696289066,178.5760040283203,0.015151977539076725,-0.029450988769557235,-0.0008514404296868755,None,None,None,None,None,None,None
cf1,4022.62,0.5249502563476562,0.47059072875976565,0.44861224365234376,178.5760040283203,0.016262817382826446,-0.02774963378908727,-0.00015716552734538065,None,None,None,None,None,None,None
cf1,4022.64,0.5252721557617187,0.47008413696289064,0.4486528015136719,178.5760040283203,0.016094970703137906,-0.025329589843773592,0.0020278930664076726,None,None,None,None,None,None,None
cf1,4022.66,0.5256136474609375,0.4696264343261719,0.44871148681640627,-174.3238525390625,0.017074584960956582,-0.02288513183595769,0.0029342651367224625,None,None,None,None,None,None,None
cf1,4022.68,0.5259562377929687,0.4691615600585938,0.44877276611328126,-174.3238525390625,0.017129516601576168,-0.023243713378927656,0.003063964843752498,None,None,None,None,None,None,None
cf1,4022.7,0.5263197021484375,0.4686968994140625,0.4489150390625,-166.77330017089844,0.018173217773453806,-0.023233032226584495,0.007113647460944369,None,None,None,None,None,None,None
cf1,4022.72,0.5267216186523438,0.46834487915039064,0.4490186157226563,-166.77330017089844,0.020095825195333664,-0.017601013183609536,0.005178833007817565,None,None,None,None,None,None,None
cf1,4022.74,0.5271380004882813,0.46805548095703126,0.4490639953613281,-166.77330017089844,0.02081909179689429,-0.014469909667982176,0.002268981933594548,None,None,None,None,None,None,None
cf1,4022.7599999999998,0.527571533203125,0.4677955017089844,0.4490875854492188,-159.90773010253906,0.021676635742204638,-0.012998962402355927,0.0011795043945339214,None,None,None,None,None,None,None
cf1,4022.7799999999997,0.5280958862304688,0.4675752563476563,0.44911297607421874,-159.90773010253906,0.02621765136721241,-0.011012268066414335,0.0012695312499988898,None,None,None,None,None,None,None
cf1,4022.7999999999997,0.5285721435546875,0.46739309692382813,0.44906365966796874,-152.4258575439453,0.0238128662109588,-0.009107971191415999,-0.0024658203125022204,None,None,None,None,None,None,None
cf1,4022.8199999999997,0.5290299072265625,0.4672403869628906,0.44903704833984376,-152.4258575439453,0.022888183593770817,-0.0076354980468831875,-0.0013305664062502776,None,None,None,None,None,None,None
cf1,4022.8399999999997,0.5295485229492187,0.4671678466796875,0.44894183349609373,-152.4258575439453,0.02593078613283422,-0.0036270141601573947,-0.004760742187505551,None,None,None,None,None,None,None
cf1,4022.8599999999997,0.5300718383789063,0.4671547546386719,0.44884619140625,-144.16651916503906,0.026165771484400396,-0.0006546020507819786,-0.004782104492191871,None,None,None,None,None,None,None
cf1,4022.8799999999997,0.5305791625976563,0.4671786193847656,0.4487098083496094,-144.16651916503906,0.02536621093752276,0.0011932373046874307,-0.006819152832036142,None,None,None,None,None,None,None
cf1,4022.8999999999996,0.5311105346679688,0.4672848205566406,0.44853778076171874,-136.80526733398438,0.026568603515649564,0.005310058593754163,-0.008601379394540028,None,None,None,None,None,None,None
cf1,4022.9199999999996,0.531665771484375,0.46742837524414066,0.44828253173828125,-136.80526733398438,0.027761840820336996,0.0071777343750088814,-0.012762451171885963,None,None,None,None,None,None,None
cf1,4022.9399999999996,0.5321986694335937,0.4675850524902344,0.4479727783203125,-136.80526733398438,0.026644897460961024,0.007833862304694647,-0.01548767089845103,None,None,None,None,None,None,None
cf1,4022.96,0.5327583618164062,0.46783316040039064,0.4476102294921875,-130.33921813964844,0.027984619140014377,0.012405395507540495,-0.01812744140585587,None,None,None,None,None,None,None
cf1,4022.98,0.5333228149414062,0.4681600646972656,0.44723944091796874,-130.33921813964844,0.028222656250024424,0.016345214843764156,-0.018539428710953806,None,None,None,None,None,None,None
cf1,4023.0,0.5338541870117187,0.46847167968750003,0.4469434509277344,-122.79145050048828,0.026568603515649564,0.015580749511734675,-0.014799499511730234,None,None,None,None,None,None,None
cf1,4023.02,0.53438427734375,0.4688027038574219,0.44665557861328126,-122.79145050048828,0.026504516601590603,0.016551208496108426,-0.014393615722670717,None,None,None,None,None,None,None
cf1,4023.04,0.5348704223632813,0.4691904907226563,0.4463519592285156,-122.79145050048828,0.02430725097658505,0.019389343261736896,-0.015180969238295856,None,None,None,None,None,None,None
cf1,4023.06,0.5353866577148437,0.4696827087402344,0.445992919921875,-115.37725830078125,0.025811767578144566,0.024610900878927103,-0.01795196533204669,None,None,None,None,None,None,None
cf1,4023.08,0.5358905639648438,0.4702481689453125,0.4455604248046875,-115.37725830078125,0.025195312500026646,0.028273010253932654,-0.0216247558593954,None,None,None,None,None,None,None
cf1,4023.1,0.5363236083984375,0.47076617431640627,0.44519647216796876,-108.94898986816406,0.021652221679705194,0.025900268554711302,-0.01819763183595325,None,None,None,None,None,None,None
cf1,4023.12,0.5368055419921876,0.4713419799804688,0.44479745483398436,-108.94898986816406,0.02409667968752387,0.028790283203151783,-0.019950866699238005,None,None,None,None,None,None,None
cf1,4023.14,0.53726953125,0.47203396606445314,0.4442774353027344,-108.94898986816406,0.023199462890642904,0.03459930419924911,-0.026000976562522204,None,None,None,None,None,None,None
cf1,4023.16,0.5376695556640625,0.4726563720703125,0.4438845825195313,-102.5732650756836,0.020001220703143457,0.03112030029299772,-0.019642639160173492,None,None,None,None,None,None,None
cf1,4023.18,0.5380811767578125,0.47330331420898436,0.4435653991699219,-102.5732650756836,0.02058105468752054,0.032347106933621195,-0.0159591674804844,None,None,None,None,None,None,None
cf1,4023.2,0.5384639282226562,0.4740443725585938,0.4432130126953125,-95.31289672851562,0.01913757324220131,0.037052917480504384,-0.017619323730485508,None,None,None,None,None,None,None
cf1,4023.22,0.53885498046875,0.47482550048828126,0.44287493896484376,-95.31289672851562,0.019552612304708526,0.03905639648440983,-0.01690368652345214,None,None,None,None,None,None,None
cf1,4023.24,0.5392084350585937,0.47552935791015627,0.44267614746093753,-95.31289672851562,0.01767272949220131,0.035192871093782475,-0.00993957519532034,None,None,None,None,None,None,None
cf1,4023.2599999999998,0.5395758056640625,0.4763298034667969,0.442427978515625,-88.6270980834961,0.018368530273454916,0.040022277832066674,-0.012408447265638462,None,None,None,None,None,None,None
cf1,4023.2799999999997,0.5398960571289063,0.47713546752929686,0.44218798828125,-88.6270980834961,0.01601257324220575,0.04028320312503608,-0.01199951171876027,None,None,None,None,None,None,None
cf1,4023.2999999999997,0.5402116088867187,0.47789129638671873,0.44200115966796877,-82.27371978759766,0.01577758789063402,0.03779144287112785,-0.009341430664070064,None,None,None,None,None,None,None
cf1,4023.3199999999997,0.5404805908203125,0.47865408325195313,0.4418747253417969,-82.27371978759766,0.013449096679702973,0.03813934326175466,-0.006321716308599544,None,None,None,None,None,None,None
cf1,4023.3399999999997,0.5407210693359376,0.4794518127441406,0.4417955322265625,-82.27371978759766,0.01202392578126249,0.03988647460941039,-0.003959655761724128,None,None,None,None,None,None,None
cf1,4023.3599999999997,0.5408965454101563,0.48027151489257813,0.4417304992675781,-74.70555877685547,0.00877380371094548,0.040985107421913164,-0.003251647949220797,None,None,None,None,None,None,None
cf1,4023.3799999999997,0.5411093139648437,0.4810786743164063,0.44172943115234375,-74.70555877685547,0.010638427734381523,0.040357971191443756,-5.340576171857653e-05,None,None,None,None,None,None,None
cf1,4023.3999999999996,0.5412339477539062,0.48184210205078126,0.4417598266601563,-67.47930145263672,0.006231689453129024,0.03817138671878414,0.0015197753906279142,None,None,None,None,None,None,None
cf1,4023.4199999999996,0.5413309326171876,0.4826241149902344,0.44172335815429686,-67.47930145263672,0.004849243164072284,0.03910064697269181,-0.0018234252929727399,None,None,None,None,None,None,None
cf1,4023.4399999999996,0.5413550415039062,0.4834228820800781,0.44173818969726564,-67.47930145263672,0.0012054443359343775,0.039938354492222404,0.0007415771484393735,None,None,None,None,None,None,None
cf1,4023.46,0.5414100341796875,0.4842579345703125,0.44175909423828125,-60.96089553833008,0.0027496337890019927,0.0417526245108092,0.0010452270507576578,None,None,None,None,None,None,None
cf1,4023.48,0.54137158203125,0.48505825805664066,0.44177099609375003,-60.96089553833008,-0.0019226074218743061,0.0400161743164432,0.0005950927734399286,None,None,None,None,None,None,None
cf1,4023.5,0.5413674926757812,0.48582568359375,0.44181134033203123,-53.267452239990234,-0.00020446777344048373,0.03837127685550216,0.0020172119140617365,None,None,None,None,None,None,None
cf1,4023.52,0.541298583984375,0.48663308715820314,0.4418789367675781,-53.267452239990234,-0.0034454345703125696,0.040370178222693474,0.003379821777347046,None,None,None,None,None,None,None
cf1,4023.54,0.5411613159179688,0.4874985961914063,0.4419377746582031,-53.267452239990234,-0.006863403320318121,0.043275451660196806,0.002941894531252498,None,None,None,None,None,None,None
cf1,4023.56,0.5409972534179688,0.48833053588867187,0.44191336059570313,-45.72986602783203,-0.008203125000007772,0.04159698486331695,-0.001220703125,None,None,None,None,None,None,None
cf1,4023.58,0.5408016357421875,0.48915444946289066,0.4418793640136719,-45.72986602783203,-0.009780883789071174,0.041195678710977124,-0.0016998291015634021,None,None,None,None,None,None,None
cf1,4023.6,0.5405813598632813,0.4899871826171875,0.44178125,-39.150997161865234,-0.011013793945323671,0.04163665771487924,-0.004905700683598434,None,None,None,None,None,None,None
