Crazyflie name,QTM packet timestamp (s),x (m),y (m),z (m),yaw (째),vx (m/s),vy (m/s),vz (m/s),vx_c (m/s),vy_c (m/s),vz_c (m/s),roll_c (째),pitch_c (째),yaw_rate_c (째/s),thrust_c (PWM)
cf1,2148.68,0.5680421752929687,0.4483482360839844,0.013789588928222657,0.019328556954860687,-0.0009124755859410388,-3.051757812569389e-05,-0.00027375221252466236,None,None,None,None,None,None,None
cf2,2148.68,0.543094482421875,-0.5376749877929687,0.007891027927398682,0.047553956508636475,0.000576782226558406,0.0005950927734371531,-0.0003430843353274466,None,None,None,None,None,None,None
cf1,2148.7,0.568044189453125,0.4483450622558594,0.01379321575164795,0.018119752407073975,0.00010070800781090405,-0.00015869140624916734,0.00018134117126480782,None,None,None,None,None,None,None
cf2,2148.7,0.5431039428710938,-0.5376770019531251,0.007895133495330811,0.04890967160463333,0.0004730224609399286,-0.00010070800781645516,0.0002052783966066459,None,None,None,None,None,None,None
cf1,2148.72,0.5680391235351563,0.44833984375,0.013788058280944825,0.018119752407073975,-0.0002532958984338224,-0.0002609252929694092,-0.00025787353515645815,None,None,None,None,None,None,None
cf2,2148.72,0.5430993041992188,-0.5376704101562501,0.007899259090423584,0.04890967160463333,-0.000231933593747502,0.0003295898437508327,0.00020627975463881717,None,None,None,None,None,None,None
cf1,2148.74,0.5680447387695312,0.4483462829589844,0.013798525810241699,0.019375542178750038,0.00028076171874639175,0.00032196044921802144,0.0005233764648441663,None,None,None,None,None,None,None
cf2,2148.74,0.54310595703125,-0.53768359375,0.00791542625427246,0.04890967160463333,0.00033264160155840606,-0.0006591796874961143,0.0008083581924445551,None,None,None,None,None,None,None
cf1,2148.7599999999998,0.5680375366210938,0.4483611450195313,0.013828130722045898,0.019375542178750038,-0.00036010742187097546,0.0007431030273459358,0.0014802455902112913,None,None,None,None,None,None,None
cf2,2148.7599999999998,0.5431087646484375,-0.5376680908203125,0.00793298578262329,0.04377123340964317,0.00014038085937597143,0.0007751464843726407,0.0008779764175423198,None,None,None,None,None,None,None
cf1,2148.7799999999997,0.568041259765625,0.4483600769042969,0.013870238304138183,0.019375542178750038,0.0001861572265617367,-5.340576171857653e-05,0.0021053791046161843,None,None,None,None,None,None,None
cf2,2148.7799999999997,0.5431352539062501,-0.5376728515625,0.008019513130187988,0.04377123340964317,0.0013244628906295796,-0.000238037109373751,0.0043263673782387825,None,None,None,None,None,None,None
cf1,2148.7999999999997,0.5680548706054688,0.4483241271972656,0.013950780868530273,0.013232066296041012,0.0006805419921879857,-0.0017974853515667327,0.004027128219608152,None,None,None,None,None,None,None
cf2,2148.7999999999997,0.5431215209960938,-0.5377388916015625,0.008170863151550294,0.055020760744810104,-0.0006866455078142347,-0.0033020019531290246,0.007567501068122171,None,None,None,None,None,None,None
cf1,2148.8199999999997,0.5680521850585938,0.44825750732421876,0.014058011054992676,0.013232066296041012,-0.00013427734374972246,-0.003330993652345381,0.005361509323125008,None,None,None,None,None,None,None
cf2,2148.8199999999997,0.5430547485351562,-0.5378001708984375,0.008497819900512696,0.055020760744810104,-0.0033386230468809676,-0.0030639648437497226,0.01634783744813498,None,None,None,None,None,None,None
cf1,2148.8399999999997,0.5680393676757812,0.4482721252441406,0.014576655387878418,0.09080419689416885,-0.0006408691406284694,0.0007308959960934377,0.025932216644310682,None,None,None,None,None,None,None
cf2,2148.8399999999997,0.5429197998046875,-0.5378791503906251,0.00943610668182373,0.055020760744810104,-0.006747436523441594,-0.003948974609383743,0.04691433906559442,None,None,None,None,None,None,None
cf1,2148.86,0.5678677978515625,0.4483518676757813,0.01587190055847168,0.09080419689416885,-0.008578491210749318,0.0039871215819460406,0.06476225852824949,None,None,None,None,None,None,None
cf2,2148.86,0.5426581420898438,-0.5380103149414063,0.011283865928649902,0.20926198363304138,-0.013082885741902727,-0.006558227538917616,0.09238796233929195,None,None,None,None,None,None,None
cf1,2148.88,0.5677933349609375,0.44854632568359376,0.01845081901550293,0.09080419689416885,-0.0037231445312513878,0.009722900390632911,0.12894592285167975,None,None,None,None,None,None,None
cf2,2148.88,0.542050537109375,-0.5381873779296875,0.014797721862792969,0.20926198363304138,-0.03038024902346491,-0.008853149414070064,0.1756927967073131,None,None,None,None,None,None,None
cf1,2148.9,0.5674840087890625,0.4488681335449219,0.022475618362426758,0.779496967792511,-0.015466308593767486,0.016090393066420995,0.20123996734637448,None,None,None,None,None,None,None
cf2,2148.9,0.54110791015625,-0.5383345336914063,0.02009227180480957,0.20926198363304138,-0.04713134765629136,-0.007357788085944369,0.2647274971010709,None,None,None,None,None,None,None
cf1,2148.92,0.56701318359375,0.4491922912597656,0.028080303192138674,0.779496967792511,-0.023541259765646232,0.01620788574220131,0.2802342414858507,None,None,None,None,None,None,None
cf2,2148.92,0.5396661987304687,-0.5383961791992188,0.02740493583679199,0.909148633480072,-0.07208557128913112,-0.0030822753906284694,0.36563320159945356,None,None,None,None,None,None,None
cf1,2148.94,0.566351806640625,0.4497601318359375,0.03530207443237305,1.9129055738449097,-0.03306884765627803,0.02839202880861953,0.3610885620120472,None,None,None,None,None,None,None
cf2,2148.94,0.5376358642578125,-0.5383070678710937,0.036801074981689455,0.909148633480072,-0.10151672363290305,0.004455566406256939,0.46980695724530047,None,None,None,None,None,None,None
cf1,2148.96,0.5655351562500001,0.45021920776367186,0.044060661315917966,1.9129055738449097,-0.040832519531284694,0.022953796386739115,0.4379293441776441,None,None,None,None,None,None,None
cf2,2148.96,0.5348928833007812,-0.5379713134765625,0.04807209777832031,1.7875863313674927,-0.1371490478516894,0.01678771972657839,0.5635511398320554,None,None,None,None,None,None,None
cf1,2148.98,0.5645100708007813,0.4508241271972656,0.05421741485595703,1.9129055738449097,-0.05125427246098434,0.030245971679715187,0.5078376770024152,None,None,None,None,None,None,None
cf2,2148.98,0.5316009521484375,-0.5375079956054688,0.061098609924316406,1.7875863313674927,-0.16459655761733566,0.023165893554704085,0.6513256073003971,None,None,None,None,None,None,None
cf1,2149.0,0.563394287109375,0.4515177612304688,0.0655642318725586,2.6810662746429443,-0.05578918457036586,0.03468170166018959,0.5673408508305942,None,None,None,None,None,None,None
cf2,2149.0,0.5278631591796875,-0.536841796875,0.07577140808105469,3.402848720550537,-0.1868896484376693,0.03330993652347046,0.7336399078375814,None,None,None,None,None,None,None
cf1,2149.02,0.5621693725585938,0.45224197387695314,0.07800021362304688,2.6810662746429443,-0.061245727539116696,0.03621063232425133,0.6217990875249796,None,None,None,None,None,None,None
cf2,2149.02,0.52360205078125,-0.5359524536132813,0.09199278259277344,3.402848720550537,-0.2130554199220697,0.04446716308597767,0.8110687255866751,None,None,None,None,None,None,None
cf1,2149.04,0.5609066162109375,0.4529401550292969,0.09124491119384766,3.0060458183288574,-0.06313781738287086,0.034909057617220185,0.6622348785406413,None,None,None,None,None,None,None
cf2,2149.04,0.519006103515625,-0.5348973388671875,0.1098026123046875,3.402848720550537,-0.22979736328145678,0.05275573730473628,0.8904914855965134,None,None,None,None,None,None,None
cf1,2149.06,0.5596819458007812,0.4536483459472656,0.10516690063476562,3.0060458183288574,-0.061233520507869746,0.03540954589846713,0.6960994720465313,None,None,None,None,None,None,None
cf2,2149.06,0.5141452026367188,-0.5336923217773437,0.12879421997070312,3.892669200897217,-0.2430450439455324,0.060250854492243495,0.9495803833016442,None,None,None,None,None,None,None
cf1,2149.08,0.5583991088867187,0.454327392578125,0.11963224029541016,3.0060458183288574,-0.06414184570318343,0.03395233154299994,0.7232669830328845,None,None,None,None,None,None,None
cf2,2149.08,0.50922021484375,-0.532307373046875,0.14913554382324218,3.892669200897217,-0.24624938964866364,0.0692474365234971,1.0170661926278781,None,None,None,None,None,None,None
cf1,2149.1,0.55723828125,0.454871337890625,0.13428224182128906,3.184807538986206,-0.058041381835991,0.027197265625025537,0.7325000762946114,None,None,None,None,None,None,None
cf2,2149.1,0.5043706665039063,-0.53093115234375,0.17056695556640625,4.08413553237915,-0.24247741699240782,0.06881103515631468,1.071570587159178,None,None,None,None,None,None,None
cf1,2149.12,0.5560625,0.45535366821289064,0.1490950164794922,3.184807538986206,-0.05878906250005107,0.024116516113303628,0.7406387329108302,None,None,None,None,None,None,None
cf2,2149.12,0.49982623291015627,-0.529548095703125,0.19292820739746094,4.08413553237915,-0.22722167968770707,0.06915283203131245,1.1180625915537517,None,None,None,None,None,None,None
cf1,2149.14,0.5550297241210937,0.45567907714843753,0.16373576354980468,3.386183023452759,-0.051638793945360306,0.016270446777359258,0.7320373535162902,None,None,None,None,None,None,None
cf2,2149.14,0.4955041198730469,-0.52821533203125,0.21591490173339845,4.08413553237915,-0.2161056518556659,0.06663818359380856,1.1493347167979204,None,None,None,None,None,None,None
cf1,2149.16,0.5540336303710938,0.45597238159179687,0.17823599243164062,3.386183023452759,-0.04980468750004441,0.014665222167980512,0.7250114440924564,None,None,None,None,None,None,None
cf2,2149.16,0.4916893615722656,-0.5270869140625,0.23926863098144532,4.075342178344727,-0.1907379150392366,0.056420898437554955,1.167686462403406,None,None,None,None,None,None,None
cf1,2149.18,0.5531851806640625,0.4561900939941406,0.1923863067626953,3.386183023452759,-0.04242248535160059,0.010885620117197422,0.7075157165533775,None,None,None,None,None,None,None
cf2,2149.18,0.4882614440917969,-0.5259907836914063,0.26291278076171876,4.075342178344727,-0.17139587402359202,0.05480651855473406,1.182207489014747,None,None,None,None,None,None,None
cf1,2149.2,0.5524580078125,0.45621044921875004,0.2061727294921875,3.5745577812194824,-0.036358642578160114,0.0010177612304716297,0.6893211364752374,None,None,None,None,None,None,None
cf2,2149.2,0.4852291564941406,-0.5250364990234375,0.2864830017089844,4.006060600280762,-0.1516143798829519,0.04771423339848156,1.1785110473643534,None,None,None,None,None,None,None
cf1,2149.22,0.551776611328125,0.4561910095214844,0.2195619354248047,3.5745577812194824,-0.03406982421877748,-0.0009719848632830889,0.6694602966314686,None,None,None,None,None,None,None
cf2,2149.22,0.4826333923339844,-0.5242031860351563,0.3099668884277344,4.006060600280762,-0.12978820800792915,0.04166564941410115,1.1741943359385687,None,None,None,None,None,None,None
cf1,2149.24,0.5511992797851563,0.4560295104980469,0.23233343505859375,3.5745577812194824,-0.028866577148466018,-0.008074951171881523,0.6385749816900328,None,None,None,None,None,None,None
cf2,2149.24,0.48048861694335937,-0.52353759765625,0.3330482788085938,4.006060600280762,-0.10723876953134853,0.033279418945344766,1.1540695190440187,None,None,None,None,None,None,None
cf1,2149.2599999999998,0.5507769165039063,0.4557979736328125,0.24453500366210937,3.718458414077759,-0.02111816406251943,-0.011576843261731345,0.610078430176336,None,None,None,None,None,None,None
cf2,2149.2599999999998,0.4788545227050781,-0.5230201416015625,0.3555831604003906,3.8811771869659424,-0.08170471191413724,0.025872802734395954,1.1267440795908668,None,None,None,None,None,None,None
cf1,2149.2799999999997,0.5504285278320312,0.4554518737792969,0.25618072509765627,3.718458414077759,-0.017419433593767485,-0.017304992675794745,0.5822860717778747,None,None,None,None,None,None,None
cf2,2149.2799999999997,0.4775401611328125,-0.5226119995117188,0.3775443115234375,3.8811771869659424,-0.06571807861334027,0.02040710449220575,1.0980575561533419,None,None,None,None,None,None,None
cf1,2149.2999999999997,0.5501843872070312,0.45500762939453127,0.26713751220703125,3.7593648433685303,-0.012207031250011102,-0.02221221923830252,0.5478393554692471,None,None,None,None,None,None,None
cf2,2149.2999999999997,0.47672625732421875,-0.5223427124023438,0.39859967041015626,3.691701650619507,-0.04069519042972462,0.013464355468763045,1.0527679443368965,None,None,None,None,None,None,None
cf1,2149.3199999999997,0.5500595703125,0.4544924011230469,0.2775046081542969,3.7593648433685303,-0.006240844726568398,-0.02576141357424189,0.5183547973637538,None,None,None,None,None,None,None
cf2,2149.3199999999997,0.47636233520507815,-0.5223295288085937,0.41891650390625,3.691701650619507,-0.01819610595704669,0.0006591796875016654,1.0158416748056116,None,None,None,None,None,None,None
cf1,2149.3399999999997,0.5500782470703125,0.45386245727539065,0.2872642517089844,3.6958630084991455,0.0009338378906273593,-0.03149719238284088,0.48798217773481894,None,None,None,None,None,None,None
cf2,2149.3399999999997,0.476395751953125,-0.5223866577148437,0.43829119873046873,3.691701650619507,0.0016708374023442704,-0.002856445312501665,0.968734741211817,None,None,None,None,None,None,None
cf1,2149.36,0.550173583984375,0.4532715148925781,0.2961849060058594,3.6958630084991455,0.004766845703020639,-0.029547119139982182,0.4460327148340139,None,None,None,None,None,None,None
cf2,2149.36,0.4768422241210938,-0.5226078491210938,0.4565313415527344,3.4746696949005127,0.022323608397951777,-0.011059570312263522,0.9120071410933758,None,None,None,None,None,None,None
cf1,2149.38,0.5503134765625,0.452620849609375,0.3045909423828125,3.6958630084991455,0.006994628906254718,-0.032533264160185704,0.4203018188480365,None,None,None,None,None,None,None
cf2,2149.38,0.477490478515625,-0.5228218383789063,0.473531494140625,3.4746696949005127,0.03241271972658949,-0.010699462890632911,0.8500076293953038,None,None,None,None,None,None,None
cf1,2149.4,0.5506254272460938,0.45185394287109376,0.31242172241210936,3.587982177734375,0.015597534179704085,-0.038345336914096154,0.3915390014652001,None,None,None,None,None,None,None
cf2,2149.4,0.4784983520507813,-0.523475341796875,0.48985684204101565,3.2117371559143066,0.05039367675786086,-0.03267517089846824,0.8162673950202745,None,None,None,None,None,None,None
cf1,2149.42,0.5510360717773438,0.4510458374023438,0.3196087341308594,3.587982177734375,0.020532226562521648,-0.04040527343753608,0.3593505859378281,None,None,None,None,None,None,None
cf2,2149.42,0.4799258728027344,-0.5241025390625,0.5050204162597657,3.2117371559143066,0.07137603759772124,-0.03135986328127803,0.7581787109381911,None,None,None,None,None,None,None
cf1,2149.44,0.551484619140625,0.45028286743164064,0.3262336120605469,3.4467782974243164,0.022427368164077834,-0.038148498535191255,0.3312438964846774,None,None,None,None,None,None,None
cf2,2149.44,0.481610107421875,-0.52489306640625,0.5190289916992188,3.2117371559143066,0.08421173095710553,-0.03952636718753386,0.7004287719732925,None,None,None,None,None,None,None
cf1,2149.46,0.5520752563476563,0.44937841796875,0.33230419921875,3.4467782974243164,0.029531860351593935,-0.04522247314457333,0.30352935791042995,None,None,None,None,None,None,None
cf2,2149.46,0.4836375427246094,-0.5257427978515625,0.5320031127929687,2.8907270431518555,0.10137176513681295,-0.04248657226566511,0.6487060546880878,None,None,None,None,None,None,None
cf1,2149.48,0.5526182861328125,0.4484755554199219,0.33787557983398436,3.4467782974243164,0.02715148925783422,-0.045143127441445975,0.27856903076197226,None,None,None,None,None,None,None
cf2,2149.48,0.48604412841796873,-0.5266566162109375,0.5438300170898438,2.8907270431518555,0.12032928466807599,-0.0456909179687908,0.5913452148442904,None,None,None,None,None,None,None
cf1,2149.5,0.5533074340820313,0.4475632019042969,0.3428916320800781,3.3053767681121826,0.03445739746097212,-0.045617675781292465,0.2508026123049156,None,None,None,None,None,None,None
cf2,2149.5,0.48854608154296875,-0.5277673950195313,0.5547619018554688,2.606935977935791,0.12509765625011435,-0.055538940429739614,0.5465942382817477,None,None,None,None,None,None,None
cf1,2149.52,0.5539837646484375,0.4466478576660156,0.3476319885253906,3.3053767681121826,0.0338165283203381,-0.04576721191410504,0.2370178222658411,None,None,None,None,None,None,None
cf2,2149.52,0.49135781860351563,-0.5289822998046875,0.564768798828125,2.606935977935791,0.14058685302747195,-0.060745239257864195,0.5003448486332661,None,None,None,None,None,None,None
cf1,2149.54,0.5547668457031251,0.44577239990234374,0.3518773803710938,3.2096750736236572,0.03915405273441594,-0.0437728881836334,0.21226959228535114,None,None,None,None,None,None,None
cf2,2149.54,0.49425537109375,-0.5302761840820313,0.5739066772460938,2.606935977935791,0.14487762451185068,-0.06469421386724794,0.4568939208988535,None,None,None,None,None,None,None
cf1,2149.56,0.5555670776367188,0.44487246704101563,0.3557242736816406,3.2096750736236572,0.040011596679720735,-0.04499664306644653,0.19234466552751636,-0.0048315368884553475,0.005433498257328538,0.04427572631835941,None,None,None,None
cf2,2149.56,0.497375732421875,-0.5316536254882812,0.5821735229492188,2.3730180263519287,0.15601806640639126,-0.06887207031256051,0.4133422851566244,None,None,None,None,None,None,None
cf1,2149.58,0.5564401245117188,0.4439269104003906,0.3593241577148438,3.2096750736236572,0.04365234375003997,-0.04727783203129358,0.1799942016603217,-0.008027621822859538,0.008853809492865242,0.04067584228515625,None,None,None,None
cf2,2149.58,0.5006659240722656,-0.5331445922851563,0.5896063232421875,2.3730180263519287,0.16450958251968104,-0.074548339843823,0.3716400146487769,-0.01373301791542979,0.006223185731556342,0.010393676757812442,None,None,None,None
cf1,2149.6,0.5572845458984376,0.4430274658203125,0.3626373596191406,3.1138393878936768,0.042221069335978786,-0.04497222900394709,0.16566009521499303,-0.010382872503939359,0.011319973942294892,0.0373626403808594,None,None,None,None
cf2,2149.6,0.5039940490722656,-0.5346546020507813,0.5963785400390625,2.165410041809082,0.1664062500001521,-0.075500488281318,0.3386108398440584,-0.02063369999515199,0.009356042231592905,0.0036214599609374343,None,None,None,None
cf1,2149.62,0.5582002563476562,0.4421004638671875,0.3656086120605469,3.1138393878936768,0.045785522460975454,-0.046350097656292465,0.14856262207044912,-0.012536428611119699,0.01340735750401915,0.03439138793945312,None,None,None,None
cf2,2149.62,0.5074738159179688,-0.5361881713867188,0.60241748046875,2.165410041809082,0.1739883422853167,-0.07667846679694536,0.30194702148464686,-0.026055285426055744,0.011700129802555607,-0.0024174804687500107,None,None,None,None
cf1,2149.64,0.5590097045898438,0.44119631958007816,0.36822235107421875,3.1138393878936768,0.04047241210941372,-0.04520721435550771,0.1306869506837111,-0.014134453599328071,0.015244531272140146,0.03177764892578128,None,None,None,None
cf2,2149.64,0.5108826599121093,-0.5378325805664063,0.607731201171875,2.165410041809082,0.17044219970718213,-0.08222045898444702,0.2656860351564901,-0.030408830183108897,0.01391099462224942,-0.00773120117187498,None,None,None,None
cf1,2149.66,0.5599368286132813,0.4403176574707031,0.3703826904296875,3.0698318481445312,0.046356201171918715,-0.04393310546879191,0.10801696777353707,-0.015881256490805833,0.01675598646138438,0.0296173095703125,None,None,None,None
cf2,2149.66,0.514347412109375,-0.539402587890625,0.6124004516601562,1.9754575490951538,0.17323760986343797,-0.07850036621100877,0.23346252441427545,-0.03431367007544545,0.01566700198194845,-0.012400451660156242,None,None,None,None
cf1,2149.68,0.5607354736328125,0.43943621826171875,0.3722658996582031,3.0698318481445312,0.039932250976596154,-0.04407196044925855,0.09416046142586525,-0.017174524572183134,0.018232147917859605,0.027734100341796908,None,None,None,None
cf2,2149.68,0.517783935546875,-0.5409617309570313,0.616330810546875,1.9754575490951538,0.17182617187515653,-0.07795715332038362,0.19651794433611758,-0.03779318124747045,0.017237329268842333,-0.01633081054687502,None,None,None,None
cf1,2149.7,0.5616065673828126,0.4385626220703125,0.3737160949707031,3.054459571838379,0.04355468750004219,-0.043679809570352536,0.07250976562506661,-0.01853838037883044,0.01954138050587485,0.026283905029296895,None,None,None,None
cf2,2149.7,0.5211409301757812,-0.5425376586914062,0.6195486450195312,1.8411211967468262,0.16784973144546578,-0.07879638671882078,0.16089172363295745,-0.04089269715865315,0.018728119927677065,-0.01954864501953124,None,None,None,None
cf1,2149.72,0.5623732299804688,0.4377925415039063,0.374701416015625,3.054459571838379,0.03833312988284643,-0.03850402832034532,0.049266052246138954,-0.01966298736359856,0.020628441731394664,0.02529858398437501,None,None,None,None
cf2,2149.72,0.5244882202148438,-0.5440415039062501,0.6220821533203125,1.8411211967468262,0.1673645019532789,-0.07519226074225904,0.12667541503917776,-0.0437860002093671,0.020006118624918873,-0.022082153320312492,None,None,None,None
cf1,2149.74,0.5630850830078125,0.43698690795898437,0.37539569091796876,3.054459571838379,0.03559265136721574,-0.0402816772461323,0.03471374511721907,-0.02060244601988259,0.02175973308902577,0.02460430908203126,None,None,None,None
cf2,2149.74,0.5276853637695312,-0.5455400390625,0.6239439086914063,1.8411211967468262,0.15985717773451918,-0.07492675781256716,0.09308776855477403,-0.046364582699503644,0.0212420191844783,-0.02394390869140628,None,None,None,None
cf1,2149.7599999999998,0.5638148193359375,0.43619485473632813,0.3756780700683594,3.0221779346466064,0.03648681640628358,-0.0396026611328481,0.014118957519545023,-0.021541824602652512,0.022802652446077095,0.024321929931640618,None,None,None,None
cf2,2149.7599999999998,0.5307471923828125,-0.546883544921875,0.6252855224609375,1.7265946865081787,0.15309143066420441,-0.06717529296880745,0.0670806884766228,-0.048731143022089335,0.022239703716951324,-0.025285522460937515,None,None,None,None
cf1,2149.7799999999997,0.56442041015625,0.4355269775390625,0.37565130615234377,3.0221779346466064,0.030279541015654006,-0.033393859863311955,-0.0013381958007830889,-0.02228601364480608,0.02365236423225777,0.024348693847656255,None,None,None,None
cf2,2149.7799999999997,0.5336159057617188,-0.5482359008789063,0.6260275268554688,1.7265946865081787,0.14343566894544357,-0.06761779785162723,0.037100219726599486,-0.0508247704332043,0.023255692849076328,-0.02602752685546883,None,None,None,None
cf1,2149.7999999999997,0.5650263061523437,0.43479611206054686,0.37524612426757814,2.958853244781494,0.030294799804714077,-0.03654327392581529,-0.020259094238299743,-0.022973836321234172,0.024579015781614408,0.02475387573242188,None,None,None,None
cf2,2149.7999999999997,0.5363181762695313,-0.549372802734375,0.626276123046875,1.6050314903259277,0.13511352539074614,-0.056845092773490445,0.012429809570319231,-0.05275527900179866,0.024004146811044635,-0.02627612304687499,None,None,None,None
cf1,2149.8199999999997,0.5655028076171875,0.43418301391601566,0.3746681213378906,2.958853244781494,0.023825073242211302,-0.030654907226587827,-0.02890014648440206,-0.023480869821520756,0.025347413285797878,0.025331878662109397,None,None,None,None
cf2,2149.8199999999997,0.5387550048828125,-0.5504597778320313,0.62627001953125,1.6050314903259277,0.1218414306641711,-0.05434875488285976,-0.00030517578124583666,-0.05442271450605841,0.02473416759387273,-0.026270019531250077,None,None,None,None
cf1,2149.8399999999997,0.5659381713867188,0.4335838317871094,0.3738157958984375,2.958853244781494,0.02176818847658172,-0.02995910644533977,-0.042616271972695144,-0.02391500152123222,0.026092661987785017,0.026184204101562525,None,None,None,None
cf2,2149.8399999999997,0.5409559936523438,-0.5514442749023437,0.6258329467773438,1.6050314903259277,0.1100494384766672,-0.04922485351566733,-0.021853637695332554,-0.05588547816611469,0.025378689216061,-0.025832946777343824,None,None,None,None
cf1,2149.86,0.5663351440429688,0.43296859741210936,0.37278735351562503,2.9068031311035156,0.019848632812069233,-0.03076171874933109,-0.0514221191395009,-0.02427001943881336,0.026862078259032248,0.02721264648437499,None,None,None,None
cf2,2149.86,0.5430150146484375,-0.55227587890625,0.625052001953125,1.6198381185531616,0.10295104980243652,-0.04158020019440489,-0.039047241210085404,-0.057240761221091556,0.02586441824126158,-0.02505200195312507,None,None,None,None
cf1,2149.88,0.5665783081054687,0.43240158081054686,0.3715337219238281,2.9068031311035156,0.01215820312500666,-0.028350830078150674,-0.06268157958990311,-0.024392520825366835,0.0276128367545879,0.028466278076171914,None,None,None,None
cf2,2149.88,0.5447620849609375,-0.5530213012695313,0.624111328125,1.6198381185531616,0.08735351562507883,-0.03727111816410115,-0.04703369140629358,-0.058357085936833794,0.02631465021092093,-0.024111328125000053,None,None,None,None
cf1,2149.9,0.5667645263671875,0.43197247314453124,0.37027178955078127,2.870955228805542,0.009310913085949921,-0.021455383300800296,-0.06309661865239923,-0.024489278457574443,0.028167965003310137,0.02972821044921875,None,None,None,None
cf2,2149.9,0.5462854614257813,-0.5535294799804688,0.6231317749023437,1.6146268844604492,0.07616882324225904,-0.0254089355468954,-0.04897766113285976,-0.05934490451427314,0.02654319544283956,-0.02313177490234375,None,None,None,None
cf1,2149.92,0.566888671875,0.4315542297363281,0.3688373107910156,2.870955228805542,0.00620727539062958,-0.02091217041017516,-0.07172393798834804,-0.02449128662456029,0.028726800390901735,0.031162689208984407,None,None,None,None
cf2,2149.92,0.5475853271484376,-0.5539610595703125,0.6219849853515625,1.6146268844604492,0.06499328613287307,-0.02157897949220686,-0.057339477539111144,-0.0601753781405145,0.026735094926402202,-0.02198498535156257,None,None,None,None
cf1,2149.94,0.56695458984375,0.4311131591796875,0.3673934631347656,2.870955228805542,0.0032958984375027756,-0.022053527832050574,-0.0721923828125655,-0.024390247215691566,0.029336233276192215,0.0326065368652344,None,None,None,None
cf2,2149.94,0.54860546875,-0.554177001953125,0.6208873901367188,1.6146268844604492,0.051007080078171216,-0.010797119140636241,-0.054879760742237944,-0.06084560430814314,0.02675103465857302,-0.02088739013671881,None,None,None,None
cf1,2149.96,0.5669168701171875,0.43071585083007813,0.3659635925292969,2.8664391040802,-0.0018859863281279142,-0.019865417480487174,-0.07149353027350154,-0.0241448000091393,0.029920710756505736,0.034036407470703134,None,None,None,None
cf2,2149.96,0.5492925415039063,-0.554251220703125,0.6198255615234375,1.6027114391326904,0.03435363769534255,-0.0037109375000044407,-0.053091430664113363,-0.06130790475944566,0.026685215053088657,-0.019825561523437507,None,None,None,None
cf1,2149.98,0.5668797607421875,0.43041522216796874,0.36451116943359374,2.8664391040802,-0.0018554687500022204,-0.015031433105483287,-0.07262115478522345,-0.02394670893844405,0.03036047591641468,0.03548883056640628,None,None,None,None
cf2,2149.98,0.549780517578125,-0.5542033081054688,0.6187528686523438,1.6027114391326904,0.024398803710956582,0.0023956298828142347,-0.05363464355473295,-0.06165516305320788,0.026530103203657084,-0.018752868652343824,None,None,None,None
cf1,2150.0,0.5667124633789062,0.430088623046875,0.36300418090820313,2.8895387649536133,-0.008364868164070064,-0.01632995605470131,-0.07534942626959887,-0.02352707813436455,0.030889440256292252,0.03699581909179689,None,None,None,None
cf2,2150.0,0.550058837890625,-0.5540518798828125,0.6178385009765626,1.6114104986190796,0.013916015625016653,0.0075714111328242266,-0.04571838378910337,-0.0618780544043476,0.02630749253779905,-0.017838500976562588,None,None,None,None
cf1,2150.02,0.5665030517578125,0.42982284545898436,0.3617021179199219,2.8895387649536133,-0.010470581054698534,-0.013288879394544468,-0.06510314941412058,-0.023066108874526352,0.03134694104520921,0.038297882080078116,None,None,None,None
cf2,2150.02,0.55012109375,-0.5537369384765625,0.6169714355468751,1.6114104986190796,0.0031127929687486122,0.015747070312513878,-0.043353271484414826,-0.0619858077281825,0.025952082959055888,-0.01697143554687508,None,None,None,None
cf1,2150.04,0.5662276000976563,0.4295668029785156,0.3603773498535156,2.8895387649536133,-0.013772583007822007,-0.012802124023448255,-0.0662384033203753,-0.0224996128629607,0.031814629687318595,0.03962265014648442,None,None,None,None
cf2,2150.04,0.5499107666015625,-0.5532261352539063,0.6162119140625,1.6114104986190796,-0.010516357421884299,0.025540161132831998,-0.03797607421878858,-0.06194656897800843,0.025437177020848845,-0.0162119140625,None,None,None,None
cf1,2150.06,0.5659002685546876,0.42940429687500004,0.3590408325195313,2.9434266090393066,-0.016366577148450474,-0.008125305175786975,-0.06682586669927687,-0.021884850380452302,0.03217460528906192,0.04095916748046874,None,None,None,None
cf2,2150.06,0.5495512084960937,-0.552610107421875,0.615700439453125,1.5983998775482178,-0.017977905273452697,0.03080139160159282,-0.025573730468770817,-0.06182552420543943,0.024832461120301474,-0.015700439453125048,None,None,None,None
cf1,2150.08,0.5655223388671875,0.4292232360839844,0.3578658447265625,2.9434266090393066,-0.018896484375019985,-0.00905303955079086,-0.05874938964849155,-0.02117175510815251,0.0325763624468395,0.0421341552734375,None,None,None,None
cf2,2150.08,0.548916015625,-0.5518400268554687,0.6152742309570313,1.5983998775482178,-0.03175964355471408,0.0385040283203481,-0.021310424804707413,-0.06154483879823418,0.024104811631781676,-0.015274230957031287,None,None,None,None
cf1,2150.1,0.565062255859375,0.4290708923339844,0.35682312011718753,3.002211093902588,-0.023004150390647342,-0.007617187500007216,-0.05213623046879691,-0.020323700616680537,0.03296968595860189,0.04317687988281249,None,None,None,None
cf2,2150.1,0.5481295166015625,-0.5510397338867188,0.61499755859375,1.5720643997192383,-0.03932495117191205,0.04001464843753386,-0.013833618164073394,-0.06116297134284371,0.023362041108600535,-0.014997558593750071,None,None,None,None
cf1,2150.12,0.56459765625,0.4289343566894531,0.35581500244140624,3.002211093902588,-0.023229980468768598,-0.006826782226568953,-0.05040588378911059,-0.019464209764640323,0.03333796369679445,0.044184997558593786,None,None,None,None
cf2,2150.12,0.547196044921875,-0.5500858154296875,0.6147814331054687,1.5720643997192383,-0.04667358398441705,0.04769592285160837,-0.010806274414075615,-0.060705200079636326,0.02245930870664305,-0.014781433105468755,None,None,None,None
cf1,2150.14,0.5641160888671876,0.42881829833984375,0.3548117980957031,3.002211093902588,-0.024078369140645123,-0.00580291748047385,-0.05016021728520125,-0.018572810669045738,0.03368030041131787,0.0451882019042969,None,None,None,None
cf2,2150.14,0.5461224975585938,-0.5489874877929688,0.614773681640625,1.5720643997192383,-0.053677368164111144,0.05491638183598434,-0.0003875732421890959,-0.06017132085559456,0.021396320093790305,-0.01477368164062498,None,None,None,None
cf1,2150.16,0.5636253051757812,0.42876626586914063,0.3539991760253906,3.067438840866089,-0.024539184570338105,-0.002601623535158505,-0.04063110351566289,-0.017678789268105254,0.03393906816034713,0.04600082397460942,None,None,None,None
cf2,2150.16,0.5449265136718751,-0.547881103515625,0.6148548583984376,1.5392640829086304,-0.05979919433598989,0.05531921386723906,0.0040588378906340206,-0.05954420352666535,0.02032042858148936,-0.014854858398437587,None,None,None,None
cf1,2150.18,0.5630972290039062,0.42867129516601565,0.3532558898925781,3.067438840866089,-0.02640380859377415,-0.004748535156253053,-0.037164306640658444,-0.01668824027465051,0.03425860905764625,0.04674411010742191,None,None,None,None
cf2,2150.18,0.5436238403320313,-0.5466936645507813,0.614975341796875,1.5392640829086304,-0.06513366699224905,0.059371948242241276,0.0060241699218754165,-0.05884551924403575,0.019136759276784144,-0.014975341796874986,None,None,None,None
cf1,2150.2,0.5625132446289063,0.4285826416015625,0.3525611267089844,3.11983323097229,-0.029199218750024424,-0.004432678222661281,-0.034738159179718515,-0.015583710599647017,0.03458125784688262,0.04743887329101565,None,None,None,None
cf2,2150.2,0.5421434326171876,-0.5454567260742188,0.6151336669921875,1.5033446550369263,-0.07402038574225238,0.06184692382818009,0.00791625976563513,-0.05801457082636129,0.017887471392826017,-0.015133666992187544,None,None,None,None
cf1,2150.22,0.5618859252929688,0.4285380554199219,0.3520401611328125,3.11983323097229,-0.03136596679690428,-0.002229309082032256,-0.026048278808617306,-0.014397227653940992,0.0348537725767042,0.04795983886718752,None,None,None,None
cf2,2150.22,0.5406947631835938,-0.5441742553710938,0.6153544311523438,1.5033446550369263,-0.07243347167975515,0.06412353515631022,0.011038208007823116,-0.05719608152388699,0.016531555644606215,-0.015354431152343806,None,None,None,None
cf1,2150.24,0.5612463989257812,0.4284958190917969,0.35148040771484373,3.11983323097229,-0.031976318359407056,-0.002111816406251943,-0.0279876708984638,-0.013169447627329788,0.035113999120846735,0.04851959228515629,None,None,None,None
cf2,2150.24,0.5391510009765625,-0.5428359375,0.6156546630859375,1.5033446550369263,-0.07718811035163169,0.06691589355474738,0.015011596679700753,-0.056296756133507334,0.015069391870178311,-0.015654663085937548,None,None,None,None
cf1,2150.2599999999998,0.5606654663085937,0.4284898681640625,0.35098422241210936,3.157402276992798,-0.029046630859401505,-0.0002975463867213521,-0.024809265136741337,-0.012047791032944661,0.035299156333263415,0.04901577758789066,None,None,None,None
cf2,2150.2599999999998,0.5375694580078125,-0.5415178222656251,0.6159397583007813,1.4595551490783691,-0.07907714843757271,0.06590576171880856,0.014254760742201309,-0.05534086254101598,0.013581551597284846,-0.015939758300781315,None,None,None,None
cf1,2150.2799999999997,0.5601021118164062,0.4284593200683594,0.35054190063476565,3.157402276992798,-0.028167724609399286,-0.0015274047851551744,-0.02211608886720575,-0.010938379574500254,0.035495331405555774,0.049458099365234376,None,None,None,None
cf2,2150.2799999999997,0.5359178466796876,-0.540111083984375,0.6162511596679687,1.4595551490783691,-0.08258056640632355,0.07033691406256606,0.015570068359385963,-0.054316079290598146,0.011918806093458086,-0.01625115966796875,None,None,None,None
cf1,2150.2999999999997,0.5595446166992187,0.42842193603515627,0.35022900390625,3.1589720249176025,-0.027874755859400396,-0.0018692016601585051,-0.01564483642579641,-0.009826352536903617,0.03568437557538593,0.04977099609375002,None,None,None,None
cf2,2150.2999999999997,0.5342544555664063,-0.5387462768554687,0.6164986572265625,1.4595551490783691,-0.08316955566414001,0.06824035644537696,0.012374877929699643,-0.05324012842675625,0.010239336871706941,-0.01649865722656252,None,None,None,None
cf1,2150.3199999999997,0.5589739990234375,0.42838473510742187,0.34991290283203125,3.1589720249176025,-0.028530883789088936,-0.0018600463867219073,-0.01580505371095214,-0.008677213755926581,0.03586189345976413,0.050087097167968775,None,None,None,None
cf2,2150.3199999999997,0.5326384887695312,-0.5373768920898437,0.6168225708007813,1.422371506690979,-0.08079833984382521,0.06846923828131134,0.016195678710954363,-0.05216044733622432,0.008465819949489443,-0.01682257080078131,None,None,None,None
cf1,2150.3399999999997,0.5583319091796876,0.42839105224609375,0.34960845947265623,3.1589720249176025,-0.03210449218752498,0.00031585693359454796,-0.01522216796876471,-0.007381534175966714,0.03598842281279063,0.05039154052734379,None,None,None,None
cf2,2150.3399999999997,0.5309693603515625,-0.53601123046875,0.6170947265625,1.422371506690979,-0.08345642089851264,0.0682830810547496,0.01360778808594659,-0.05099181978779751,0.0066144153389907385,-0.017094726562499996,None,None,None,None
cf1,2150.36,0.5577448120117188,0.4283821716308594,0.3494119567871094,3.14420747756958,-0.029354858397798566,-0.00044403076170792535,-0.009825134277126979,-0.006182424135321213,0.03610308373003108,0.05058804321289062,None,None,None,None
cf2,2150.36,0.5292776489257812,-0.53470703125,0.6173211669921875,1.4054458141326904,-0.08458557128721786,0.06520996093607781,0.011322021484130751,-0.04974475190548682,0.004761184553438509,-0.017321166992187553,None,None,None,None
cf1,2150.38,0.5571944580078125,0.4283583679199219,0.34922100830078123,3.14420747756958,-0.027517700195336996,-0.0011901855468770817,-0.00954742431641711,-0.0050481151572074915,0.036211728960517546,0.05077899169921879,None,None,None,None
cf2,2150.38,0.5275579833984375,-0.533427001953125,0.6175535278320312,1.4054458141326904,-0.08598327636726348,0.06400146484380745,0.011618041992194647,-0.04841019975591566,0.002844370652546466,-0.017553527832031235,None,None,None,None
cf1,2150.4,0.55669873046875,0.4283244934082031,0.3490610046386719,3.095057964324951,-0.02478637695315123,-0.0016937255859399286,-0.00800018310547385,-0.004020289908501141,0.03630943400507412,0.05093899536132812,None,None,None,None
cf2,2150.4,0.5258807983398438,-0.5321947021484376,0.617666748046875,1.3692606687545776,-0.08385925292976182,0.06161499023442704,0.0056610107421968675,-0.04703673116802528,0.0008928405034497332,-0.01766674804687507,None,None,None,None
cf1,2150.42,0.5562194213867188,0.4282699584960938,0.34890032958984374,3.095057964324951,-0.02396545410158172,-0.002726745605468854,-0.008033752441415444,-0.0030221802343504468,0.03641499239473784,0.051099670410156284,None,None,None,None
cf2,2150.42,0.5243192749023438,-0.5309595336914062,0.6178125,1.3692606687545776,-0.07807617187507328,0.06175842285162169,0.007287597656253609,-0.04568205979864874,-0.0011768141844591608,-0.01781250000000001,None,None,None,None
cf1,2150.44,0.5557952880859375,0.4282293090820313,0.3488449401855469,3.095057964324951,-0.021206665039083385,-0.002032470703127359,-0.0027694702148442704,-0.0021391322724254405,0.03648915326612502,0.05115505981445312,None,None,None,None
cf2,2150.44,0.5226892700195312,-0.529828125,0.6178603515625,1.3692606687545776,-0.08150024414069952,0.05657043457036475,0.0023925781250011104,-0.044179680796270014,-0.003186043379142985,-0.017860351562499988,None,None,None,None
cf1,2150.46,0.5553208618164063,0.4282182922363281,0.3487322082519531,3.0236868858337402,-0.02372131347658172,-0.00055084228515795,-0.005636596679694647,-0.001152660091671815,0.03652225786663376,0.05126779174804691,None,None,None,None
cf2,2150.46,0.5210560302734375,-0.528734619140625,0.6178565673828125,1.3377245664596558,-0.08166198730476182,0.05467529296879746,-0.00018920898437486123,-0.042573747614810885,-0.005247950862364062,-0.017856567382812494,None,None,None,None
cf1,2150.48,0.5548649291992188,0.428224365234375,0.348643798828125,3.0236868858337402,-0.022796630859393735,0.0003036499023448255,-0.0044204711914087825,-0.00020414791271728848,0.03652392902402641,0.051356201171875004,None,None,None,None
cf2,2150.48,0.5195155639648438,-0.5277096557617188,0.6178731079101563,1.3377245664596558,-0.07702331542975627,0.05124816894535809,0.0008270263671902062,-0.04094953602792444,-0.0072947136068974095,-0.017873107910156283,None,None,None,None
cf1,2150.5,0.5544678344726562,0.42822869873046876,0.3485885009765625,2.968167781829834,-0.01985473632814679,0.0002166748046874306,-0.002764892578127359,0.0006223871543232167,0.0365169369442748,0.0514114990234375,None,None,None,None
cf2,2150.5,0.5179898681640626,-0.5267393798828125,0.6178406982421875,1.3194025754928589,-0.07628479003913001,0.0485137939453592,-0.001620483398441594,-0.039225639094511044,-0.00935107961608128,-0.01784069824218748,None,None,None,None
cf1,2150.52,0.5541006469726563,0.42821401977539064,0.34857385253906253,2.968167781829834,-0.018359375000015544,-0.0007339477539065623,-0.000732421875,0.0013857572420311922,0.03652311435979421,0.05142614746093749,None,None,None,None
cf2,2150.52,0.516541015625,-0.5258787231445312,0.6177029418945312,1.3194025754928589,-0.07244262695319453,0.04303283691410337,-0.006887817382817565,-0.03747459134617517,-0.011291881424471378,-0.017702941894531254,None,None,None,None
cf1,2150.54,0.5537722778320313,0.42821038818359375,0.3485885620117188,2.968167781829834,-0.01641845703126249,-0.00018157958984482553,0.0007354736328131245,0.002067731428917013,0.03651186071990566,0.05141143798828124,None,None,None,None
cf2,2150.54,0.5151504516601563,-0.5251221313476563,0.6175659790039063,1.3194025754928589,-0.06952819824224905,0.037829589843780806,-0.006848144531252498,-0.035684249910461,-0.013112526058966229,-0.01756597900390633,None,None,None,None
cf1,2150.56,0.5534911499023437,0.42821478271484376,0.3486251220703125,2.90022611618042,-0.014056396484392625,0.00021972656250055512,0.0018280029296868755,0.00265122315555222,0.036489232946687364,0.051374877929687535,None,None,None,None
cf2,2150.56,0.5138385009765625,-0.5244906005859375,0.6173911743164062,1.2849141359329224,-0.0655975341797496,0.031576538085965465,-0.008740234375012212,-0.03389676146944587,-0.014748633907345434,-0.017391174316406244,None,None,None,None
cf1,2150.58,0.5532471923828125,0.4281907958984375,0.34861456298828125,2.90022611618042,-0.012197875976571728,-0.0011993408203136795,-0.0005279541015622919,0.0031545642420336703,0.036496678924710986,0.05138543701171877,None,None,None,None
cf2,2150.58,0.5124921264648438,-0.52392578125,0.6171894531250001,1.2849141359329224,-0.06731872558599655,0.02824096679690317,-0.01008605957031701,-0.03195865381946468,-0.016337990269369173,-0.017189453125000087,None,None,None,None
cf1,2150.6,0.5530342407226563,0.42816748046875003,0.3486369323730469,2.8635549545288086,-0.010647583007820895,-0.0011657714843748613,0.0011184692382825337,0.003592496870279057,0.036503195292436535,0.05136306762695314,None,None,None,None
cf2,2150.6,0.5111836547851563,-0.5234943237304688,0.6170971069335938,1.2482612133026123,-0.06542358398443482,0.02157287597658061,-0.004617309570319231,-0.029985689773543604,-0.01771897935413593,-0.017097106933593786,None,None,None,None
cf1,2150.62,0.5528544921875,0.4281674499511719,0.3486838989257813,2.8635549545288086,-0.008987426757819786,-1.5258789065622503e-06,0.0023483276367219073,0.0039632341622486585,0.036485167884013396,0.051316101074218745,None,None,None,None
cf2,2150.62,0.5100206298828125,-0.5230921020507813,0.6170075073242187,1.2482612133026123,-0.058151245117241276,0.020111083984393735,-0.004479980468756384,-0.028100488283066407,-0.019026092523397067,-0.01700750732421874,None,None,None,None
cf1,2150.64,0.5527006225585938,0.42815484619140626,0.348733642578125,2.8635549545288086,-0.007693481445321451,-0.0006301879882825337,0.002487182617188541,0.0042787137331281545,0.03648224985119406,0.05126635742187502,None,None,None,None
cf2,2150.64,0.5088906860351563,-0.5228435668945313,0.6168321533203125,1.2482612133026123,-0.05649719238286086,0.012426757812511657,-0.008767700195319231,-0.026219005283152033,-0.020060087132959408,-0.016832153320312515,None,None,None,None
cf1,2150.66,0.55259716796875,0.4281331481933594,0.34876571655273436,2.855877637863159,-0.005172729492191316,-0.0010848999023437152,0.001603698730469409,0.00448888974002418,0.036494201310947744,0.05123428344726566,None,None,None,None
cf2,2150.66,0.5077698364257812,-0.5226917114257813,0.616715087890625,1.1764204502105713,-0.056042480468805236,0.007592773437504996,-0.0058532714843793025,-0.024281335218082543,-0.02093564192405896,-0.016715087890625036,None,None,None,None
cf1,2150.68,0.5524705200195312,0.42812136840820314,0.34885760498046875,2.855877637863159,-0.00633239746094548,-0.0005889892578136796,0.004594421386723573,0.004747427173989034,0.0364917690739207,0.05114239501953127,None,None,None,None
cf2,2150.68,0.5067562561035156,-0.5226441650390625,0.6167281494140625,1.1764204502105713,-0.050679016113326945,0.002377319335941039,0.0006530761718754163,-0.022468086265503447,-0.021579321309626896,-0.016728149414062532,None,None,None,None
cf1,2150.7,0.5524012451171875,0.4281212158203125,0.3489192810058594,2.8543331623077393,-0.0034637451171913164,-7.629394532811251e-06,0.0030838012695350316,0.004889447285833612,0.036483138622249965,0.05108071899414063,None,None,None,None
cf2,2150.7,0.5058223266601563,-0.5226929321289062,0.6167662963867188,1.07583749294281,-0.046696472168009935,-0.0024383544921868757,0.0019073486328142347,-0.020750359128748147,-0.02201332276705351,-0.016766296386718782,None,None,None,None
cf1,2150.72,0.552365234375,0.42810897827148436,0.34898968505859373,2.8543331623077393,-0.0018005371093770817,-0.0006118774414065623,0.0035202026367202417,0.004961643228094014,0.03649199822360153,0.05101031494140629,None,None,None,None
cf2,2150.72,0.504874755859375,-0.5228668823242187,0.6168242797851563,1.07583749294281,-0.04737854003910448,-0.00869750976563402,0.0028991699218798572,-0.01897379809783235,-0.02223194688240755,-0.016824279785156326,None,None,None,None
cf1,2150.74,0.5523410034179688,0.4281103820800781,0.3490489501953125,2.8543331623077393,-0.0012115478515606266,7.019042968798572e-05,0.0029632568359415938,0.005011451975231832,0.03648726656451614,0.05095104980468751,None,None,None,None
cf2,2150.74,0.5039911193847656,-0.5231077270507812,0.6169154052734375,1.07583749294281,-0.0441818237305116,-0.012042236328135687,0.004556274414062292,-0.017257696539739253,-0.022293861677497966,-0.01691540527343749,None,None,None,None
cf1,2150.7599999999998,0.552336181640625,0.4281057434082031,0.3491325378417969,2.859107732772827,-0.0002410888671868755,-0.00023193359375027754,0.004179382324221907,0.005020712868154607,0.03649175999507246,0.05086746215820315,None,None,None,None
cf2,2150.7599999999998,0.5031503295898437,-0.523452880859375,0.6170396118164062,0.9651268124580383,-0.042039489746131184,-0.017257690429705194,0.006210327148442704,-0.015586111075419094,-0.022134481933436614,-0.01703961181640623,None,None,None,None
cf1,2150.7799999999997,0.5523798217773438,0.42811322021484377,0.3492240295410156,2.859107732772827,0.0021820068359399286,0.00037384033203281125,0.004574584960941039,0.004932313602090451,0.036489207851533145,0.05077597045898441,None,None,None,None
cf2,2150.7799999999997,0.5023918151855469,-0.5238853759765625,0.617191162109375,0.9651268124580383,-0.03792572021487758,-0.021624755859392625,0.007577514648444925,-0.014046487761881658,-0.021753353530738907,-0.01719116210937499,None,None,None,None
cf1,2150.7999999999997,0.5524303588867188,0.4281282958984375,0.34930532836914063,2.8671252727508545,0.0025268554687508326,0.0007537841796863204,0.004064941406254718,0.004830667309140128,0.03647904016074571,0.05069467163085939,None,None,None,None
cf2,2150.7999999999997,0.5017075805664063,-0.5243519897460938,0.6173909301757813,0.8976037502288818,-0.03421173095706001,-0.02333068847658505,0.009988403320324782,-0.012605005631591294,-0.02124662651581923,-0.017390930175781305,None,None,None,None
cf1,2150.8199999999997,0.5524873657226562,0.42813925170898437,0.3494013366699219,2.8671252727508545,0.0028503417968754165,0.0005477905273448255,0.004800415039067843,0.004715096681919685,0.03647410780120391,0.05059866333007812,None,None,None,None
cf2,2150.8199999999997,0.5010501098632812,-0.5249140014648438,0.61760595703125,0.8976037502288818,-0.032873535156282475,-0.0281005859375272,0.010751342773444925,-0.011182036657671264,-0.020510337898263502,-0.017605957031250008,None,None,None,None
cf1,2150.8399999999997,0.5525563354492188,0.42814013671875,0.34949359130859375,2.8671252727508545,0.003448486328131245,4.425048828197858e-05,0.004612731933596769,0.004573600799608425,0.03648159190977877,0.05050640869140627,None,None,None,None
cf2,2150.8399999999997,0.5003825988769531,-0.5255625610351563,0.617883056640625,0.8976037502288818,-0.033375549316435986,-0.03242797851565511,0.013854980468765266,-0.009655353312551943,-0.019559026056885066,-0.01788305664062506,None,None,None,None
cf1,2150.86,0.552650146484375,0.42815829467773436,0.349569580078125,2.868169069290161,0.004690551757710914,0.0009078979491979333,0.0037994384764792333,0.004382943591227058,0.03647264992850088,0.050430419921875025,None,None,None,None
cf2,2150.86,0.49983694458007816,-0.526219482421875,0.6181529541015625,0.8401767015457153,-0.027282714843153255,-0.03284606933521752,0.01349487304657635,-0.008359365634912498,-0.018456754592695468,-0.01815295410156248,None,None,None,None
cf1,2150.88,0.552765869140625,0.4281924743652344,0.3496778564453125,2.868169069290161,0.005786132812501665,0.0017089843750027756,0.005413818359380968,0.004148571650415141,0.036447993478013446,0.050322143554687504,None,None,None,None
cf2,2150.88,0.4993031005859375,-0.5269779052734375,0.61842822265625,0.8401767015457153,-0.026692199707056125,-0.03792114257815789,0.013763427734388184,-0.007019778082935909,-0.017029708645242374,-0.018428222656249993,None,None,None,None
cf1,2150.9,0.5528720092773438,0.42822625732421876,0.3497677001953125,2.8834798336029053,0.00530700683594659,0.001689147949220242,0.00449218750000333,0.003933280376753249,0.036422087601466036,0.05023229980468752,None,None,None,None
cf2,2150.9,0.49877789306640624,-0.5277590942382813,0.6187338256835938,0.8032435774803162,-0.026260375976587827,-0.039059448242225736,0.015280151367205749,-0.0055443274796656535,-0.01539948843522838,-0.01873382568359383,None,None,None,None
cf1,2150.92,0.5529817504882812,0.42824563598632814,0.34987936401367187,2.8834798336029053,0.005487060546876527,0.0009689331054699643,0.005583190917973295,0.0037085370906726504,0.03641186953027239,0.050120635986328155,None,None,None,None
cf2,2150.92,0.49834719848632814,-0.5285264282226563,0.6190151977539062,0.8032435774803162,-0.02153472900392488,-0.03836669921878525,0.01406860351563402,-0.0042119213482347635,-0.013558382948396215,-0.019015197753906254,None,None,None,None
cf1,2150.94,0.5531024169921875,0.42829290771484374,0.3500111694335938,2.898658514022827,0.006033325195320341,0.0023635864257819787,0.006590270996101764,0.0034633329576280957,0.03637121913228268,0.04998883056640624,None,None,None,None
cf2,2150.94,0.49789642333984374,-0.5293981323242187,0.6192164916992188,0.8032435774803162,-0.022538757324240224,-0.04358520507816233,0.010064697265636241,-0.002563607423507239,-0.011104858601369871,-0.019216491699218796,None,None,None,None
cf1,2150.96,0.5532168579101563,0.4283306884765625,0.35016708374023436,2.898658514022827,0.005722045898442704,0.0018890380859410388,0.007795715332036142,0.0032293936562140164,0.036339739246622586,0.04983291625976566,None,None,None,None
cf2,2150.96,0.4974498291015625,-0.5302420043945313,0.61944189453125,0.7918146252632141,-0.022329711914082832,-0.042193603515666214,0.011270141601570619,-0.0004275338079926791,-0.008144976862647974,-0.019441894531250004,None,None,None,None
cf1,2150.98,0.5533463134765625,0.4283602294921875,0.35033770751953125,2.898658514022827,0.0064727783203159,0.0014770507812497224,0.008531188964852042,0.0029629107912998577,0.036317872022547444,0.04966229248046877,None,None,None,None
cf2,2150.98,0.49716168212890627,-0.5310479736328125,0.6195807495117187,0.7918146252632141,-0.014407348632824227,-0.04029846191409893,0.006942749023442704,0.0014972084297040261,-0.004236327130867698,-0.01958074951171873,None,None,None,None
cf1,2151.0,0.5534884643554687,0.4283971557617188,0.3505835876464844,2.9180214405059814,0.007107543945318121,0.0018463134765656225,0.012294006347668498,0.0026698738237215815,0.0362878491593081,0.049416412353515626,None,None,None,None
cf2,2151.0,0.4968324279785156,-0.5319411010742188,0.61974462890625,0.7452409267425537,-0.016462707519547246,-0.044656372070352536,0.00819396972657395,0.0038326771366558755,0.0020279626258105843,-0.01974462890625006,None,None,None,None
cf1,2151.02,0.5536119384765625,0.42847259521484377,0.35078753662109374,2.9180214405059814,0.006173706054696313,0.003771972656253053,0.010197448730476625,0.0024175117223623256,0.036212848672780844,0.04921246337890628,None,None,None,None
cf2,2151.02,0.4965845947265625,-0.5328012695312501,0.6199108276367188,0.7452409267425537,-0.012391662597666277,-0.043008422851603924,0.008309936523444925,0.004583521927971752,0.0066489710547495565,-0.01991082763671881,None,None,None,None
cf1,2151.04,0.5537438354492188,0.4285597229003906,0.35101333618164066,2.9180214405059814,0.0065948486328186754,0.004356384277347046,0.011289978027355927,0.002147001849314925,0.03612441733965215,0.048986663818359366,None,None,None,None
cf2,2151.04,0.4963602294921875,-0.5336044311523438,0.6200055541992188,0.7452409267425537,-0.01121826171876138,-0.04015808105472296,0.00473632812500333,0.005089268330133649,0.009776607426838524,-0.02000555419921879,None,None,None,None
cf1,2151.06,0.5538307495117187,0.4286371765136719,0.35122946166992186,2.8893511295318604,0.00434570312500111,0.003872680664066733,0.010806274414070064,0.0019690396839624805,0.036043234825224695,0.04877053833007816,None,None,None,None
cf2,2151.06,0.49615127563476563,-0.5344474487304688,0.620135009765625,0.704702615737915,-0.010447692871102875,-0.042150878906288027,0.0064727783203159,0.0054537773707870095,0.012443795597059737,-0.02013500976562499,None,None,None,None
cf1,2151.08,0.5539383544921875,0.428743896484375,0.35144232177734375,2.8893511295318604,0.005380249023444925,0.00533599853516017,0.010643005371103985,0.0017481019551895236,0.03592984418653913,0.048557678222656275,None,None,None,None
cf2,2151.08,0.4959569396972656,-0.5353057861328125,0.620245361328125,0.704702615737915,-0.009716796875009436,-0.04291687011722684,0.005517578125007772,0.005734860931206816,0.014762292639032507,-0.020245361328125044,None,None,None,None
cf1,2151.1,0.5540631103515625,0.42888006591796873,0.351675048828125,2.8817381858825684,0.006237792968755274,0.0068084716796929816,0.011636352539073394,0.0014907309921274282,0.0357832326370453,0.04832495117187502,None,None,None,None
cf2,2151.1,0.49577197265625,-0.5360458984375001,0.6202667846679688,0.6777992844581604,-0.009248352050789195,-0.037005615234409275,0.0010711669921902062,0.006034243625043937,0.016526194016937466,-0.02026678466796883,None,None,None,None
cf1,2151.12,0.5542020874023438,0.42903176879882815,0.35188262939453124,2.8817381858825684,0.006948852539068953,0.007585144042977736,0.010379028320321452,0.0012016077394927682,0.035618196085209636,0.04811737060546878,None,None,None,None
cf2,2151.12,0.49572802734375,-0.5368086547851563,0.62023828125,0.6777992844581604,-0.0021972656250027756,-0.03813781738284532,-0.0014251708984404838,0.005832911747534538,0.018248915624417356,-0.020238281250000045,None,None,None,None
cf1,2151.14,0.5543492431640625,0.42920599365234374,0.352086181640625,2.8817381858825684,0.007357788085944369,0.00871124267578753,0.010177612304696868,0.0008930130196609368,0.035426069255836086,0.04791381835937503,None,None,None,None
cf2,2151.14,0.49564083862304686,-0.5375320434570313,0.6201873168945312,0.6777992844581604,-0.00435943603516017,-0.03616943359378525,-0.002548217773442704,0.00582448102048004,0.019735348591689635,-0.020187316894531238,None,None,None,None
cf1,2151.16,0.5544462280273438,0.42936322021484374,0.35230593872070315,2.8672618865966797,0.004849243164066733,0.007861328125007217,0.010987854003917665,0.0006887480950398814,0.03525005670193422,0.04769406127929687,None,None,None,None
cf2,2151.16,0.4955311279296875,-0.5382222290039063,0.620104248046875,0.7060748338699341,-0.00548553466797274,-0.03450927734377859,-0.004153442382813124,0.0059118897736471976,0.021052133460390487,-0.02010424804687505,None,None,None,None
cf1,2151.18,0.5545740356445312,0.42956143188476564,0.3525187377929688,2.8672618865966797,0.006390380859378192,0.009910583496103985,0.01063995361329086,0.0004165946967964852,0.03502619809004217,0.04748126220703125,None,None,None,None
cf2,2151.18,0.49549871826171876,-0.5388224487304688,0.6199923706054687,0.7060748338699341,-0.0016204833984388184,-0.03001098632815456,-0.005593872070319231,0.005801740922843819,0.02215841310934587,-0.019992370605468768,None,None,None,None
cf1,2151.2,0.554666748046875,0.42978033447265623,0.352733154296875,2.857722282409668,0.004635620117192427,0.010945129394539472,0.010720825195322007,0.000217669702984354,0.03477592046201192,0.047266845703125004,None,None,None,None
cf2,2151.2,0.49548361206054686,-0.539359619140625,0.6199041137695313,0.6903985142707825,-0.0007553100585956582,-0.02685852050783533,-0.004412841796878747,0.0056742093148988895,0.023109217498187538,-0.019904113769531273,None,None,None,None
cf1,2151.22,0.5547666015625,0.429986083984375,0.3529469909667969,2.857722282409668,0.0049926757812558285,0.010287475585947146,0.010691833496102875,5.341503545183902e-07,0.034538562528888574,0.04705300903320314,None,None,None,None
cf2,2151.22,0.4955347595214844,-0.5398530883789062,0.6197806396484375,0.6903985142707825,0.002557373046879302,-0.024673461914082276,-0.006173706054690762,0.00538147902518505,0.023968434056970526,-0.01978063964843757,None,None,None,None
cf1,2151.24,0.5548413696289063,0.4302059631347656,0.35309902954101563,2.857722282409668,0.0037384033203170103,0.010993957519541138,0.007601928710944369,-0.00016412698734159418,0.0342825789640535,0.04690097045898439,None,None,None,None
cf2,2151.24,0.4955728454589844,-0.5402822265625,0.6196621704101563,0.6903985142707825,0.0019042968750011102,-0.021456909179709636,-0.005923461914070063,0.005158528691552968,0.024688672737395202,-0.019662170410156277,None,None,None,None
cf1,2151.2599999999998,0.5549093627929688,0.43042645263671875,0.3532547302246094,2.804847240447998,0.0033996582031268043,0.011024475097666832,0.007785034179695757,-0.00031597612800500876,0.03402365991951735,0.04674526977539062,None,None,None,None
cf2,2151.2599999999998,0.4956249694824219,-0.5406344604492188,0.61959130859375,0.6664518713951111,0.002606201171878192,-0.017611694335955472,-0.0035430908203159,0.0049260378893228205,0.025268945497072006,-0.019591308593750023,None,None,None,None
cf1,2151.2799999999997,0.5550316162109376,0.4306592712402344,0.35342974853515624,2.804847240447998,0.006112670898444925,0.01164093017579308,0.008750915527349822,-0.0005912206367950679,0.03374693664109361,0.04657025146484378,None,None,None,None
cf2,2151.2799999999997,0.49570880126953126,-0.5409721069335938,0.6195318603515625,0.6664518713951111,0.0041915893554716295,-0.016882324218763047,-0.002972412109378192,0.004618704040709939,0.025819487412081624,-0.019531860351562513,None,None,None,None
cf1,2151.2999999999997,0.5551500244140625,0.4309314880371094,0.35362637329101565,2.7116711139678955,0.005920410156251388,0.01361083984376249,0.0098312377929794,-0.000862868592226833,0.03341980220453636,0.04637362670898437,None,None,None,None
cf2,2151.2999999999997,0.49579678344726563,-0.541219970703125,0.619467529296875,0.6517730355262756,0.0043991088867224625,-0.01239318847657284,-0.003216552734378192,0.004327759756898849,0.02622050776000886,-0.019467529296875008,None,None,None,None
cf1,2151.3199999999997,0.5552221069335938,0.431203857421875,0.35375494384765627,2.7116711139678955,0.0036041259765672877,0.013618469238292526,0.006428527832036697,-0.0010340432065534453,0.0330897985005341,0.046245056152343755,None,None,None,None
cf2,2151.3199999999997,0.495929931640625,-0.5414242553710937,0.6193939208984375,0.6517730355262756,0.00665740966797385,-0.010214233398446034,-0.003680419921878747,0.0039296568870822645,0.02655637174087731,-0.0193939208984375,None,None,None,None
cf1,2151.3399999999997,0.5553154907226563,0.4315668640136719,0.35396875,2.7116711139678955,0.004669189453131245,0.018150329589860924,0.010690307617196313,-0.001260783587788071,0.032644252415659825,0.046031250000000024,None,None,None,None
cf2,2151.3399999999997,0.4960872497558594,-0.5415462646484375,0.6193184204101563,0.6517730355262756,0.007865905761726903,-0.006100463867192427,-0.003775024414063402,0.0034862121181455166,0.02676624174326283,-0.0193184204101563,None,None,None,None
cf1,2151.36,0.555347412109375,0.43190216064453124,0.3541247253417969,2.626464366912842,0.0015960693359003074,0.016764831542601544,0.007798767089674719,-0.0013490150958467909,0.03222915060252541,0.045875274658203125,None,None,None,None
cf2,2151.36,0.49623138427734376,-0.5416467895507813,0.6192650756835938,0.6535596251487732,0.007206726074061376,-0.005026245117080363,-0.0026672363280661584,0.0030846917491195594,0.026937458568449292,-0.019265075683593813,None,None,None,None
