Crazyflie name,QTM packet timestamp (s),x (m),y (m),z (m),yaw (째),vx (m/s),vy (m/s),vz (m/s),vx_c (m/s),vy_c (m/s),vz_c (m/s),roll_c (째),pitch_c (째),yaw_rate_c (째/s),thrust_c (PWM)
cf1,454.79999999999995,0.5162941284179687,0.48403546142578124,0.013709957122802735,0.06937604397535324,-0.00031127929687763676,-0.00016784667968854083,-3.0899047851553825e-05,None,None,None,None,None,None,None
cf2,454.79999999999995,0.5072463073730469,-0.5045173034667969,0.006953186511993409,-0.16690538823604584,-0.0007278442382803133,0.0011108398437497224,-0.0002756118774416448,None,None,None,None,None,None,None
cf1,454.82,0.5163012084960937,0.48402703857421875,0.01370408821105957,0.06937604397535324,0.0003540039062492714,-0.00042114257812394184,-0.0002934455871576575,None,None,None,None,None,None,None
cf2,454.82,0.507246826171875,-0.5045348510742188,0.006960641860961914,-0.16710376739501953,2.5939941405933412e-05,-0.0008773803710931645,0.00037276744842453435,None,None,None,None,None,None,None
cf1,454.84,0.5162951049804687,0.4840317077636719,0.013718647956848145,0.06951655447483063,-0.0003051757812513878,0.00023345947265683982,0.0007279872894293647,None,None,None,None,None,None,None
cf2,454.84,0.5072485961914063,-0.5045157775878907,0.006959607601165771,-0.16710376739501953,8.850097656395717e-05,0.0009536743164071174,-5.171298980717282e-05,None,None,None,None,None,None,None
cf1,454.85999999999996,0.51630419921875,0.48405014038085936,0.01373139762878418,0.06951655447483063,0.00045471191406673274,0.0009216308593748612,0.0006374835968023661,None,None,None,None,None,None,None
cf2,454.85999999999996,0.5072570495605468,-0.5045162963867188,0.006980642318725586,-0.1678887903690338,0.00042266845702892546,-2.5939941406007138e-05,0.0010517358779917076,None,None,None,None,None,None,None
cf1,454.88,0.5162898559570313,0.48403570556640624,0.013744468688964845,0.06902998685836792,-0.0007171630859378903,-0.0007217407226547885,0.0006535530090319463,None,None,None,None,None,None,None
cf2,454.88,0.507239990234375,-0.5045242919921875,0.007040002822875977,-0.1678887903690338,-0.0008529663085882379,-0.0003997802734349066,0.00296802520751378,None,None,None,None,None,None,None
cf1,454.9,0.51630078125,0.4840257263183594,0.013747608184814453,0.06902998685836792,0.0005462646484382632,-0.0004989624023431602,0.00015697479248058584,None,None,None,None,None,None,None
cf2,454.9,0.5071961364746094,-0.5045358276367188,0.007138182163238526,-0.1678887903690338,-0.002192687988285864,-0.0005767822265639571,0.004908967018131926,None,None,None,None,None,None,None
cf1,454.91999999999996,0.5162906494140626,0.48403244018554686,0.013801095962524414,0.06902998685836792,-0.0005065917968731959,0.0003356933593743061,0.0026743888855004475,None,None,None,None,None,None,None
cf2,454.91999999999996,0.5071050415039062,-0.5045176696777344,0.007430809020996094,-0.1702641397714615,-0.004554748535161281,0.0009078979492213521,0.014631342887891703,None,None,None,None,None,None,None
cf1,454.94,0.5162888793945313,0.484015625,0.013852816581726074,0.04162151739001274,-8.850097656370563e-05,-0.0008407592773413257,0.002586030960078018,None,None,None,None,None,None,None
cf2,454.94,0.5069854736328125,-0.5045315246582032,0.008180227279663086,-0.1702641397714615,-0.00597839355467266,-0.0006927490234385148,0.037470912933277194,None,None,None,None,None,None,None
cf1,454.96,0.5162679443359375,0.48398666381835936,0.01408138942718506,0.04162151739001274,-0.0010467529296907612,-0.0014480590820333664,0.011428642272959675,None,None,None,None,None,None,None
cf2,454.96,0.5067547912597656,-0.5044589538574219,0.010123924255371093,-0.26525312662124634,-0.011534118652355927,0.003628540039066733,0.09718484878548876,None,None,None,None,None,None,None
cf1,454.97999999999996,0.5163008422851563,0.48408792114257815,0.014831384658813477,0.01797478459775448,0.0016448974609410388,0.005062866210943815,0.03749976158145499,None,None,None,None,None,None,None
cf2,454.97999999999996,0.5064273071289063,-0.5042160644531251,0.013796043395996094,-0.26525312662124634,-0.016374206542983286,0.012144470214853152,0.18360595703141705,None,None,None,None,None,None,None
cf1,455.0,0.5162272338867188,0.4842001647949219,0.016156063079833985,0.01797478459775448,-0.0036804199218682864,0.005612182617176476,0.06623392105089737,None,None,None,None,None,None,None
cf2,455.0,0.5058973999023437,-0.5038819580078125,0.019576904296875,0.06321554630994797,-0.026495361328075926,0.016705322265593202,0.2890430450433866,None,None,None,None,None,None,None
cf1,455.02,0.516185546875,0.4842740173339844,0.01841962432861328,0.01797478459775448,-0.002084350585942149,0.0036926269531284694,0.11317806243906776,None,None,None,None,None,None,None
cf2,455.02,0.5051319580078125,-0.5032756652832031,0.02797845458984375,0.06321554630994797,-0.03827209472659504,0.030314636230499386,0.4200775146488196,None,None,None,None,None,None,None
cf1,455.03999999999996,0.5161113891601563,0.48437405395507815,0.02218374252319336,0.5623595118522644,-0.0037078857421857653,0.005001831054692427,0.18820590972917509,None,None,None,None,None,None,None
cf2,455.03999999999996,0.503924072265625,-0.50252099609375,0.03882514190673828,0.06321554630994797,-0.06039428710943259,0.03773345947268959,0.5423343658452199,None,None,None,None,None,None,None
cf1,455.06,0.5159690551757813,0.48442276000976564,0.02726102638244629,0.5623595118522644,-0.007116699218737267,0.002435302734369605,0.2538641929621559,None,None,None,None,None,None,None
cf2,455.06,0.5024108581542969,-0.5014715881347657,0.052088775634765626,1.2340779304504395,-0.07566070556625869,0.052470397949115524,0.6631816864000855,None,None,None,None,None,None,None
cf1,455.08,0.515771484375,0.4845616455078125,0.033584434509277346,1.485511064529419,-0.009878540039074504,0.006944274902349267,0.3161704063418403,None,None,None,None,None,None,None
cf2,455.08,0.5006478881835937,-0.500292724609375,0.06738736724853515,1.2340779304504395,-0.08814849853523678,0.0589431762695861,0.7649295806891722,None,None,None,None,None,None,None
cf1,455.09999999999997,0.5154498291015626,0.4846302185058594,0.04116357040405273,1.485511064529419,-0.01608276367188541,0.003428649902348711,0.378956794739114,None,None,None,None,None,None,None
cf2,455.09999999999997,0.4985906982421875,-0.4989472351074219,0.08471587371826172,1.2340779304504395,-0.10285949707040583,0.06727447509771735,0.8664253234871165,None,None,None,None,None,None,None
cf1,455.12,0.515059326171875,0.48478323364257814,0.04975961685180664,1.485511064529419,-0.01952514648434046,0.007650756835921514,0.42980232238686467,None,None,None,None,None,None,None
cf2,455.12,0.49634484863281253,-0.49754129028320315,0.10353013610839844,1.9010870456695557,-0.11229248046853105,0.07029724121080119,0.9407131195050176,None,None,None,None,None,None,None
cf1,455.14,0.5146411132812501,0.48494659423828124,0.05926947021484375,2.2313077449798584,-0.020910644531265822,0.00816802978516239,0.4754926681522881,None,None,None,None,None,None,None
cf2,455.14,0.49392581176757816,-0.4961131286621094,0.12390676879882813,1.9010870456695557,-0.12095184326182849,0.07140808105475349,1.018831634522411,None,None,None,None,None,None,None
cf1,455.15999999999997,0.5140834350585938,0.4850574340820313,0.06943933868408203,2.2313077449798584,-0.02788391113283977,0.005541992187507216,0.5084934234623764,None,None,None,None,None,None,None
cf2,455.15999999999997,0.4913655700683594,-0.4947275390625,0.14532383728027343,2.1780924797058105,-0.1280120849610543,0.06927947998053213,1.0708534240732388,None,None,None,None,None,None,None
cf1,455.18,0.5135377197265625,0.48526586914062503,0.08009298706054688,2.86079478263855,-0.02728576660151194,0.010421752929667247,0.5326824188222129,None,None,None,None,None,None,None
cf2,455.18,0.48876419067382815,-0.49336096191406253,0.16774035644531252,2.1780924797058105,-0.1300689697263114,0.06832885742174116,1.1208259582497884,None,None,None,None,None,None,None
cf1,455.2,0.5129039916992187,0.4854281311035156,0.09107328033447266,2.86079478263855,-0.03168640136721574,0.008113098144537253,0.5490146636967886,None,None,None,None,None,None,None
cf2,455.2,0.48615881347656253,-0.49205545043945315,0.19083428955078124,2.1780924797058105,-0.13026885986339912,0.06527557373052881,1.1546966552744866,None,None,None,None,None,None,None
cf1,455.21999999999997,0.512266845703125,0.48559027099609375,0.10218742370605469,2.86079478263855,-0.03185729980471741,0.008106994628913778,0.5557071685796066,None,None,None,None,None,None,None
cf2,455.21999999999997,0.48365484619140625,-0.490972900390625,0.21439704895019532,2.3020684719085693,-0.12519836425792805,0.054127502441455415,1.1781379699717751,None,None,None,None,None,None,None
cf1,455.23999999999995,0.5116268615722657,0.4857032165527344,0.11319962310791015,3.4393856525421143,-0.03199920654299439,0.005647277832037808,0.5506099700932741,None,None,None,None,None,None,None
cf2,455.23999999999995,0.4812406921386719,-0.48999029541015626,0.23803109741210937,2.3020684719085693,-0.12070770263682849,0.049130249023482675,1.1817024230967774,None,None,None,None,None,None,None
cf1,455.26,0.5109478149414063,0.4859332580566406,0.12417272949218751,3.4393856525421143,-0.03395233154290344,0.011502075195288205,0.5486553192128074,None,None,None,None,None,None,None
cf2,455.26,0.4789561157226563,-0.48914083862304686,0.26174124145507816,2.3973631858825684,-0.1142288208005589,0.042472839355388106,1.185507202146148,None,None,None,None,None,None,None
cf1,455.28,0.5102662353515625,0.4860719909667969,0.13477015686035157,3.966297149658203,-0.034078979492222404,0.006936645507819231,0.529871368408685,None,None,None,None,None,None,None
cf2,455.28,0.47683215332031254,-0.4884534912109375,0.28525958251953126,2.3973631858825684,-0.10619812011728402,0.03436737060549883,1.1759170532237249,None,None,None,None,None,None,None
cf1,455.29999999999995,0.5096242980957031,0.48615966796875,0.1451427764892578,3.966297149658203,-0.03209686279299772,0.0043838500976596155,0.5186309814457833,None,None,None,None,None,None,None
cf2,455.29999999999995,0.4748564147949219,-0.48794055175781254,0.3082976989746094,2.3973631858825684,-0.09878692626962107,0.025646972656271926,1.1519058227549546,None,None,None,None,None,None,None
cf1,455.32,0.5090037536621094,0.48632717895507815,0.1552144317626953,3.966297149658203,-0.03102722167962589,0.008375549316392195,0.5035827636709022,None,None,None,None,None,None,None
cf2,455.32,0.47309786987304686,-0.4875826110839844,0.3308462829589844,2.4648356437683105,-0.08792724609358253,0.017897033691373458,1.1274291992165701,None,None,None,None,None,None,None
cf1,455.34,0.5083416442871094,0.4864685668945313,0.16470175170898438,4.349638938903809,-0.033105468750029975,0.007069396972662391,0.4743659973148849,None,None,None,None,None,None,None
cf2,455.34,0.4714149169921875,-0.4873830261230469,0.35271755981445313,2.4648356437683105,-0.0841476440430438,0.009979248046882633,1.0935638427744319,None,None,None,None,None,None,None
cf1,455.35999999999996,0.5077718200683594,0.48651959228515623,0.17372276306152343,4.349638938903809,-0.02849121093752387,0.0025512695312502774,0.4510505676273627,None,None,None,None,None,None,None
cf2,455.35999999999996,0.4699845275878906,-0.487408447265625,0.37385073852539064,2.4308180809020996,-0.07151947021491033,-0.001271057128905452,1.0566589355478364,None,None,None,None,None,None,None
cf1,455.38,0.5072450866699219,0.4865385437011719,0.18219169616699218,4.605989456176758,-0.02633666992182721,0.0009475708007809508,0.42344665527261943,None,None,None,None,None,None,None
cf2,455.38,0.46873602294921873,-0.48748086547851566,0.394072998046875,2.4308180809020996,-0.06242523193347319,-0.003620910644526406,1.0111129760722646,None,None,None,None,None,None,None
cf1,455.4,0.5067277832031251,0.48652072143554687,0.19023306274414062,4.605989456176758,-0.025865173339863143,-0.0008911132812519429,0.40206832885778737,None,None,None,None,None,None,None
cf2,455.4,0.4676855163574219,-0.4877569885253906,0.41337158203125,2.4308180809020996,-0.05252532958988979,-0.013806152343760824,0.9649291992196279,None,None,None,None,None,None,None
cf1,455.41999999999996,0.5062236633300782,0.48640655517578124,0.19758255004882813,4.605989456176758,-0.02520599365236703,-0.00570831298828642,0.3674743652347099,None,None,None,None,None,None,None
cf2,455.41999999999996,0.46690499877929686,-0.4881479797363281,0.4316373596191406,2.3062145709991455,-0.039025878906286914,-0.019549560546892625,0.9132888793953611,None,None,None,None,None,None,None
cf1,455.44,0.5058091430664062,0.4863389892578125,0.20443507385253906,4.755584239959717,-0.02072601318355729,-0.003378295898430882,0.3426261901848843,None,None,None,None,None,None,None
cf2,455.44,0.46623077392578127,-0.488659423828125,0.44879376220703127,2.3062145709991455,-0.03371124267571447,-0.02557220458979435,0.8578201293928741,None,None,None,None,None,None,None
cf1,455.46,0.5053856201171875,0.48621099853515626,0.21078022766113283,4.755584239959717,-0.02117614746095769,-0.006399536132817565,0.3172576904299769,None,None,None,None,None,None,None
cf2,455.46,0.46581573486328126,-0.4892939147949219,0.46496484375,2.123400926589966,-0.02075195312501943,-0.031724548339874245,0.8085540771491733,None,None,None,None,None,None,None
cf1,455.47999999999996,0.5050680847167969,0.4860986633300781,0.21655224609375,4.792672634124756,-0.015876770019543913,-0.005616760253912114,0.28860092163112155,None,None,None,None,None,None,None
cf2,455.47999999999996,0.4655252380371094,-0.4900397338867188,0.47998828125000004,2.123400926589966,-0.014524841308607315,-0.037290954589878134,0.7511718750006839,None,None,None,None,None,None,None
cf1,455.5,0.5047578430175781,0.48588171386718754,0.22174285888671874,4.792672634124756,-0.015512084960909164,-0.010847473144508088,0.2595306396479349,None,None,None,None,None,None,None
cf2,455.5,0.46549722290039064,-0.4908277893066406,0.49378363037109374,1.902759313583374,-0.001400756835934282,-0.03940277099601531,0.6897674560533521,None,None,None,None,None,None,None
cf1,455.52,0.5045260009765625,0.4856365661621094,0.22647865295410158,4.792672634124756,-0.01159210205078864,-0.012257385253919329,0.2367897033693572,None,None,None,None,None,None,None
cf2,455.52,0.46581689453125,-0.49148480224609375,0.5065137634277344,1.902759313583374,0.015983581542983842,-0.03285064697268682,0.6365066528326095,None,None,None,None,None,None,None
cf1,455.53999999999996,0.5043908081054688,0.48539581298828127,0.2307714080810547,4.783936500549316,-0.006759643554694092,-0.012037658691415999,0.2146377563478514,None,None,None,None,None,None,None
cf2,455.53999999999996,0.46610098266601563,-0.4925384521484375,0.5183488159179688,1.902759313583374,0.01420440673829308,-0.05268249511723517,0.5917526245122593,None,None,None,None,None,None,None
cf1,455.56,0.5042972106933594,0.4851078491210938,0.23458595275878907,4.783936500549316,-0.0046798706054583285,-0.014398193359346707,0.19072723388634996,None,None,None,None,None,None,None
cf2,455.56,0.46655377197265624,-0.4936832885742188,0.5292326049804688,1.6792000532150269,0.022639465331986786,-0.05724182128895345,0.5441894531239474,None,None,None,None,None,None,None
cf1,455.58,0.5043246459960937,0.48477682495117186,0.23793568420410158,4.744777202606201,0.0013717651367163562,-0.016551208496111202,0.1674865722657775,None,None,None,None,None,None,None
cf2,455.58,0.4672164001464844,-0.494915771484375,0.5390587158203125,1.6792000532150269,0.03313140869143876,-0.061624145507866414,0.4913055419926343,None,None,None,None,None,None,None
cf1,455.59999999999997,0.5043648376464844,0.48441744995117186,0.24091780090332032,4.744777202606201,0.002009582519537252,-0.017968750000016097,0.14910583496107288,None,None,None,None,None,None,None
cf2,455.59999999999997,0.46811795043945315,-0.49600808715820316,0.547818115234375,1.6792000532150269,0.04507751464847767,-0.05461578369145819,0.43796997070352095,None,None,None,None,None,None,None
cf1,455.62,0.5044939270019532,0.4840032958984375,0.24358474731445312,4.744777202606201,0.0064544677734243595,-0.020707702636678597,0.13334732055638218,None,None,None,None,None,None,None
cf2,455.62,0.46905166625976563,-0.49733084106445313,0.5558890991210937,1.4680722951889038,0.046685791015534085,-0.06613769531237086,0.40354919433515934,None,None,None,None,None,None,None
cf1,455.64,0.5046192016601563,0.48354904174804686,0.2459714813232422,4.698749542236328,0.006263732910161281,-0.02271270751955224,0.11933670043956264,None,None,None,None,None,None,None
cf2,455.64,0.47011749267578123,-0.4987154235839844,0.563233642578125,1.4680722951889038,0.05329132080082861,-0.06922912597662668,0.36722717285189815,None,None,None,None,None,None,None
cf1,455.65999999999997,0.5048125915527344,0.4831255798339844,0.24795030212402344,4.698749542236328,0.009669494628914335,-0.02117309570314179,0.09894104003915194,None,None,None,None,None,None,None
cf2,455.65999999999997,0.47132611083984377,-0.5001322021484376,0.5698829956054687,1.2457098960876465,0.06043090820318176,-0.07083892822272235,0.33246765136748774,None,None,None,None,None,None,None
cf1,455.68,0.5050426025390625,0.48268020629882813,0.24981289672851564,4.64934778213501,0.011500549316384423,-0.022268676757770927,0.09312973022443008,None,None,None,None,None,None,None
cf2,455.68,0.47266552734375,-0.5014878540039063,0.5757294311523438,1.2457098960876465,0.06697082519518217,-0.06778259277330445,0.2923217773431865,-0.007043503860445901,0.0071288796648148215,0.024270568847656215,None,None,None,None
cf1,455.7,0.5053860778808594,0.48217987060546874,0.2514117126464844,4.64934778213501,0.017173767089860924,-0.02501678466799217,0.07994079589850932,None,None,None,None,None,None,None
cf2,455.7,0.4740863952636719,-0.5029619140625,0.5810090942382813,1.2457098960876465,0.07104339599616005,-0.07370300292975404,0.26398315429711633,-0.011117817912646492,0.011397456557089729,0.01899090576171869,None,None,None,None
cf1,455.71999999999997,0.5057718200683594,0.48165399169921874,0.25287925720214843,4.64934778213501,0.019287109375016653,-0.02629394531252387,0.07337722778326962,-0.002690103117247557,0.0036673937433870218,0.047120742797851556,None,None,None,None
cf2,455.71999999999997,0.47558673095703125,-0.5044270324707031,0.58578759765625,1.0775737762451172,0.07501678466803491,-0.07325592041022012,0.23892517089865253,-0.014384332945084599,0.014499830446956945,0.014212402343749986,None,None,None,None
cf1,455.73999999999995,0.5061950073242187,0.48113671875,0.25409849548339847,4.613998889923096,0.021159362792985508,-0.025863647460959358,0.060961914062557174,-0.004760615577055029,0.0061390335252915545,0.04590150451660152,None,None,None,None
cf2,455.73999999999995,0.4771751403808594,-0.50580126953125,0.5898557739257813,1.0775737762451172,0.07942047119147984,-0.06871185302741033,0.20340881347674825,-0.01733727403009408,0.016803843102803293,0.01014422607421872,None,None,None,None
cf1,455.76,0.5066036682128906,0.4805940856933594,0.2553051300048828,4.613998889923096,0.020433044433553683,-0.027131652831980123,0.060331726074100395,-0.006302192823685738,0.008207951418547337,0.04469486999511718,None,None,None,None
cf2,455.76,0.47871734619140627,-0.5071849365234375,0.5934475708007813,1.0164945125579834,0.0771102905271945,-0.06918334960924151,0.17958984374965278,-0.0197831151951401,0.018877095633526755,0.006552429199218723,None,None,None,None
cf1,455.78,0.5070848693847656,0.48000555419921875,0.2562408447265625,4.613998889923096,0.024060058593771926,-0.02942657470705779,0.04678573608402717,-0.007853979502183289,0.01005246167447953,0.04375915527343749,None,None,None,None
cf2,455.78,0.48031732177734376,-0.5085411071777344,0.596300048828125,1.0164945125579834,0.07999877929694758,-0.06780853271490311,0.142623901367319,-0.02209123934544629,0.020660524475135306,0.003699951171874938,None,None,None,None
cf1,455.79999999999995,0.5075493774414063,0.4794352722167969,0.2570757751464844,4.609797954559326,0.02322540283205446,-0.02851409912111953,0.0417465209961323,-0.009146799309212332,0.011604629845726583,0.0429242248535156,None,None,None,None
cf2,455.79999999999995,0.48193930053710937,-0.5098557434082032,0.5986538085937501,1.0164945125579834,0.08109893798835414,-0.06573181152349933,0.11768798828135797,-0.02424774977688193,0.02221518715271138,0.0013461914062499192,None,None,None,None
cf1,455.82,0.5080303039550781,0.4788800048828125,0.25776043701171875,4.609797954559326,0.024046325683544523,-0.027763366699164647,0.03423309326165181,-0.01036590206064601,0.012936142347225303,0.04223956298828124,None,None,None,None
cf2,455.82,0.48351846313476565,-0.5111390991210938,0.6004732666015625,1.0072678327560425,0.07895812988266143,-0.06416778564440706,0.09097290039044763,-0.026181404403252898,0.02363580168086826,-0.00047326660156254974,None,None,None,None
cf1,455.84,0.5085728454589844,0.4783104248046875,0.25820480346679686,4.6118950843811035,0.027127075195340324,-0.028479003906276924,0.02221832275392599,-0.011649664320731525,0.014145287844584048,0.04179519653320313,None,None,None,None
cf2,455.84,0.4850661926269531,-0.512370849609375,0.6016932983398438,1.0072678327560425,0.07738647460944315,-0.06158752441411447,0.061001586914116696,-0.027963096185024818,0.024907455532460925,-0.001693298339843774,None,None,None,None
cf1,455.85999999999996,0.509059326171875,0.47772979736328125,0.2584033203125,4.6118950843811035,0.024324035644551684,-0.029031372070338658,0.009925842285166832,-0.01265460997278462,0.015330828947214561,0.04159667968749997,None,None,None,None
cf2,455.85999999999996,0.4865377197265625,-0.5134761962890625,0.602478759765625,0.967145562171936,0.07357635498053713,-0.05526733398442704,0.03927307128910004,-0.029590355510424483,0.025957381200805096,-0.0024787597656250604,None,None,None,None
cf1,455.88,0.5095226440429688,0.4772287292480469,0.258401123046875,4.6118950843811035,0.023165893554643793,-0.02505340576167013,-0.00010986328124996531,-0.01358351674804875,0.016258391360094264,0.041598876953124975,None,None,None,None
cf2,455.88,0.4878333435058594,-0.5145265502929688,0.6027855834960938,0.967145562171936,0.06478118896471843,-0.05251770019521326,0.015341186523407983,-0.030920125405631695,0.026962426638447324,-0.002785583496093813,None,None,None,None
cf1,455.9,0.5100370483398438,0.4766782531738281,0.2581693420410156,4.5642619132995605,0.025720214843773036,-0.027523803710963243,-0.011589050292981067,-0.014555555644002889,0.017217718186872545,0.041830657958984385,None,None,None,None
cf2,455.9,0.4890843505859375,-0.5154953002929688,0.6027390747070313,0.967145562171936,0.06255035400396373,-0.04843750000004219,-0.0023254394531290246,-0.03217231060093786,0.0278330719916805,-0.002739074707031275,None,None,None,None
cf1,455.91999999999996,0.5105343017578126,0.4761168823242188,0.2577482604980469,4.5642619132995605,0.02486267089846269,-0.02806854248049217,-0.021054077148454916,-0.0154224444790846,0.01816278825082054,0.0422517395019531,None,None,None,None
cf2,455.91999999999996,0.49019766235351564,-0.5164111328125001,0.6022939453125,0.9161742329597473,0.05566558837895652,-0.045791625976607256,-0.02225646972658172,-0.0332253052948973,0.028660729924410076,-0.0022939453125000453,None,None,None,None
cf1,455.94,0.51095703125,0.47557098388671876,0.2570499877929688,4.508281707763672,0.021136474609332552,-0.027294921874948513,-0.034913635253837866,-0.016080875219416778,0.0190769291396661,0.04295001220703121,None,None,None,None
cf2,455.94,0.49124856567382813,-0.5173013916015625,0.6015573730468751,0.9161742329597473,0.05254516601552298,-0.04451293945303693,-0.03682861328117669,-0.03417931913831792,0.029455767903841076,-0.001557373046875088,None,None,None,None
cf1,455.96,0.5113339233398437,0.4751497802734375,0.25640069580078123,4.508281707763672,0.01884460449220242,-0.021060180664081166,-0.032464599609407056,-0.016686948040409003,0.019723234724060828,0.04359930419921876,None,None,None,None
cf2,455.96,0.49208413696289066,-0.5179591674804688,0.6007062377929687,0.8559670448303223,0.04177856445316455,-0.03288879394534255,-0.04255676269535587,-0.03493947482432274,0.0300059746875949,-0.0007062377929687447,None,None,None,None
cf1,455.97999999999996,0.5117505493164063,0.4746122741699219,0.25545606994628905,4.508281707763672,0.02083129882814679,-0.026875305175804737,-0.047231292724651756,-0.017289680232698675,0.020558081503821317,0.044543930053710934,None,None,None,None
cf2,455.97999999999996,0.49285421752929687,-0.5186232299804687,0.5995789184570313,0.8559670448303223,0.03850402832034532,-0.033203125000027756,-0.056365966796924266,-0.035603050898101674,0.03058034849783367,0.00042108154296871536,None,None,None,None
cf1,456.0,0.5120886840820312,0.47413064575195313,0.25436590576171875,4.434299945831299,0.016906738281214438,-0.02408142089839258,-0.05450820922841006,-0.017736918243416857,0.021300437302243055,0.04563409423828124,None,None,None,None
cf2,456.0,0.49346270751953125,-0.5191419067382813,0.5984909057617188,0.8559670448303223,0.030424499511660416,-0.025933837890579185,-0.05440063476551715,-0.036121152586952615,0.03101888018553055,0.0015090942382811612,None,None,None,None
cf1,456.02,0.5123388671875,0.47373599243164066,0.253271728515625,4.434299945831299,0.012509155273449365,-0.019732666015641238,-0.05470886230473628,-0.01803823412608163,0.02190669740073221,0.04672827148437497,None,None,None,None
cf2,456.02,0.49391262817382814,-0.5195039672851562,0.5972144165039063,0.8681319355964661,0.02249603271486481,-0.018103027343763047,-0.0638244628906851,-0.03650782194424446,0.03131164233509084,0.002785583496093702,None,None,None,None
cf1,456.03999999999996,0.51256396484375,0.4733110046386719,0.2519623107910156,4.350053310394287,0.011254882812510547,-0.0212493896484588,-0.06547088623052992,-0.018264970955566378,0.022567864349193095,0.04803768920898438,None,None,None,None
cf2,456.03999999999996,0.49419125366210936,-0.5197977905273438,0.5959806518554688,0.8681319355964661,0.01393127441407395,-0.014691162109389293,-0.06168823242193093,-0.036718512501329424,0.031580434828235956,0.0040193481445311985,None,None,None,None
cf1,456.06,0.512777587890625,0.47292333984375,0.25064419555664064,4.350053310394287,0.010681152343729357,-0.019383239746055554,-0.06590576171862125,-0.01848661784399085,0.023151148618747126,0.04935580444335935,None,None,None,None
cf2,456.06,0.49437396240234377,-0.5200396118164062,0.5947733764648437,0.8675493001937866,0.009135437011702604,-0.01209106445310021,-0.060363769531135335,-0.03683719985036956,0.03181785627408806,0.0052266235351562385,None,None,None,None
cf1,456.08,0.5129700317382813,0.4725098876953125,0.24934805297851562,4.238248825073242,0.009622192382822007,-0.020672607421894845,-0.06480712890630995,-0.0186486373339251,0.023778098826416308,0.05065194702148437,None,None,None,None
cf2,456.08,0.49437225341796875,-0.5201373901367188,0.5935770874023437,0.8675493001937866,-8.544921875083266e-05,-0.0048889160156318,-0.05981445312505551,-0.03679780384322015,0.03194230795648442,0.006422912597656261,None,None,None,None
cf1,456.09999999999997,0.5130945434570313,0.47213943481445314,0.24791593933105469,4.238248825073242,0.006225585937508327,-0.0185226440429844,-0.07160568237311167,-0.01869699826962565,0.02435322682002987,0.0520840606689453,None,None,None,None
cf2,456.09999999999997,0.49422042846679687,-0.5201811523437501,0.5924996337890626,0.8625093698501587,-0.007591247558601209,-0.0021881103515661777,-0.0538726806641067,-0.03660517242000219,0.032055783041790596,0.007500366210937415,None,None,None,None
cf1,456.12,0.51320751953125,0.47181787109375,0.24657083129882812,4.238248825073242,0.005648803710922763,-0.016078186035125577,-0.06725540161119833,-0.018749735938904517,0.024840018417075616,0.05342916870117187,None,None,None,None
cf2,456.12,0.49394458007812503,-0.5202006225585938,0.5914188232421875,0.8625093698501587,-0.01379241943356534,-0.0009735107421841086,-0.0540405273436472,-0.036276281542628755,0.032186425228216915,0.008581176757812448,None,None,None,None
cf1,456.14,0.5131762695312501,0.47147412109375003,0.2451533203125,4.154179096221924,-0.0015624999999977796,-0.017187500000014434,-0.07087554931647012,-0.018505159770109234,0.025430902609846512,0.05484667968749998,None,None,None,None
cf2,456.14,0.4935192565917969,-0.5200625610351562,0.5905415649414063,0.8625093698501587,-0.021266174316425437,0.0069030761718831875,-0.04386291503910115,-0.03582960347747176,0.03217645952746428,0.009458435058593673,None,None,None,None
cf1,456.15999999999997,0.5131522216796875,0.47124093627929686,0.2439502716064453,4.154179096221924,-0.001202392578126804,-0.011659240722669053,-0.06015243530278966,-0.01833551303326097,0.025826327467407404,0.05604972839355468,None,None,None,None
cf2,456.15999999999997,0.4929512023925781,-0.5198340454101562,0.5895650634765626,0.8859046101570129,-0.028402709960965465,0.011425781250012212,-0.04882507324223129,-0.03524247548524105,0.03210815207288157,0.01043493652343741,None,None,None,None
cf1,456.18,0.5130660400390625,0.470886962890625,0.24256196594238283,4.11977481842041,-0.004309082031242471,-0.01769866943355979,-0.06941528320298974,-0.017982034294535626,0.026441465417436253,0.05743803405761716,None,None,None,None
cf2,456.18,0.4923511657714844,-0.51957177734375,0.5888018798828125,0.8859046101570129,-0.03000183105462714,0.01311340332028307,-0.03815917968742874,-0.03462083419437456,0.03201010945437147,0.01119812011718746,None,None,None,None
cf1,456.2,0.5129400634765625,0.47063616943359377,0.24135597229003908,4.11977481842041,-0.0062988281250066615,-0.012539672851572283,-0.06029968261724239,-0.01760396156850969,0.026901675838995723,0.05864402770996091,None,None,None,None
cf2,456.2,0.4915636901855469,-0.5192398681640625,0.5881138916015625,0.8859046101570129,-0.039373779296910945,0.016595458984390403,-0.03439941406253386,-0.03378443205788209,0.03189816495650436,0.011886108398437512,None,None,None,None
cf1,456.21999999999997,0.5127857666015625,0.4703772888183594,0.24012345886230468,4.11977481842041,-0.007714843750007772,-0.012944030761730788,-0.06162567138677575,-0.01716638091501291,0.02738055915396163,0.059876541137695305,None,None,None,None
cf2,456.21999999999997,0.4906577453613281,-0.5189052124023438,0.5875216064453125,0.8899082541465759,-0.045297241210981005,0.01673278808595325,-0.02961425781252609,-0.03277951679880348,0.03183229045108073,0.012478393554687495,None,None,None,None
cf1,456.23999999999995,0.5126043090820313,0.4701177978515625,0.23907949829101563,4.078782081604004,-0.009072875976570619,-0.012974548339856482,-0.05219802856450019,-0.01667493534083644,0.027864760443694177,0.06092050170898436,None,None,None,None
cf2,456.23999999999995,0.48964385986328124,-0.518508544921875,0.5870657958984375,0.8899082541465759,-0.05069427490238979,0.019833374023454916,-0.022790527343767485,-0.031631565281709205,0.031732746492667704,0.01293420410156243,None,None,None,None
cf1,456.26,0.5123780517578125,0.4698453674316406,0.23795294189453126,4.078782081604004,-0.011312866210916657,-0.013621520996066935,-0.05632781982410983,-0.01608746599668465,0.028379811464832098,0.06204705810546873,None,None,None,None
cf2,456.26,0.48854434204101566,-0.5180911865234376,0.5866035766601563,0.8688115477561951,-0.054975891113172914,0.02086791992183387,-0.02311096191401881,-0.030339696996960507,0.03164495458009436,0.0133964233398437,None,None,None,None
cf1,456.28,0.51210302734375,0.4696169128417969,0.2370255584716797,4.004344940185547,-0.013751220703135687,-0.011422729492196313,-0.04636917114262033,-0.0154204442937305,0.02884142443373721,0.0629744415283203,None,None,None,None
cf2,456.28,0.48745571899414064,-0.5175654296875,0.586099609375,0.8688115477561951,-0.054431152343800235,0.02628784179690317,-0.02519836425783422,-0.029062558029019463,0.03141143803001379,0.013900390624999925,None,None,None,None
cf1,456.29999999999995,0.5118385314941406,0.469350830078125,0.2361073455810547,4.004344940185547,-0.013224792480482733,-0.013304138183607315,-0.04591064453129136,-0.014757952142215853,0.02934238314296212,0.06389265441894529,None,None,None,None
cf2,456.29999999999995,0.48632427978515624,-0.5170414428710938,0.585794189453125,0.8688115477561951,-0.05657196044927131,0.026199340820333664,-0.015270996093766375,-0.02767333657364502,0.03119948251210346,0.014205810546874975,None,None,None,None
cf1,456.32,0.5115526428222656,0.4691517333984375,0.23520785522460938,4.004344940185547,-0.014294433593720197,-0.009954833984354894,-0.0449745178221791,-0.014079557409569442,0.02974596189111316,0.06479214477539061,None,None,None,None
cf2,456.32,0.4850378112792969,-0.5164884033203125,0.5855238647460937,0.8804677128791809,-0.06432342529284266,0.027651977539008124,-0.013516235351536643,-0.026002728198244503,0.031017732286823186,0.01447613525390623,None,None,None,None
cf1,456.34,0.5111948547363281,0.4689552917480469,0.23452597045898438,3.918612480163574,-0.01788940429689429,-0.009822082519540028,-0.03409423828128109,-0.013249664222130341,0.030164909704693172,0.06547402954101561,None,None,None,None
cf2,456.34,0.4837301940917969,-0.5160260620117187,0.5852653198242188,0.8804677128791809,-0.0653808593750594,0.023117065429710745,-0.012927246093758605,-0.02417103030485499,0.030971331021661483,0.014734680175781167,None,None,None,None
cf1,456.35999999999996,0.5108527526855469,0.4687210693359375,0.233881103515625,3.918612480163574,-0.017105102539076725,-0.011711120605481067,-0.03224334716799855,-0.012436133528550861,0.030617414736029924,0.066118896484375,None,None,None,None
cf2,456.35999999999996,0.4824418640136719,-0.5154979858398437,0.5850228881835937,0.8815800547599792,-0.06441650390630912,0.02640380859377415,-0.01212158203126582,-0.022300085824464824,0.03082636774315064,0.014977111816406263,None,None,None,None
cf1,456.38,0.5104656066894532,0.4684913635253906,0.2332552947998047,3.8509132862091064,-0.019357299804646847,-0.011485290527321619,-0.0312904357909544,-0.011528007934665931,0.031066113448534265,0.06674470520019529,None,None,None,None
cf2,456.38,0.4811012878417969,-0.5149161376953125,0.5848178100585938,0.8815800547599792,-0.06702880859362027,0.029092407226504587,-0.010253906249976408,-0.02025039322424939,0.030626607392005144,0.015182189941406188,None,None,None,None
cf1,456.4,0.5100906982421876,0.46831072998046874,0.23276698303222657,3.8509132862091064,-0.018745422363298077,-0.009031677246101764,-0.024415588378928765,-0.010661860468071422,0.031430982905933456,0.06723301696777342,None,None,None,None
cf2,456.4,0.4797806091308594,-0.51441796875,0.584635498046875,0.8815800547599792,-0.06603393554693482,0.024908447265648455,-0.00911560058594881,-0.018064753990869258,0.030524443952214732,0.015364501953124998,None,None,None,None
cf1,456.41999999999996,0.5097075805664063,0.46812796020507813,0.23234484863281252,3.8509132862091064,-0.019155883789080057,-0.009138488769538917,-0.0211067199707216,-0.00977612105945626,0.03178828921020719,0.06765515136718747,None,None,None,None
cf2,456.41999999999996,0.4784329833984375,-0.5139315795898438,0.5844520874023438,0.8660061955451965,-0.06738128662115728,0.024319458007831998,-0.009170532226568398,-0.01567289567070541,0.03043197991475479,0.0155479125976562,None,None,None,None
cf1,456.44,0.5092939147949219,0.46795962524414064,0.23192932128906252,3.802159070968628,-0.02068328857417922,-0.008416748046858156,-0.020776367187459822,-0.008827400088571411,0.032122065972195156,0.06807067871093747,None,None,None,None
cf2,456.44,0.4770491027832031,-0.5133518676757812,0.58422412109375,0.8660061955451965,-0.06919403076158465,0.028985595703073287,-0.011398315429667247,-0.013070417244468582,0.03019164555616607,0.015775878906249985,None,None,None,None
cf1,456.46,0.5088462829589844,0.46778179931640623,0.23154026794433594,3.802159070968628,-0.02238159179689762,-0.00889129638672857,-0.019452667236346737,-0.007801251097245599,0.032461361944155664,0.06845973205566405,None,None,None,None
cf2,456.46,0.47581561279296875,-0.5128502807617188,0.5840386352539063,0.840235710144043,-0.061674499511774644,0.025079345703144566,-0.009274291992192426,-0.010573207990254962,0.029952295782171477,0.015961364746093665,None,None,None,None
cf1,456.47999999999996,0.5083590698242187,0.46763632202148436,0.23119105529785156,3.7514657974243164,-0.024360656738303628,-0.007273864746100099,-0.01746063232423495,-0.006695118315539538,0.032751780143591425,0.06880894470214843,None,None,None,None
cf2,456.47999999999996,0.47454205322265625,-0.5123648681640625,0.5838374633789063,0.840235710144043,-0.06367797851568287,0.024270629882838658,-0.010058593750009993,-0.007803143104958606,0.0296812666748112,0.01616253662109368,None,None,None,None
cf1,456.5,0.5079075012207032,0.4675014038085938,0.23092683410644532,3.7514657974243164,-0.022578430175735572,-0.006745910644515859,-0.013211059570286123,-0.005669409055508167,0.033004466669344146,0.06907316589355467,None,None,None,None
cf2,456.5,0.47322543334960937,-0.511954345703125,0.5836295166015625,0.840235710144043,-0.06583099365221656,0.02052612304683151,-0.010397338867170647,-0.00472680021942301,0.029421496592089282,0.016370483398437496,None,None,None,None
cf1,456.52,0.5074468078613281,0.46739572143554686,0.23070608520507813,3.7514657974243164,-0.023034667968773036,-0.005284118652350932,-0.011037445068369836,-0.004628648409538058,0.03320698451049299,0.06929391479492186,None,None,None,None
cf2,456.52,0.4720562744140625,-0.5115474243164062,0.5833817749023438,0.8040767312049866,-0.05845794677739645,0.020346069335959914,-0.01238708496094659,-0.0018558225297635091,0.02901353508936589,0.016618225097656203,None,None,None,None
cf1,456.53999999999996,0.5070175170898438,0.46729608154296876,0.2304794158935547,3.6794328689575195,-0.021464538574236896,-0.004981994628909893,-0.01133346557618185,-0.0036591457104940164,0.0333827657224507,0.0695205841064453,None,None,None,None
cf2,456.53999999999996,0.4708848876953125,-0.51103955078125,0.5831122436523437,0.8040767312049866,-0.05856933593755329,0.02539367675783533,-0.013476562500015544,0.0011457485032016308,0.02832371448514885,0.01688775634765627,None,None,None,None
cf1,456.56,0.50658544921875,0.4671693115234375,0.23026693725585937,3.6794328689575195,-0.021603393554644905,-0.006338500976550938,-0.010623931884745925,-0.0026828952153316135,0.033577388310330955,0.06973306274414062,None,None,None,None
cf2,456.56,0.4698524169921875,-0.5106582641601562,0.5828504638671875,0.7855116724967957,-0.051623535156150736,0.01906433105464879,-0.013088989257783694,0.003873846612253563,0.027669484899673677,0.01714953613281245,None,None,None,None
cf1,456.58,0.5061968078613281,0.46703872680664066,0.2300889129638672,3.6794328689575195,-0.01943206787111231,-0.006529235839847601,-0.00890121459961706,-0.0018076679136133857,0.03375989599487119,0.0699110870361328,None,None,None,None
cf2,456.58,0.46874667358398436,-0.5102432861328126,0.5826113891601563,0.7855116724967957,-0.0552871704102068,0.020748901367203528,-0.011953735351571728,0.006837693095143678,0.02680293501511983,0.017388610839843666,None,None,None,None
cf1,456.59999999999997,0.5058092651367188,0.46690472412109374,0.22992503356933594,3.5340423583984375,-0.019377136230487174,-0.006700134277352042,-0.008193969726569786,-0.0009401412504360465,0.0339348482677084,0.07007496643066405,None,None,None,None
cf2,456.59999999999997,0.46775048828125,-0.5099619140625,0.5823947143554687,0.7714269161224365,-0.0498092651367641,0.014068603515639572,-0.010833740234388184,0.009468114515429707,0.026028708716008632,0.017605285644531232,None,None,None,None
cf1,456.62,0.5054444580078125,0.4667752380371094,0.22982998657226564,3.5340423583984375,-0.0182403564452796,-0.006474304199204061,-0.004752349853505952,-0.000129205643097148,0.03409320194304404,0.07017001342773435,None,None,None,None
cf2,456.62,0.4667903747558594,-0.5096279296875,0.5821038818359375,0.6019787192344666,-0.04800567626943745,0.016699218749966972,-0.01454162597653262,0.011977296645082132,0.02507490371801324,0.017896118164062447,None,None,None,None
cf1,456.64,0.5051366882324219,0.4666499328613281,0.22978953552246095,3.5340423583984375,-0.015388488769543913,-0.006265258789070619,-0.0020225524902360925,0.0005498163839573894,0.03423804583334282,0.07021046447753904,None,None,None,None
cf2,456.64,0.4659718933105469,-0.5092977600097657,0.5818836669921875,0.5996167659759521,-0.040924072265661776,0.01650848388673301,-0.011010742187510547,0.014082842581760605,0.0241075577951075,0.018116333007812457,None,None,None,None
cf1,456.65999999999997,0.5048685913085937,0.46651821899414064,0.22976168823242188,3.1203253269195557,-0.01340484619141822,-0.0065856933593793025,-0.0013923645019549465,0.0011361348026374457,0.034384945264390204,0.07023831176757811,None,None,None,None
cf2,456.65999999999997,0.4651841735839844,-0.5090150451660156,0.5816824340820312,0.5996167659759521,-0.03938598632816066,0.014135742187517208,-0.010061645507823116,0.016027858916456847,0.023180463871875494,0.018317565917968737,None,None,None,None
cf1,456.68,0.5046527404785156,0.4663988952636719,0.22975575256347658,3.0023748874664307,-0.01079254150388588,-0.005966186523425747,-0.0002967834472644519,0.0016038957844065334,0.034514862795262585,0.07024424743652341,None,None,None,None
cf2,456.68,0.4644448547363281,-0.5087771606445313,0.581494384765625,0.5996167659759521,-0.03696594238274192,0.011894226074193099,-0.009402465820294728,0.017770023756684426,0.022324574981688404,0.018505615234374995,None,None,None,None
cf1,456.7,0.5044773559570312,0.4662443542480469,0.22977423095703126,2.775609016418457,-0.008769226074225794,-0.007727050781257494,0.0009239196777347046,0.0019778859973071062,0.03468457603666495,0.07022576904296873,None,None,None,None
cf2,456.7,0.4637572631835938,-0.5085386352539063,0.5813458251953125,0.5846176743507385,-0.03437957763674855,0.01192626953125916,-0.00742797851562958,0.01933619980303956,0.021475986509519072,0.01865417480468745,None,None,None,None
cf1,456.71999999999997,0.504349853515625,0.46609390258789063,0.22980342102050783,2.7116386890411377,-0.006375122070318121,-0.007522583007819786,0.0014595031738298078,0.002244976748279871,0.03485019787666027,0.07019657897949216,None,None,None,None
cf2,456.71999999999997,0.46315237426757816,-0.5084000549316406,0.5812540283203125,0.5846176743507385,-0.030244445800808623,0.006929016113289195,-0.0045898437500066615,0.020619889475866935,0.020857316489847646,0.0187459716796875,None,None,None,None
cf1,456.73999999999995,0.5042528991699219,0.4659124755859375,0.2298750457763672,2.6481621265411377,-0.00484771728516017,-0.009071350097664056,0.0035812377929716295,0.00244169260985851,0.03505182176249669,0.0701249542236328,None,None,None,None
cf2,456.73999999999995,0.46262182617187503,-0.5082637329101563,0.5811056518554688,0.5846176743507385,-0.02652740478518071,0.006816101074225793,-0.007418823242190206,0.02171421400654988,0.02028538885114473,0.01889434814453117,None,None,None,None
cf1,456.76,0.5042038879394531,0.46574188232421876,0.229928466796875,2.6481621265411377,-0.0024505615234324085,-0.008529663085921237,0.0026710510253856183,0.0025346161405371695,0.03524305947490571,0.07007153320312498,None,None,None,None
cf2,456.76,0.46215118408203126,-0.5080762023925781,0.5810758666992187,0.5846176743507385,-0.023532104492142752,0.009376525878888795,-0.0014892578125007632,0.022691830354492872,0.019647449035229785,0.018924133300781243,None,None,None,None
cf1,456.78,0.5041914367675782,0.4655362243652344,0.22998858642578127,2.5902769565582275,-0.0006225585937497224,-0.010282897949227458,0.0030059814453156225,0.002546349997015722,0.03547554833245829,0.07001141357421872,None,None,None,None
cf2,456.78,0.4617732849121094,-0.5078910522460938,0.5810718994140626,0.5846176743507385,-0.018894958496110646,0.009257507324225794,-0.0001983642578086836,0.02347453162553095,0.019066124869542244,0.018928100585937413,None,None,None,None
cf1,456.79999999999995,0.5042277221679687,0.4653218994140625,0.23006971740722656,2.5902769565582275,0.001814270019530591,-0.010716247558605094,0.004056549072268626,0.002454393776226084,0.035719683609736395,0.06993028259277342,None,None,None,None
cf2,456.79999999999995,0.46142465209960937,-0.5077806396484376,0.5810681762695312,0.5846176743507385,-0.01743164062501721,0.005520629882815345,-0.00018615722656728783,0.02414619264399592,0.018651862331164986,0.018931823730468755,None,None,None,None
cf1,456.82,0.5043128051757813,0.46508609008789065,0.23014295959472655,2.5902769565582275,0.004254150390617489,-0.011790466308569364,0.003662109374992367,0.00225965946774747,0.03598910398390229,0.06985704040527344,None,None,None,None
cf2,456.82,0.4611746520996094,-0.507681640625,0.5810992431640625,0.5682970285415649,-0.012499999999974466,0.004949951171869119,0.0015533447265595423,0.024629093776728058,0.018316168440300627,0.018900756835937504,None,None,None,None
cf1,456.84,0.5044967346191407,0.4647865295410156,0.2302365417480469,2.5902769565582275,0.009196472167979957,-0.01497802734376471,0.004679107666021124,0.0018576854937903096,0.03633170539970914,0.0697634582519531,None,None,None,None
cf2,456.84,0.46097564697265625,-0.507583984375,0.5811400146484376,0.5682970285415649,-0.009950256347666277,0.004882812500005551,0.0020385742187563837,0.025017767112889625,0.01801145868554827,0.018859985351562414,None,None,None,None
cf1,456.85999999999996,0.5046854248046875,0.4644539489746094,0.23033772277832032,2.5902769565582275,0.009434509277348156,-0.016629028320326446,0.005059051513676021,0.0014508487642398388,0.036705228832582655,0.06966227722167967,None,None,None,None
cf2,456.85999999999996,0.46080850219726566,-0.5074933166503907,0.5811929931640625,0.5682970285415649,-0.008357238769537253,0.0045333862304694095,0.002648925781248057,0.02534466102740976,0.017738343208615514,0.0188070068359375,None,None,None,None
cf1,456.88,0.50493505859375,0.4641102294921875,0.2304495391845703,2.5902769565582275,0.012481689453101321,-0.0171859741210618,0.005590820312488828,0.0009256801351115576,0.03708645795251908,0.06955046081542968,None,None,None,None
cf2,456.88,0.4606629638671875,-0.5074274597167969,0.5812980346679688,0.5682970285415649,-0.007276916503892541,0.0032928466796802924,0.005252075195306524,0.025619385083323603,0.01752765983673501,0.018701965332031167,None,None,None,None
cf1,456.9,0.505212890625,0.46377297973632814,0.23056668090820312,2.5384769439697266,0.013891601562511657,-0.016862487792983286,0.005857086181645708,0.00035239521128708215,0.03745368078487636,0.06943331909179687,None,None,None,None
cf2,456.9,0.4605280456542969,-0.5074192810058594,0.5814087524414062,0.5962856411933899,-0.006745910644537808,0.00040893554687541634,0.0055358886718754165,0.025844402334593057,0.01744110584618396,0.01859124755859376,None,None,None,None
cf1,456.91999999999996,0.5054757690429688,0.46344705200195313,0.23066392517089845,2.5384769439697266,0.013143920898451586,-0.016296386718765266,0.004862213134771124,-0.00018098971306717003,0.0378013550527627,0.06933607482910153,None,None,None,None
cf2,456.91999999999996,0.460479736328125,-0.5073942260742188,0.5815087280273438,0.5962856411933899,-0.0024154663085967686,0.001252746582032256,0.004998779296882078,0.02593589411880337,0.01736498066001526,0.01849127197265621,None,None,None,None
cf1,456.94,0.505799072265625,0.46309158325195315,0.2307919158935547,2.5384769439697266,0.016165161132782723,-0.017773437499964472,0.0063995361327993765,-0.0008258963975047882,0.03817230534200122,0.0692080841064453,None,None,None,None
cf2,456.94,0.46047705078125,-0.5073689270019531,0.5816611938476562,0.5962856411933899,-0.00013427734374934082,0.001264953613281159,0.0076232910156090235,0.025953236567835884,0.017311769967652973,0.018338806152343734,None,None,None,None
cf1,456.96,0.5061717224121094,0.4626923828125,0.23090646362304687,2.5384769439697266,0.018632507324234673,-0.019960021972674602,0.005727386474614285,-0.0015553036161058851,0.03857846523160022,0.06909353637695312,None,None,None,None
cf2,456.96,0.46048324584960937,-0.5073895568847656,0.5818007202148437,0.5962856411933899,0.000309753417968299,-0.0010314941406251387,0.006976318359381522,0.02593259004874081,0.01735722112052362,0.01819927978515623,None,None,None,None
cf1,456.97999999999996,0.5065928344726562,0.46227566528320313,0.23098811340332032,2.490684986114502,0.02105560302736148,-0.0208358764648637,0.004082489013676021,-0.002363876004992396,0.03898969657972911,0.06901188659667967,None,None,None,None
cf2,456.97999999999996,0.4605234069824219,-0.5074566345214844,0.5819700927734375,0.5962856411933899,0.0020080566406279142,-0.003353881835941039,0.008468627929694092,0.025832704937458664,0.017515050197112806,0.018029907226562503,None,None,None,None
cf1,457.0,0.5069662780761719,0.4618782348632813,0.2310920867919922,2.490684986114502,0.018672180175746674,-0.019871520996054166,0.005198669433583936,-0.00306465602904087,0.0393731949668464,0.06890791320800779,None,None,None,None
cf2,457.0,0.460559814453125,-0.5074760131835938,0.5821722412109375,0.5962856411933899,0.001820373535151666,-0.000968933105469986,0.010107421874980154,0.02576325766911063,0.01757340585620369,0.01782775878906251,None,None,None,None
cf1,457.02,0.5073724975585938,0.46142337036132813,0.2312757568359375,2.490684986114502,0.02031097412111453,-0.022743225097677934,0.009183502197274178,-0.0038091948415390157,0.039803045924596395,0.06872424316406248,None,None,None,None
cf2,457.02,0.4605792236328125,-0.5075472106933594,0.5824251708984375,0.5962856411933899,0.0009704589843765266,-0.003559875488282534,0.012646484375012212,0.025694599883934965,0.0177284523441422,0.017574829101562495,None,None,None,None
cf1,457.03999999999996,0.5078252563476563,0.46089691162109375,0.23140937805175782,2.490684986114502,0.022637939453144566,-0.026322937011743,0.006681060791021402,-0.004617478580935117,0.04028963382016292,0.06859062194824217,None,None,None,None
cf2,457.03999999999996,0.46063110351562503,-0.507619140625,0.5826483764648438,0.5877755284309387,0.0025939941406284694,-0.0035964965820344764,0.011160278320325892,0.025571971998700736,0.017901416546494592,0.01735162353515618,None,None,None,None
cf1,457.06,0.5082957458496093,0.4603842468261719,0.2314878845214844,2.490684986114502,0.02352447509760719,-0.02563323974604279,0.003925323486320872,-0.005439822341624465,0.0407484023804954,0.0685121154785156,None,None,None,None
cf2,457.06,0.4606410827636719,-0.5076834716796875,0.5829403686523438,0.5877755284309387,0.0004989624023417421,-0.00321655273436905,0.014599609374970717,0.025521933040618273,0.018036732704334556,0.0170596313476562,None,None,None,None
cf1,457.08,0.5087267150878907,0.45991455078125,0.23160940551757814,2.490684986114502,0.021548461914086717,-0.023484802246117306,0.0060760498046929816,-0.006175359904342063,0.041158723554427054,0.06839059448242185,None,None,None,None
cf2,457.08,0.460717529296875,-0.5077630920410157,0.5832211303710938,0.5877755284309387,0.003822326660158505,-0.003981018066410448,0.014038085937513878,0.02535376072951528,0.01823728796409468,0.01677886962890618,None,None,None,None
cf1,457.09999999999997,0.5091546020507812,0.45939785766601565,0.2317166442871094,2.490684986114502,0.021394348144546133,-0.025834655761740224,0.005361938476567565,-0.006882396168692686,0.041606430395496975,0.0682833557128906,None,None,None,None
cf2,457.09999999999997,0.4607657165527344,-0.5078424682617187,0.5834697265625,0.5877755284309387,0.002409362792973295,-0.00396881103515795,0.012429809570319231,0.025231817738517043,0.018422042207576175,0.01653027343750002,None,None,None,None
cf1,457.12,0.5096494445800781,0.45883416748046874,0.2318199157714844,2.444303274154663,0.024742126464796153,-0.028184509277291367,0.005163574218740042,-0.007684684187263197,0.04208044212525915,0.0681800842285156,None,None,None,None
cf2,457.12,0.4608161315917969,-0.5079300537109375,0.5837301635742188,0.5877755284309387,0.0025207519531201946,-0.004379272460927482,0.01302185058591735,0.025101274795771438,0.0186238250587717,0.01626983642578117,None,None,None,None
cf1,457.14,0.5101074523925782,0.45833349609375,0.23201034545898438,2.444303274154663,0.022900390625023314,-0.0250335693359588,0.009521484375008327,-0.00841259042797286,0.04248969901904962,0.0679896545410156,None,None,None,None
cf2,457.14,0.46089599609375,-0.5080099487304688,0.58399267578125,0.5877755284309387,0.003993225097657395,-0.0039947509765695085,0.01312561035157284,0.024924739991259704,0.01882537153751821,0.016007324218749952,None,None,None,None
cf1,457.15999999999997,0.5105808410644531,0.45784735107421876,0.23217689514160156,2.444303274154663,0.023669433593769707,-0.02430725097658505,0.008327484130866227,-0.009153297709478057,0.04287448482630215,0.06782310485839843,None,None,None,None
cf2,457.15999999999997,0.46099258422851563,-0.5080696105957031,0.5842777099609375,0.5877755284309387,0.004829406738286975,-0.0029830932617185765,0.014251708984388184,0.02472970393075045,0.018995428014201038,0.015722290039062448,None,None,None,None
cf1,457.18,0.5110428466796875,0.4572684020996094,0.23238206481933593,2.444303274154663,0.023100280761672906,-0.028947448730412117,0.010258483886698857,-0.009841762983062309,0.04334148651178454,0.06761793518066406,None,None,None,None
cf2,457.18,0.46104974365234375,-0.5081467590332032,0.58460986328125,0.5653051137924194,0.002857971191400105,-0.003857421874995698,0.01660766601559015,0.024591143399358414,0.019178676086557038,0.015390136718750003,None,None,None,None
cf1,457.2,0.511498046875,0.4567797546386719,0.23261782836914063,2.444303274154663,0.022760009765647342,-0.024432373046898177,0.011788177490245806,-0.010519532716846716,0.04371706583927002,0.06738217163085936,None,None,None,None
cf2,457.2,0.461127685546875,-0.5082341003417968,0.5849290771484376,0.5653051137924194,0.0038970947265661777,-0.0043670654296874304,0.015960693359393735,0.0244109135680195,0.019392673952452325,0.015070922851562418,None,None,None,None
cf1,457.21999999999997,0.5119450073242188,0.45634768676757814,0.23286116027832032,2.444303274154663,0.0223480224609588,-0.021603393554706304,0.01216659545899553,-0.011180777449322313,0.044035219621680555,0.06713883972167967,None,None,None,None
cf2,457.21999999999997,0.4611724548339844,-0.5082773132324219,0.5852344360351562,0.5653051137924194,0.0022384643554716295,-0.002160644531253608,0.0152679443359477,0.02431071294399757,0.019501690558105123,0.014765563964843742,None,None,None,None
cf1,457.23999999999995,0.5124112548828125,0.45586224365234373,0.23311087036132813,2.444303274154663,0.023312377929706304,-0.024272155761742447,0.012485504150401814,-0.011850392187609152,0.044393785488254844,0.06688912963867186,None,None,None,None
cf2,457.23999999999995,0.4612754821777344,-0.5082994689941407,0.5855084228515625,0.5653051137924194,0.005151367187504996,-0.001107788085942149,0.013699340820323671,0.024121101805542645,0.019601109709777315,0.014491577148437518,None,None,None,None
cf1,457.26,0.5128693237304688,0.4553465576171875,0.23336447143554687,2.411301851272583,0.022903442382771345,-0.02578430175776149,0.012680053710912216,-0.012487163702551192,0.044776288084127626,0.06663552856445312,None,None,None,None
cf2,457.26,0.4614299011230469,-0.508340576171875,0.5858271484375001,0.5653051137924194,0.007720947265609301,-0.0020553588867116244,0.015936279296848998,0.02383029399372315,0.019765947952471934,0.014172851562499922,None,None,None,None
cf1,457.28,0.5132515258789062,0.4549107666015625,0.23362255859375,2.411301851272583,0.01911010742188874,-0.021789550781270817,0.012904357910168498,-0.013007471595269843,0.04509623556691908,0.06637744140624999,None,None,None,None
cf2,457.28,0.46157168579101565,-0.5083528442382813,0.586187255859375,0.5653051137924194,0.007089233398444925,-0.0006134033203159001,0.018005371093765266,0.0235748637473882,0.019867959025159945,0.013812744140624944,None,None,None,None
cf1,457.29999999999995,0.5136517944335938,0.45457843017578126,0.23395005798339844,2.411301851272583,0.020013427734395954,-0.016616821289076725,0.01637496948243657,-0.013570076462836889,0.045314118228672214,0.06604994201660155,None,None,None,None
cf2,457.29999999999995,0.46171295166015625,-0.5083294372558594,0.5865285034179688,0.5653051137924194,0.007063293457036142,0.001170349121094548,0.017062377929704085,0.023337925501482292,0.01990047794687254,0.013471496582031173,None,None,None,None
cf1,457.32,0.5140347900390625,0.454239990234375,0.23427917480468752,2.411301851272583,0.01914978027339938,-0.01692199707028002,0.01645584106442233,-0.014096305490184551,0.04553846652146855,0.06572082519531247,None,None,None,None
cf2,457.32,0.46185855102539064,-0.50829638671875,0.5868515625,0.5871278047561646,0.0072799682617056575,0.0016525268554691533,0.01615295410153026,0.023096570962176526,0.019916923892961916,0.013148437499999943,None,None,None,None
cf1,457.34,0.51445166015625,0.4538692626953125,0.23462919616699218,2.4154412746429443,0.020843505859393735,-0.01853637695314068,0.017501068115249138,-0.014660172278714878,0.04578176852519468,0.0653708038330078,None,None,None,None
cf2,457.34,0.46200912475585937,-0.5082388000488282,0.5871390991210937,0.5871278047561646,0.007528686523443259,0.002879333496094548,0.014376831054698534,0.02285785876067521,0.019888348889480264,0.012860900878906234,None,None,None,None
cf1,457.35999999999996,0.5147979736328125,0.4535434265136719,0.2350066833496094,2.4154412746429443,0.017315673828143457,-0.01629180908204558,0.018874359130877608,-0.015118011309075353,0.0459977561419175,0.0649933166503906,None,None,None,None
cf2,457.35999999999996,0.46216271972656253,-0.5082089843750001,0.5874078979492188,0.5825740694999695,0.007679748535165167,0.0014907836914060072,0.0134399414062636,0.022595738876218848,0.019916301715745655,0.012592102050781206,None,None,None,None
cf1,457.38,0.5150936889648438,0.45330682373046877,0.23535554504394532,2.444281816482544,0.014785766601531925,-0.011830139160134319,0.017443084716762685,-0.015514051546719896,0.0461429628416635,0.06464445495605467,None,None,None,None
cf2,457.38,0.4623335571289063,-0.5081398010253906,0.58771826171875,0.5825740694999695,0.008541870117170924,0.003459167480467349,0.015518188476529844,0.022321706234061007,0.01987680869274538,0.01228173828125001,None,None,None,None
cf1,457.4,0.5153143310546875,0.4531053771972656,0.23565554809570313,2.444281816482544,0.011032104492196868,-0.010072326660166277,0.015000152587904311,-0.01580110977258275,0.046272919705180666,0.06434445190429686,None,None,None,None
cf2,457.4,0.46256036376953125,-0.5080437316894532,0.587967041015625,0.5825740694999695,0.011340332031258605,0.0048034667968754165,0.012438964843764156,0.021955745052177917,0.019816169024954484,0.012032958984374953,None,None,None,None
cf1,457.41999999999996,0.5155294189453125,0.4529293212890625,0.23592144775390625,2.444281816482544,0.010754394531258048,-0.008802795410164611,0.013294982910167941,-0.01608359591341408,0.04638057741143672,0.06407855224609374,None,None,None,None
cf2,457.41999999999996,0.4628119812011719,-0.5079432983398438,0.5881728515625,0.5537896752357483,0.012580871582043913,0.005021667480474961,0.010290527343757494,0.02153990785102044,0.019761302601517757,0.01182714843749999,None,None,None,None
cf1,457.44,0.5157105102539062,0.4528255615234375,0.23618807983398438,2.503122329711914,0.009054565429671688,-0.005187988281239418,0.013331604003880606,-0.016330507480902624,0.046430713741928795,0.06381192016601561,None,None,None,None
cf2,457.44,0.46311642456054686,-0.5078202514648438,0.5883800659179688,0.5537896752357483,0.015222167968718671,0.006152343749986955,0.010360717773418808,0.021028338159479312,0.01969221421040572,0.011619934082031214,None,None,None,None
cf1,457.46,0.5158348999023438,0.452755615234375,0.236537353515625,2.503122329711914,0.006219482421882078,-0.003497314453127359,0.01746368408204669,-0.01649969482718706,0.04646372893920708,0.063462646484375,None,None,None,None
cf2,457.46,0.4633962707519531,-0.5076965942382813,0.588570068359375,0.5517305731773376,0.013992309570325337,0.006182861328130135,0.009500122070319231,0.020554925928008092,0.01960764875127604,0.011429931640625002,None,None,None,None
cf1,457.47999999999996,0.5159385375976563,0.45275320434570315,0.23681033325195314,2.5044047832489014,0.00518188476563069,-0.00012054443359343776,0.013648986816419607,-0.01665376398980308,0.04644080793000116,0.06318966674804685,None,None,None,None
