Crazyflie name,QTM packet timestamp (s),x (m),y (m),z (m),yaw (째),vx (m/s),vy (m/s),vz (m/s),vx_c (m/s),vy_c (m/s),vz_c (m/s),roll_c (째),pitch_c (째),yaw_rate_c (째/s),thrust_c (PWM)
cf1,1095.34,0.5745840454101563,0.4451512451171875,0.013686777114868164,-0.0048214346170425415,0.0008911132812547184,0.0005859375000005551,-0.0011795997619639337,None,None,None,None,None,None,None
cf2,1095.34,0.55193212890625,-0.5451312866210938,0.007773391246795654,0.026898853480815887,0.0005706787109377081,-0.00035705566406340203,0.00034208297729523195,None,None,None,None,None,None,None
cf1,1095.36,0.5745719604492188,0.44512683105468753,0.013685064315795898,-0.0048214346170425415,-0.0006042480468765266,-0.001220703125,-8.563995361337232e-05,None,None,None,None,None,None,None
cf2,1095.36,0.5519136352539062,-0.5450985717773438,0.007765192985534668,0.026898853480815887,-0.0009246826171879857,0.0016357421875016654,-0.00040991306304967256,None,None,None,None,None,None,None
cf1,1095.3799999999999,0.574555908203125,0.445135498046875,0.01370051097869873,-0.004827843979001045,-0.0008026123046907613,0.0004333496093748612,0.0007723331451423096,None,None,None,None,None,None,None
cf2,1095.3799999999999,0.5519332885742188,-0.5451046752929688,0.007774091720581055,0.02713758498430252,0.000982666015626249,-0.0003051757812513878,0.00044493675231974686,None,None,None,None,None,None,None
cf1,1095.3999999999999,0.5745771484375,0.44513070678710936,0.013710764884948731,-0.004827843979001045,0.0010620117187508326,-0.0002395629882830888,0.0005126953125004857,None,None,None,None,None,None,None
cf2,1095.3999999999999,0.5519312744140625,-0.5451104736328125,0.007812815189361572,0.02713758498430252,-0.00010070800781090405,-0.0002899169921857653,0.0019361734390276142,None,None,None,None,None,None,None
cf1,1095.4199999999998,0.5745608520507812,0.44514712524414063,0.013786069869995117,-0.0015580331673845649,-0.0008148193359377081,0.0008209228515639571,0.003765249252322748,None,None,None,None,None,None,None
cf2,1095.4199999999998,0.551898681640625,-0.5451094360351563,0.0078828444480896,0.027509566396474838,-0.0016296386718754163,5.1879882812014276e-05,0.0035014629364045753,None,None,None,None,None,None,None
cf1,1095.44,0.5745505981445312,0.44514151000976565,0.013849970817565919,-0.0015580331673845649,-0.0005126953124936162,-0.0002807617187459754,0.00319504737850667,None,None,None,None,None,None,None
cf2,1095.44,0.551858642578125,-0.5451130981445312,0.008052006721496582,0.027509566396474838,-0.002001953124981681,-0.00018310546874653055,0.008458113670260612,None,None,None,None,None,None,None
cf1,1095.46,0.5744640502929688,0.44518777465820314,0.013979458808898925,-0.0015580331673845649,-0.004327392578127915,0.0023132324218765265,0.006474399566656204,None,None,None,None,None,None,None
cf2,1095.46,0.5518421630859375,-0.5451552734375,0.00828313159942627,0.027509566396474838,-0.0008239746093770817,-0.0021087646484415938,0.011556243896494922,None,None,None,None,None,None,None
cf1,1095.48,0.5744187622070313,0.4452816467285156,0.014256773948669433,0.040338654071092606,-0.002264404296877637,0.004693603515627915,0.013865756988538005,None,None,None,None,None,None,None
cf2,1095.48,0.5517407836914062,-0.5452479858398438,0.009027030944824219,0.08162841945886612,-0.005068969726567288,-0.004635620117192427,0.03719496726993128,None,None,None,None,None,None,None
cf1,1095.5,0.5742437133789062,0.44540225219726565,0.015111878395080566,0.040338654071092606,-0.00875244140625916,0.006030273437507216,0.04275522232059552,None,None,None,None,None,None,None
cf2,1095.5,0.5515096435546875,-0.5452648315429688,0.01087678623199463,0.08162841945886612,-0.01155700683594881,-0.0008422851562502776,0.09248776435860465,None,None,None,None,None,None,None
cf1,1095.52,0.5740296630859375,0.4455498046875,0.016898122787475586,0.34531867504119873,-0.010702514648446034,0.007377624511724128,0.08931221961983224,None,None,None,None,None,None,None
cf2,1095.52,0.5511741943359375,-0.545337890625,0.014541053771972656,0.2847597897052765,-0.016772460937512768,-0.0036529541015661777,0.18321337699906795,None,None,None,None,None,None,None
cf1,1095.54,0.573638427734375,0.4457967529296875,0.01999997138977051,0.34531867504119873,-0.019561767578142347,0.012347412109387074,0.15509243011488721,None,None,None,None,None,None,None
cf2,1095.54,0.5506546020507813,-0.5452793579101562,0.02026211929321289,0.2847597897052765,-0.025979614257833107,0.002926635742192427,0.2860532760622719,None,None,None,None,None,None,None
cf1,1095.56,0.573088134765625,0.44611993408203127,0.02452049446105957,0.34531867504119873,-0.02751464843752387,0.01615905761720242,0.22602615356465858,None,None,None,None,None,None,None
cf2,1095.56,0.5498340454101562,-0.5451795654296875,0.02854905128479004,0.2847597897052765,-0.04102783203129136,0.004989624023442704,0.4143465995792344,None,None,None,None,None,None,None
cf1,1095.58,0.5723623046875,0.44639447021484374,0.03035938262939453,1.1905566453933716,-0.036291503906282475,0.013726806640636241,0.2919444084170136,None,None,None,None,None,None,None
cf2,1095.58,0.5487477416992188,-0.5450144653320312,0.039307876586914064,0.8911624550819397,-0.054315185546920934,0.008255004882819786,0.5379412651066904,None,None,None,None,None,None,None
cf1,1095.6,0.571400634765625,0.446636474609375,0.03772859573364258,1.1905566453933716,-0.04808349609379746,0.01210021972657395,0.36846065521273763,None,None,None,None,None,None,None
cf2,1095.6,0.5473319702148438,-0.5448074951171875,0.05233850860595703,0.8911624550819397,-0.07078857421881411,0.010348510742195758,0.651531600952741,None,None,None,None,None,None,None
cf1,1095.62,0.570227294921875,0.4468974609375,0.04636126708984375,2.108788251876831,-0.05866699218755385,0.01304931640626138,0.4316335678104509,None,None,None,None,None,None,None
cf2,1095.62,0.5455651245117188,-0.5445249633789062,0.06761822509765625,0.8911624550819397,-0.08834228515633133,0.014126586914077834,0.7639858245856556,None,None,None,None,None,None,None
cf1,1095.6399999999999,0.5688900756835937,0.4470343933105469,0.056194702148437504,2.108788251876831,-0.06686096191412225,0.006846618652351487,0.491671752930135,None,None,None,None,None,None,None
cf2,1095.6399999999999,0.5436329345703125,-0.5442498779296875,0.08480860900878906,1.6295398473739624,-0.0966094970704036,0.01375427246094881,0.8595191955574223,None,None,None,None,None,None,None
cf1,1095.6599999999999,0.5673599243164062,0.447249267578125,0.06718396759033203,2.108788251876831,-0.0765075683594437,0.01074371337891489,0.549463272095226,None,None,None,None,None,None,None
cf2,1095.6599999999999,0.5413753051757813,-0.5438784790039063,0.10364090728759766,1.6295398473739624,-0.11288146972666388,0.018569946289076725,0.9416149139412863,None,None,None,None,None,None,None
cf1,1095.68,0.565748046875,0.44737701416015624,0.07910831451416016,2.7709507942199707,-0.08059387206946848,0.006387329101495228,0.5962173461851704,None,None,None,None,None,None,None
cf2,1095.68,0.5389566040039062,-0.543603759765625,0.12386122131347657,1.9291539192199707,-0.12093505859248699,0.013735961913919455,1.0110157012833711,None,None,None,None,None,None,None
cf1,1095.7,0.5641358032226562,0.44745223999023437,0.09181428527832032,2.7709507942199707,-0.08061218261726348,0.003761291503909893,0.635298538208586,None,None,None,None,None,None,None
cf2,1095.7,0.5363770141601563,-0.54329345703125,0.14534896850585938,1.9291539192199707,-0.1289794921876149,0.015515136718766375,1.0743873596201174,None,None,None,None,None,None,None
cf1,1095.72,0.562568359375,0.4473647155761719,0.10494219970703125,3.2359766960144043,-0.07837219238287974,-0.004376220703126804,0.6563957214361436,None,None,None,None,None,None,None
cf2,1095.72,0.5337848510742188,-0.5430165405273437,0.1677379608154297,2.032453775405884,-0.12960815429699088,0.013845825195325892,1.1194496154795337,None,None,None,None,None,None,None
cf1,1095.74,0.5610111694335937,0.44723037719726566,0.11859227752685547,3.2359766960144043,-0.07785949707038585,-0.0067169189453186754,0.6825038909918317,None,None,None,None,None,None,None
cf2,1095.74,0.5311629028320313,-0.5428644409179688,0.19082737731933594,2.032453775405884,-0.13109741210949588,0.0076049804687519425,1.1544708251963625,None,None,None,None,None,None,None
cf1,1095.76,0.5596610107421875,0.4469822082519531,0.1323545684814453,3.2359766960144043,-0.06750793457037141,-0.012408447265638462,0.6881145477301176,None,None,None,None,None,None,None
cf2,1095.76,0.5286559448242187,-0.542732666015625,0.2143251647949219,2.032453775405884,-0.1253479003907406,0.006588745117197978,1.174889373780366,None,None,None,None,None,None,None
cf1,1095.78,0.5583565673828125,0.44668768310546875,0.14635423278808593,3.5462000370025635,-0.065222167968813,-0.0147262573242319,0.6999832153326678,None,None,None,None,None,None,None
cf2,1095.78,0.526272705078125,-0.5427007446289063,0.23801496887207033,2.099390983581543,-0.11916198730479734,0.0015960693359365979,1.184490203858499,None,None,None,None,None,None,None
cf1,1095.8,0.5571813354492188,0.4463356628417969,0.16034715270996094,3.5462000370025635,-0.0587615966797385,-0.017601013183609536,0.699645996094387,None,None,None,None,None,None,None
cf2,1095.8,0.5240579833984376,-0.5427538452148437,0.26163406372070314,2.099390983581543,-0.11073608398447034,-0.002655029296874306,1.1809547424327145,None,None,None,None,None,None,None
cf1,1095.82,0.5561856079101563,0.445906005859375,0.1742215576171875,3.7292675971984863,-0.049786376953171216,-0.021482849121112868,0.6937202453619584,None,None,None,None,None,None,None
cf2,1095.82,0.5220171508789062,-0.5428167724609375,0.28502166748046875,2.1695187091827393,-0.10204162597666054,-0.0031463623046929816,1.1693801879893444,None,None,None,None,None,None,None
cf1,1095.84,0.555277099609375,0.4453950500488281,0.18782752990722656,3.7292675971984863,-0.04542541503910448,-0.025547790527367584,0.6802986145025722,None,None,None,None,None,None,None
cf2,1095.84,0.5201260375976563,-0.5429730834960937,0.30800790405273437,2.1695187091827393,-0.0945556640625816,-0.007815551757818676,1.1493118286143262,None,None,None,None,None,None,None
cf1,1095.86,0.5546060180664063,0.4448514404296875,0.20121249389648438,3.7292675971984863,-0.03355407714846491,-0.027180480957056125,0.6692481994634993,None,None,None,None,None,None,None
cf2,1095.86,0.5184107666015625,-0.5432025146484375,0.3304239501953125,2.1695187091827393,-0.08576354980476848,-0.011471557617197977,1.1208023071299262,None,None,None,None,None,None,None
cf1,1095.8799999999999,0.5540153198242188,0.44418203735351564,0.21428912353515625,3.812220335006714,-0.029534912109401505,-0.033470153808623414,0.6538314819341883,None,None,None,None,None,None,None
cf2,1095.8799999999999,0.5167943115234375,-0.5434658813476563,0.35222988891601564,2.1667115688323975,-0.08082275390632467,-0.01316833496095103,1.0902969360361483,None,None,None,None,None,None,None
cf1,1095.8999999999999,0.5535926513671875,0.44349203491210937,0.226838134765625,3.812220335006714,-0.02113342285158505,-0.034500122070344766,0.6274505615240084,None,None,None,None,None,None,None
cf2,1095.8999999999999,0.5153911743164062,-0.54376123046875,0.37328717041015624,2.1667115688323975,-0.07015686035162502,-0.014767456054700753,1.0528640747079876,None,None,None,None,None,None,None
cf1,1095.9199999999998,0.5533263549804688,0.4427873229980469,0.2389158935546875,3.825855016708374,-0.0133148193359477,-0.03523559570315511,0.6038879394536745,None,None,None,None,None,None,None
cf2,1095.9199999999998,0.5142440185546875,-0.5441393432617188,0.3933461303710938,2.125424385070801,-0.05735778808598989,-0.018905639648453806,1.0029479980477891,None,None,None,None,None,None,None
cf1,1095.94,0.5531892700195312,0.4419868469238281,0.25051504516601564,3.825855016708374,-0.006854248046806374,-0.04002380371052099,0.5799575805603405,None,None,None,None,None,None,None
cf2,1095.94,0.5132667846679687,-0.5445587158203126,0.41241140747070315,2.125424385070801,-0.04886169433542773,-0.02096862792947125,0.953263854970498,None,None,None,None,None,None,None
cf1,1095.96,0.5532091064453125,0.44114251708984376,0.26148626708984374,3.825855016708374,0.0009918212890656225,-0.04221649169925632,0.548561096191904,None,None,None,None,None,None,None
cf2,1095.96,0.5125619506835938,-0.54495068359375,0.43052239990234376,2.125424385070801,-0.03524169921877859,-0.01959838867188874,0.9055496215828538,None,None,None,None,None,None,None
cf1,1095.98,0.5533525390625,0.44032183837890626,0.27207858276367186,3.778346538543701,0.007171630859382633,-0.04103393554691205,0.5296157836918879,None,None,None,None,None,None,None
cf2,1095.98,0.5119248657226563,-0.5454667358398437,0.4475230712890625,2.108415126800537,-0.03185424804690428,-0.025802612304710745,0.8500335693367098,None,None,None,None,None,None,None
cf1,1096.0,0.5536054077148438,0.4395304260253906,0.2819476928710938,3.778346538543701,0.012643432617199088,-0.03957061767581862,0.49345550537154476,None,None,None,None,None,None,None
cf2,1096.0,0.5114066467285157,-0.5457510986328125,0.4630348815917969,2.108415126800537,-0.02591094970705446,-0.014218139648449365,0.7755905151374258,None,None,None,None,None,None,None
cf1,1096.02,0.5539636840820312,0.43864886474609377,0.29137319946289064,3.6832659244537354,0.017913818359388184,-0.044078063964882015,0.4712753295902717,None,None,None,None,None,None,None
cf2,1096.02,0.5111849365234375,-0.5462040405273437,0.47776461791992186,2.0268356800079346,-0.011085510253915444,-0.022647094726583942,0.736486816406918,None,None,None,None,None,None,None
cf1,1096.04,0.5544703369140626,0.4378313903808594,0.3000268249511719,3.6832659244537354,0.025332641601589493,-0.04087371826175632,0.43268127441445586,None,None,None,None,None,None,None
cf2,1096.04,0.5111350708007812,-0.5467057495117188,0.49147695922851564,2.0268356800079346,-0.0024932861328175655,-0.025085449218776368,0.6856170654303125,None,None,None,None,None,None,None
cf1,1096.06,0.5549832153320312,0.43694458007812503,0.30829678344726563,3.6832659244537354,0.025643920898456025,-0.04434051513675799,0.41349792480506325,None,None,None,None,None,None,None
cf2,1096.06,0.5112261352539063,-0.5471448364257813,0.5040126953125,2.0268356800079346,0.004553222656254718,-0.021954345703143457,0.6267868041997898,None,None,None,None,None,None,None
cf1,1096.08,0.5557251586914063,0.4360639953613281,0.3159407348632813,3.576594114303589,0.03709716796878636,-0.044029235839885904,0.38219757080113004,None,None,None,None,None,None,None
cf2,1096.08,0.5115569763183594,-0.547656005859375,0.51553076171875,1.880889654159546,0.016542053222671826,-0.025558471679710745,0.5759033203130224,None,None,None,None,None,None,None
cf1,1096.1,0.5564505615234375,0.4353025817871094,0.3230223388671875,3.576594114303589,0.036270141601596154,-0.03807067871097046,0.3540802001956334,None,None,None,None,None,None,None
cf2,1096.1,0.5121653442382813,-0.5479476318359375,0.5258619995117187,1.880889654159546,0.030418395996123414,-0.014581298828139017,0.5165618896489068,None,None,None,None,None,None,None
cf1,1096.12,0.5573280029296875,0.4344921875,0.3295701904296875,3.4373257160186768,0.04387207031254052,-0.04051971435550605,0.327392578125297,None,None,None,None,None,None,None
cf2,1096.12,0.5128086547851562,-0.5484174194335938,0.535379638671875,1.70946204662323,0.03216552734377637,-0.02348937988283422,0.475881958008245,None,None,None,None,None,None,None
cf1,1096.1399999999999,0.558210693359375,0.43379779052734374,0.33552606201171875,3.4373257160186768,0.04413452148441372,-0.03471984863284532,0.29779357910183374,None,None,None,None,None,None,None
cf2,1096.1399999999999,0.5135637207031251,-0.5487941284179687,0.5440250244140625,1.70946204662323,0.0377532958984749,-0.018835449218763047,0.4322692871097701,None,None,None,None,None,None,None
cf1,1096.1599999999999,0.5591741333007813,0.43295376586914064,0.34116067504882813,3.4373257160186768,0.04817199707035587,-0.042201232910193474,0.2817306518557253,None,None,None,None,None,None,None
cf2,1096.1599999999999,0.5144879150390625,-0.5491839599609375,0.5518695068359375,1.70946204662323,0.046209716796916496,-0.01949157714845714,0.392224121094105,None,None,None,None,None,None,None
cf1,1096.18,0.5601128540039063,0.43235690307617186,0.3462861633300781,3.262162446975708,0.046936035155762196,-0.02984313964812674,0.25627441405981854,None,None,None,None,None,None,None
cf2,1096.18,0.5154993286132813,-0.549547119140625,0.5588416137695312,1.5572775602340698,0.0505706787104083,-0.018157958984187303,0.34860534667604065,None,None,None,None,None,None,None
cf1,1096.2,0.5612130737304688,0.43161474609375,0.35098971557617187,3.262162446975708,0.05501098632817454,-0.037107849121126746,0.2351776123049017,None,None,None,None,None,None,None
cf2,1096.2,0.5167009887695313,-0.5498491821289062,0.565154296875,1.5572775602340698,0.060083007812554955,-0.015103149414072283,0.31563415527372357,None,None,None,None,None,None,None
cf1,1096.22,0.5622542114257812,0.431049560546875,0.35530657958984374,3.1055290699005127,0.052056884765669546,-0.028259277343776368,0.21584320068378995,None,None,None,None,None,None,None
cf2,1096.22,0.5179915161132813,-0.5501646118164063,0.5708452758789062,1.4602789878845215,0.0645263671875594,-0.015771484375018872,0.28454895019557125,-0.007581038359619987,0.0018529514870661613,0.029154724121093767,None,None,None,None
cf1,1096.24,0.5634334106445312,0.4305191650390625,0.35920291137695315,3.1055290699005127,0.058959960937552736,-0.0265197753906479,0.1948165893556476,-0.006980507678950263,0.0031397832158424383,0.04079708862304687,None,None,None,None
cf2,1096.24,0.5193757934570312,-0.5503649291992188,0.5759602661132812,1.4602789878845215,0.06921386718755829,-0.0100158691406318,0.25574951171898286,-0.012424649107033848,0.002395680105751373,0.02403973388671876,None,None,None,None
cf1,1096.26,0.56448974609375,0.4300814514160156,0.36275445556640623,3.1055290699005127,0.05281677246098767,-0.02188568115236481,0.1775772094728156,-0.010810510663620411,0.0046815440765286,0.03724554443359379,None,None,None,None
cf2,1096.26,0.5207738037109375,-0.5505684814453126,0.580508056640625,1.4602789878845215,0.06990051269537807,-0.010177612304699643,0.2273895263673956,-0.01610979048661998,0.0028451479998927785,0.019491943359374986,None,None,None,None
cf1,1096.28,0.56557861328125,0.42956790161132813,0.366025634765625,2.986189603805542,0.05444335937504996,-0.02567749023439762,0.16355895996108705,-0.013834792747255424,0.00616605488343386,0.033974365234375026,None,None,None,None
cf2,1096.28,0.5222971801757813,-0.5507201538085937,0.5845806884765625,1.3810663223266602,0.07616882324225904,-0.0075836181640656225,0.20363159179706194,-0.01943302724273374,0.0030244884690888516,0.015419311523437451,None,None,None,None
cf1,1096.3,0.5667166748046875,0.4292060241699219,0.36896725463867186,2.986189603805542,0.05690307617192315,-0.018093872070329222,0.14708099365247695,-0.016569367958794448,0.006845150308582719,0.031032745361328162,None,None,None,None
cf2,1096.3,0.5237424926757812,-0.5508583984375001,0.5880938110351562,1.3810663223266602,0.07226562500006106,-0.006912231445322561,0.17565612792984509,-0.022159684580421238,0.003176014012007721,0.011906188964843745,None,None,None,None
cf1,1096.32,0.56775146484375,0.4288211364746094,0.371455322265625,2.955247402191162,0.05173950195317677,-0.019244384765641238,0.12440338134777008,-0.01871653490811252,0.007587130111612734,0.028544677734375024,None,None,None,None
cf2,1096.32,0.5252285156250001,-0.5508829956054687,0.5910731201171875,1.3810663223266602,0.07430114746100987,-0.0012298583984338223,0.14896545410169829,-0.0246840131066487,0.0029925048420027757,0.008926879882812488,None,None,None,None
cf1,1096.34,0.568774169921875,0.42847747802734376,0.3735369873046875,2.955247402191162,0.051135253906294684,-0.01718292236329752,0.10408325195321895,-0.020651805984921067,0.008147007255090648,0.026463012695312538,None,None,None,None
cf2,1096.34,0.52678955078125,-0.5508400268554687,0.5935198364257812,1.2969168424606323,0.07805175781256828,0.0021484375000011104,0.12233581542979734,-0.027098441562809508,0.0026614643285518373,0.006480163574218767,None,None,None,None
cf1,1096.36,0.5697013549804688,0.42818249511718753,0.37523483276367187,2.955247402191162,0.04635925292973184,-0.014749145507824782,0.0848922729492963,-0.022276825923856245,0.008576324200068826,0.024765167236328156,None,None,None,None
cf2,1096.36,0.5282265625,-0.5508248291015625,0.595351806640625,1.2969168424606323,0.07185058593756495,0.0007598876953125693,0.09159851074227458,-0.029144154484495026,0.0024670707730805844,0.004648193359374941,None,None,None,None
cf1,1096.3799999999999,0.5706148071289062,0.4279213562011719,0.3764385375976563,2.965881586074829,0.04567260742191205,-0.013056945800794192,0.0601852416992752,-0.023786845839635078,0.008900097214161858,0.023561462402343747,None,None,None,None
cf2,1096.3799999999999,0.5297431640625,-0.5507332153320312,0.59669384765625,1.2090537548065186,0.07583007812506884,0.004580688476567288,0.06710205078130912,-0.031165328619291038,0.0021124685619437443,0.0033061523437499796,None,None,None,None
cf1,1096.3999999999999,0.5715079345703125,0.4276418151855469,0.37730975341796874,2.965881586074829,0.044656372070352536,-0.01397705078126249,0.04356079101566289,-0.02516969163133393,0.009268907072655019,0.02269024658203128,None,None,None,None
cf2,1096.3999999999999,0.531031005859375,-0.5506114501953125,0.5975953369140625,1.2090537548065186,0.06439208984380967,0.006088256835939929,0.04507446289066733,-0.032786100715411354,0.0017440172918602246,0.002404663085937453,None,None,None,None
cf1,1096.4199999999998,0.5722423706054688,0.4274389953613281,0.37775354003906253,2.965881586074829,0.03672180175784976,-0.0101409912109477,0.022189331054709636,-0.026264568330802433,0.009494235556584171,0.022246459960937492,None,None,None,None
cf2,1096.4199999999998,0.5322780761718751,-0.5504002075195312,0.5980493774414063,1.2090537548065186,0.06235351562505884,0.010562133789075615,0.02270202636720908,-0.03428512365264337,0.0012128052674649714,0.0019506225585936843,None,None,None,None
cf1,1096.44,0.5729019165039063,0.4272694396972656,0.3778101806640625,2.9525604248046875,0.03297729492153159,-0.008477783203037085,0.002832031249970024,-0.02721609206829675,0.009662186951779563,0.0221898193359375,None,None,None,None
cf2,1096.44,0.5334378051757812,-0.5501937255859375,0.5981299438476563,1.1199902296066284,0.05798645019470108,0.010324096679578941,0.004028320312456979,-0.03561990635755076,0.0007332700184832055,0.001870056152343702,None,None,None,None
cf1,1096.46,0.5735501708984375,0.42708978271484377,0.3775521850585938,2.9525604248046875,0.03241271972658949,-0.0089828491211001,-0.01289978027344881,-0.02811615652268235,0.00985606699368382,0.02244781494140624,None,None,None,None
cf2,1096.46,0.5344060668945313,-0.54994482421875,0.5979061279296876,1.1199902296066284,0.0484130859375483,0.012445068359384854,-0.011190795898446034,-0.03669579072511524,0.00019822912322907212,0.002093872070312419,None,None,None,None
cf1,1096.48,0.5740912475585938,0.426932861328125,0.3769865112304688,2.870354413986206,0.02705383300783644,-0.00784606933594437,-0.02828369140627581,-0.028844014752729644,0.010031407496427162,0.023013488769531243,None,None,None,None
cf2,1096.48,0.5353207397460937,-0.5496425170898438,0.5974172973632813,1.016263484954834,0.04573364257816344,0.015115356445324782,-0.024441528320334773,-0.037680407852901894,-0.0004182237974401396,0.00258270263671867,None,None,None,None
cf1,1096.5,0.5745167236328125,0.4267950134277344,0.37615240478515627,2.870354413986206,0.021273803710955472,-0.006892395019537252,-0.04170532226566344,-0.029399031893808582,0.010200158363765444,0.023847595214843753,None,None,None,None
cf2,1096.5,0.5360904541015625,-0.5492886352539063,0.5967206420898438,1.016263484954834,0.0384857177734749,0.01769409179689318,-0.034832763671908726,-0.03848378872422066,-0.0011125612356047666,0.003279357910156211,None,None,None,None
cf1,1096.52,0.5748744506835938,0.42670864868164066,0.37506292724609375,2.783418655395508,0.017886352539081166,-0.004318237304691316,-0.054473876953175654,-0.02986787595536915,0.010273483289450894,0.024937072753906275,None,None,None,None
cf2,1096.52,0.5366552124023437,-0.5489592285156251,0.595865478515625,1.0023216009140015,0.028237915039084495,0.016470336914074506,-0.04275817871097767,-0.03905662851402766,-0.0017419163134706939,0.004134521484374987,None,None,None,None
cf1,1096.54,0.575089111328125,0.4265377197265625,0.3738528747558594,2.783418655395508,0.010733032226571728,-0.00854644775391489,-0.06050262451177353,-0.03010547041880657,0.010582948942630803,0.026147125244140645,None,None,None,None
cf2,1096.54,0.5371529541015625,-0.5485113525390625,0.59496533203125,1.0023216009140015,0.024887084960962133,0.022393798828150117,-0.04500732421878969,-0.03954218595609227,-0.0025865830281020744,0.005034667968749962,None,None,None,None
cf1,1096.56,0.5751853637695312,0.42637326049804686,0.372530029296875,2.783418655395508,0.0048126220703147895,-0.008222961425790305,-0.06614227294927853,-0.030180865218639726,0.010914323622814246,0.027469970703125013,None,None,None,None
cf2,1096.56,0.5374854125976563,-0.5480562133789063,0.5940498657226563,1.0023216009140015,0.016622924804702975,0.02275695800782867,-0.04577331542972851,-0.039847219915633086,-0.003437421247464484,0.005950134277343699,None,None,None,None
cf1,1096.58,0.5753045043945313,0.42632000732421876,0.3710059814453125,2.7484803199768066,0.0059570312500088814,-0.0026626586914071174,-0.07620239257819508,-0.03032544091553109,0.010990235020314513,0.02899401855468753,None,None,None,None
cf2,1096.58,0.53765087890625,-0.5475849609375,0.5930275268554688,1.0080126523971558,0.008273315429692982,0.023562622070338105,-0.05111694335942149,-0.039972668556004905,-0.0043201640978027525,0.006972473144531199,None,None,None,None
cf1,1096.6,0.5752539062500001,0.42618341064453125,0.36951589965820314,2.7484803199768066,-0.0025299072265639573,-0.006829833984382078,-0.07450408935553547,-0.030208132521426463,0.011307750151585553,0.030484100341796883,None,None,None,None
cf2,1096.6,0.5376552734375,-0.547097900390625,0.5920792236328125,1.0080126523971558,0.00021972656250055512,0.024353027343770817,-0.047415161132856425,-0.039924799376083744,-0.0052420959802971226,0.007920776367187465,None,None,None,None
cf1,1096.62,0.5751220092773438,0.42604010009765625,0.3679576416015625,2.727646827697754,-0.0065948486328186754,-0.007165527343756384,-0.07791290283210164,-0.02997434700160631,0.011669075589143756,0.0320423583984375,None,None,None,None
cf2,1096.62,0.5374520874023437,-0.5466298828125,0.5912064208984376,0.985374927520752,-0.010159301757820895,0.02340087890627026,-0.04364013671878747,-0.03965861139673047,-0.006152587042173838,0.008793579101562421,None,None,None,None
cf1,1096.6399999999999,0.5749530639648438,0.4259603881835938,0.36628897094726565,2.727646827697754,-0.008447265625007772,-0.003985595703127359,-0.08343353271491977,-0.02970932709387283,0.01190626364962742,0.033711029052734376,None,None,None,None
cf2,1096.6399999999999,0.5371536865234375,-0.5461012573242188,0.5904063720703125,0.985374927520752,-0.014920043945323671,0.026431274414086717,-0.040002441406286914,-0.03927268874732651,-0.007196658654712803,0.009593627929687432,None,None,None,None
cf1,1096.6599999999999,0.574644287109375,0.4258113403320313,0.3648370666503906,2.727646827697754,-0.015438842773454916,-0.0074523925781318,-0.07259521484381745,-0.029215480544434166,0.012351588858885801,0.035162933349609404,None,None,None,None
cf2,1096.6599999999999,0.536679443359375,-0.5455853881835938,0.5896870727539063,0.985374927520752,-0.0237121582031479,0.025793457031271373,-0.035964965820344766,-0.03868729959329599,-0.008256628310491995,0.010312927246093673,None,None,None,None
cf1,1096.68,0.5743230590820313,0.4256480712890625,0.3632127380371094,2.708885431289673,-0.01606140136701649,-0.008163452148352672,-0.08121643066321113,-0.02868664576354625,0.012838890120070673,0.036787261962890616,None,None,None,None
cf2,1096.68,0.5360589599609376,-0.5449899291992187,0.5890106811523438,0.98750239610672,-0.031024169921548248,0.02977294921844233,-0.0338195800777723,-0.03790360115192774,-0.009514591334084452,0.010989318847656193,None,None,None,None
cf1,1096.7,0.5739046630859375,0.42557684326171874,0.36175271606445314,2.708885431289673,-0.020919799804710745,-0.0035614013671918716,-0.07300109863287974,-0.028039951664117015,0.013171569019247903,0.03824728393554688,None,None,None,None
cf2,1096.7,0.5354488525390625,-0.5444689331054687,0.588425048828125,0.98750239610672,-0.03050537109378081,0.02604980468752387,-0.029281616210967684,-0.0371131048493227,-0.010650693251079363,0.011574951171875014,None,None,None,None
cf1,1096.72,0.573398193359375,0.42532379150390626,0.36035321044921875,2.706010580062866,-0.025323486328144566,-0.012652587890635687,-0.06997528076178297,-0.027158806859562998,0.013954173336523382,0.03964678955078127,None,None,None,None
cf2,1096.72,0.5345867919921875,-0.5439091796875,0.58802197265625,0.9817640781402588,-0.04310302734378858,0.0279876708984638,-0.020153808593766375,-0.0359889431749059,-0.011952183956255346,0.011978027343749975,None,None,None,None
cf1,1096.74,0.5728365478515625,0.42518695068359375,0.35903607177734376,2.706010580062866,-0.028082275390654006,-0.0068420410156318,-0.06585693359380967,-0.026211027706206327,0.014520898162222169,0.040963928222656265,None,None,None,None
cf2,1096.74,0.533664306640625,-0.543368408203125,0.5876547241210938,0.9817640781402588,-0.046124267578165665,0.027038574218770817,-0.01836242675782867,-0.034739526259139744,-0.013272109718457277,0.012345275878906214,None,None,None,None
cf1,1096.76,0.5722713623046876,0.4250826416015625,0.35769473266601565,2.706010580062866,-0.028259277343770817,-0.005215454101566733,-0.06706695556646651,-0.025236814422914432,0.015032820002394202,0.042305267333984375,None,None,None,None
cf2,1096.76,0.5325628051757813,-0.5428604736328125,0.5873800659179688,0.9817640781402588,-0.05507507324223906,0.025396728515648455,-0.01373291015626249,-0.033207420047246826,-0.014631172916999672,0.012619934082031214,None,None,None,None
cf1,1096.78,0.5716104736328125,0.4248957214355469,0.3565566101074219,2.7225146293640137,-0.03304443359378414,-0.00934600830078975,-0.05690612792973906,-0.02401308558383754,0.015793985031590657,0.04344338989257812,None,None,None,None
cf2,1096.78,0.5314774169921875,-0.5423764038085938,0.5871690063476562,0.948655903339386,-0.05426940917973517,0.024203491210961024,-0.010552978515636241,-0.03161014098951709,-0.01598597257260733,0.012830993652343747,None,None,None,None
cf1,1096.8,0.5708806762695312,0.42472256469726566,0.35554736328125003,2.7225146293640137,-0.03648986816409671,-0.008657836914068953,-0.05046234130863951,-0.022608856005870044,0.016582243213706993,0.044452636718749994,None,None,None,None
cf2,1096.8,0.5302554321289062,-0.5419205322265626,0.5870103759765625,0.948655903339386,-0.06109924316412002,0.02279357910158061,-0.007931518554695201,-0.02972930076120961,-0.017390106795796847,0.012989624023437507,None,None,None,None
cf1,1096.82,0.5701566772460938,0.4245634460449219,0.3545570983886719,2.736457347869873,-0.036199951171905394,-0.007955932617194647,-0.04951324462895208,-0.021144667993356,0.017354929566182654,0.045442901611328135,None,None,None,None
cf2,1096.82,0.5289730834960937,-0.5414198608398437,0.5868947753906251,0.9177595376968384,-0.06411743164068398,0.025033569335964352,-0.0057800292968754165,-0.02759833304564473,-0.01895643909761882,0.01310522460937491,None,None,None,None
cf1,1096.84,0.5694453735351562,0.4244377136230469,0.35368511962890625,2.736457347869873,-0.035565185546908726,-0.006286621093756939,-0.043598937988321394,-0.019643402410168796,0.018060943116533425,0.04631488037109377,None,None,None,None
cf2,1096.84,0.5277041625976563,-0.5409703369140625,0.5868800659179687,0.9177595376968384,-0.06344604492192982,0.022476196289082276,-0.0007354736328186757,-0.02534979179522015,-0.020455632265207028,0.01311993408203127,None,None,None,None
cf1,1096.86,0.5686985473632813,0.4241972045898438,0.3528528442382813,2.736457347869873,-0.037341308593780806,-0.012025451660166277,-0.04161376953128636,-0.017907079758431397,0.019040857870504132,0.04714715576171874,None,None,None,None
cf2,1096.86,0.5262257690429688,-0.54055224609375,0.5868233642578126,0.9177595376968384,-0.07391967773444147,0.020904541015645123,-0.002835083007809794,-0.022570295723224665,-0.02203038701255527,0.013176635742187415,None,None,None,None
cf1,1096.8799999999999,0.5679176025390625,0.42394534301757814,0.3521660461425781,2.7155115604400635,-0.039047241210973235,-0.012593078613293635,-0.034339904785189036,-0.015985707141701003,0.020052639597493666,0.047833953857421896,None,None,None,None
cf2,1096.8799999999999,0.524847900390625,-0.540201416015625,0.5867448730468751,0.921161413192749,-0.06889343261725238,0.01754150390626471,-0.003924560546878747,-0.019782786337846598,-0.02342724513696596,0.013255126953124918,None,None,None,None
cf1,1096.8999999999999,0.5671373291015626,0.42379666137695315,0.35157867431640627,2.7155115604400635,-0.03901367187503442,-0.0074340820312558285,-0.02936859130861953,-0.014022973250265488,0.020828335051420444,0.04842132568359375,None,None,None,None
cf2,1096.8999999999999,0.523514404296875,-0.5398248291015625,0.5866829223632812,0.921161413192749,-0.06667480468756051,0.018829345703142347,-0.003097534179694092,-0.016861192163632355,-0.024807314632698998,0.013317077636718744,None,None,None,None
cf1,1096.9199999999998,0.56633642578125,0.4235853271484375,0.351060302734375,2.683908700942993,-0.04004516601566511,-0.010566711425792526,-0.02591857910158727,-0.011867562410579943,0.021699560089102853,0.048939697265625026,None,None,None,None
cf2,1096.9199999999998,0.5220354614257813,-0.5395338134765625,0.5866475830078125,0.921161413192749,-0.07394714355475404,0.014550781250013323,-0.0017669677734382632,-0.013464251958431888,-0.02603607357824602,0.013352416992187477,None,None,None,None
cf1,1096.94,0.5655536499023438,0.42336221313476563,0.35063571166992186,2.683908700942993,-0.03913879394489981,-0.011155700683476604,-0.021229553222434916,-0.009664417783373342,0.0225170851235147,0.049364288330078165,None,None,None,None
cf2,1096.94,0.5206354370117188,-0.5392423706054688,0.5865889282226563,0.9336504936218262,-0.07000122070239316,0.014572143554533977,-0.002932739257779783,-0.010050849675671538,-0.02709591322542826,0.013411071777343686,None,None,None,None
cf1,1096.96,0.5648193359375,0.4231605224609375,0.350313720703125,2.683908700942993,-0.03671569824222351,-0.010084533691415999,-0.01609954833985759,-0.007541733377993459,0.023194594095204628,0.049686279296875024,None,None,None,None
cf2,1096.96,0.5192406005859375,-0.5389896240234375,0.586497314453125,0.9336504936218262,-0.06974182128912891,0.01263732910157284,-0.004580688476567288,-0.006530321882921137,-0.02792411402280781,0.013502685546874948,None,None,None,None
cf1,1096.98,0.5641115112304688,0.4229650573730469,0.34995346069335936,2.6197898387908936,-0.035391235351593935,-0.009773254394538362,-0.018013000488298077,-0.005460797173129597,0.023769900780894835,0.05004653930664066,None,None,None,None
cf2,1096.98,0.5178291015625001,-0.5388427124023437,0.5864260864257813,0.9144127368927002,-0.07057495117193426,0.007345581054697422,-0.003561401367189096,-0.0029114252965216896,-0.02840541707091658,0.013573913574218666,None,None,None,None
cf1,1097.0,0.5633662719726562,0.4227488098144531,0.34958834838867187,2.6197898387908936,-0.037261962890661776,-0.010812377929699088,-0.018255615234391516,-0.0032557122361098556,0.024301604624305046,0.050411651611328157,None,None,None,None
cf2,1097.0,0.5164798583984375,-0.5386842041015625,0.5862918090820313,0.9144127368927002,-0.0674621582031912,0.007925415039068953,-0.006713867187508327,0.0005682701105139484,-0.028692229231560687,0.01370819091796871,None,None,None,None
cf1,1097.02,0.5626514892578125,0.42251434326171877,0.34938095092773436,2.5099592208862305,-0.03573913574221796,-0.011723327636728013,-0.010369873046884854,-0.0011527094670246221,0.024765101333259973,0.050619049072265665,None,None,None,None
cf2,1097.02,0.5152120361328125,-0.538567138671875,0.586177978515625,0.8677892684936523,-0.06339111328130467,0.0058532714843793025,-0.00569152832031701,0.00379335923410583,-0.028742918123725234,0.013822021484374947,None,None,None,None
cf1,1097.04,0.5620045776367187,0.4223652038574219,0.34914642333984375,2.5099592208862305,-0.03234558105471741,-0.007456970214851487,-0.011726379394541138,0.0007189335110092589,0.025010536710805154,0.050853576660156274,None,None,None,None
cf2,1097.04,0.51391162109375,-0.5385958862304687,0.5861260375976562,0.8677892684936523,-0.06502075195318564,-0.0014373779296874307,-0.0025970458984415938,0.007045758574667394,-0.02842508241495149,0.013873962402343731,None,None,None,None
cf1,1097.06,0.5613940429687501,0.4221813659667969,0.34898675537109375,2.5099592208862305,-0.030526733398461577,-0.009191894531257494,-0.007983398437507217,0.0024493562226221943,0.02525245770242327,0.051013244628906274,None,None,None,None
cf2,1097.06,0.5127249145507813,-0.5385938720703125,0.58586083984375,0.8677892684936523,-0.05933532714848933,0.00010070800781090405,-0.013259887695322561,0.009909218839750438,-0.028050615844618768,0.014139160156249941,None,None,None,None
cf1,1097.08,0.5607534790039063,0.4219930419921875,0.3488317565917969,2.387169361114502,-0.03202819824221907,-0.009416198730477736,-0.007749938964850376,0.004216286969863555,0.025444163541658498,0.05116824340820314,None,None,None,None
cf2,1097.08,0.5116291809082031,-0.53862744140625,0.5857720947265626,0.8559268116950989,-0.05478668212895985,-0.0016784667968743061,-0.004437255859378192,0.012459454175317079,-0.027567441063236494,0.014227905273437425,None,None,None,None
cf1,1097.1,0.5602236938476562,0.4218194274902344,0.3487177124023438,2.387169361114502,-0.02648925781252498,-0.008680725097664611,-0.00570220947266017,0.005630310420204467,0.025593727869455594,0.05128228759765624,None,None,None,None
cf2,1097.1,0.5105450439453125,-0.5387261962890625,0.5856085205078125,0.8559268116950989,-0.05420684814457722,-0.00493774414063069,-0.008178710937508327,0.014901571586737997,-0.026925187681768898,0.014391479492187442,None,None,None,None
cf1,1097.12,0.5597485961914063,0.4216386413574219,0.34855535888671874,2.2592310905456543,-0.02375488281252054,-0.0090393066406318,-0.008117675781259714,0.006853910263402434,0.025742817466837903,0.051444641113281286,None,None,None,None
cf2,1097.12,0.5095634460449219,-0.5388280639648437,0.5853927612304688,0.8531129360198975,-0.04907989501957722,-0.005093383789066733,-0.010787963867196868,0.017020464001555685,-0.02628139013746945,0.014607238769531183,None,None,None,None
cf1,1097.1399999999999,0.5593424682617187,0.42150933837890625,0.3484323425292969,2.2592310905456543,-0.020306396484394845,-0.00646514892578864,-0.006150817871097879,0.007878770482370233,0.025814509239672972,0.05156765747070313,None,None,None,None
cf2,1097.1399999999999,0.5086481933593751,-0.5390009155273437,0.5852285766601563,0.8531129360198975,-0.04576263427738257,-0.008642578125008881,-0.00820922851563402,0.01894991694369633,-0.02552824710080333,0.014771423339843714,None,None,None,None
cf1,1097.1599999999999,0.5589340820312501,0.42134368896484375,0.34835107421875,2.2592310905456543,-0.020419311523452697,-0.008282470703132355,-0.004063415527348156,0.00887002721561837,0.025930117430278725,0.05164892578125002,None,None,None,None
cf2,1097.1599999999999,0.5078070373535156,-0.539237548828125,0.5851477661132812,0.8531129360198975,-0.042057800293009935,-0.011831665039074504,-0.004040527343755274,0.020691527565397435,-0.024687666109982746,0.014852233886718746,None,None,None,None
cf1,1097.18,0.5585839233398437,0.42122171020507815,0.34831588745117187,2.14431095123291,-0.017507934570132402,-0.006098937988216527,-0.0017593383788882262,0.009705669320548968,0.025988659014203754,0.051684112548828154,None,None,None,None
cf2,1097.18,0.5071464538574219,-0.5394819946289062,0.5849750366210937,0.8613466620445251,-0.03302917480434302,-0.012222290038932222,-0.008636474609284447,0.022041635133083944,-0.02391636707943308,0.015024963378906242,None,None,None,None
cf1,1097.2,0.5582788696289063,0.4211151123046875,0.3483069152832031,2.14431095123291,-0.01525268554688763,-0.005329895019536697,-0.00044860839843770815,0.010417823169309781,0.026034321162806025,0.0516930847167969,None,None,None,None
cf2,1097.2,0.506462158203125,-0.5397634887695313,0.5848478393554688,0.8613466620445251,-0.03421478271487314,-0.01407470703126582,-0.006359863281252498,0.023409174473712116,-0.023059054840950933,0.015152160644531176,None,None,None,None
cf1,1097.22,0.55801611328125,0.421012451171875,0.348335205078125,2.037433624267578,-0.013137817382825337,-0.005133056640629024,0.001414489746094548,0.01101505290776315,0.026087005783311933,0.051664794921875035,None,None,None,None
cf2,1097.22,0.5058556213378906,-0.5400845336914063,0.5847507934570313,0.8339657187461853,-0.030326843261746332,-0.016052246093765266,-0.004852294921879857,0.024619179770582804,-0.02216592815269736,0.015249206542968685,None,None,None,None
cf1,1097.24,0.5577957153320313,0.42094619750976564,0.3483672790527344,2.037433624267578,-0.01101989746094437,-0.0033126831054721847,0.0016036987304721847,0.011516365776051479,0.02609714618045726,0.05163272094726562,None,None,None,None
cf2,1097.24,0.5053387145996094,-0.54043359375,0.5846871948242187,0.8339657187461853,-0.025845336914083385,-0.017453002929700753,-0.0031799316406318,0.025658804561280835,-0.021262710125703917,0.015312805175781263,None,None,None,None
cf1,1097.26,0.557623779296875,0.4208840026855469,0.34843255615234375,2.037433624267578,-0.008596801757823116,-0.003109741210941039,0.0032638549804705195,0.01189786284587543,0.026120329554309245,0.05156744384765627,None,None,None,None
cf2,1097.26,0.50497314453125,-0.5407703247070312,0.58465625,0.8339657187461853,-0.01827850341798995,-0.01683654785157728,-0.0015472412109377083,0.026421704016173074,-0.020453791739731542,0.01534374999999999,None,None,None,None
cf1,1097.28,0.5575277709960937,0.4208790588378906,0.3485373840332031,1.964279055595398,-0.004800415039067843,-0.0002471923828131245,0.00524139404297274,0.012122353334562031,0.026085257423677507,0.05146261596679691,None,None,None,None
cf2,1097.28,0.5046902160644532,-0.5411521606445313,0.5846871948242187,0.8045629858970642,-0.014146423339852042,-0.019091796875021095,0.0015472412109377083,0.02706116458803033,-0.0195950365220715,0.015312805175781263,None,None,None,None
cf1,1097.3,0.5574341430664063,0.42084341430664063,0.3485936889648438,1.964279055595398,-0.004681396484378192,-0.0017822265625011102,0.002815246582035587,0.012326216193910392,0.02609987155454103,0.05140631103515625,None,None,None,None
cf2,1097.3,0.504450927734375,-0.5415946044921875,0.5846866455078125,0.8045629858970642,-0.011964416503917665,-0.022122192382831998,-2.746582031256939e-05,0.02765035197868732,-0.018631905297095595,0.015313354492187514,None,None,None,None
cf1,1097.32,0.5573851318359375,0.42083984375,0.34871734619140626,1.8810713291168213,-0.0024505615234393734,-0.00017852783203170102,0.006182861328130135,0.012439287350998623,0.026083287131628368,0.05128265380859376,None,None,None,None
cf2,1097.32,0.5042965393066406,-0.5420321044921875,0.5846747436523437,0.8045629858970642,-0.007719421386727458,-0.021875000000018872,-0.0005950927734371531,0.02809659643150208,-0.017706007532995578,0.015325256347656246,None,None,None,None
cf1,1097.34,0.557398193359375,0.4208519287109375,0.3488009033203125,1.8810713291168213,0.0006530761718754163,0.0006042480468765266,0.004177856445315345,0.01241425456807459,0.02606991898951457,0.05119909667968753,None,None,None,None
cf2,1097.34,0.5042232971191406,-0.5425020751953125,0.5846925659179688,0.8484631180763245,-0.003662109375005551,-0.02349853515626804,0.0008911132812547184,0.028428162439773186,-0.01673905360243832,0.015307434082031168,None,None,None,None
cf1,1097.36,0.557441162109375,0.42085531616210936,0.3489341735839844,1.8810713291168213,0.0021484375000011104,0.00016937255859232752,0.006663513183600099,0.012315163950404755,0.026084044167372325,0.05106582641601565,None,None,None,None
cf2,1097.36,0.5041818237304687,-0.54293896484375,0.5847237548828125,0.8484631180763245,-0.0020736694335962134,-0.02184448242189873,0.001559448242184655,0.028690325867581492,-0.015836230699756794,0.015276245117187504,None,None,None,None
cf1,1097.3799999999999,0.557497314453125,0.420867919921875,0.34903707885742186,1.828647255897522,0.0028076171875027756,0.0006301879882825337,0.005145263671878747,0.012189017888462102,0.026089318399241623,0.050962921142578166,None,None,None,None
cf2,1097.3799999999999,0.5041843566894532,-0.5433340454101563,0.5847741088867188,0.8787739872932434,0.00012664794922246232,-0.01975402832033033,0.0025177001953170103,0.028863283376212974,-0.015023868732816146,0.01522589111328121,None,None,None,None
cf1,1097.3999999999999,0.5576068115234375,0.4209261169433594,0.34915057373046876,1.828647255897522,0.00547485351562958,0.0029098510742230172,0.005674743652350376,0.011956818766756038,0.026045570212640215,0.05084942626953126,None,None,None,None
cf2,1097.3999999999999,0.5042799377441406,-0.5437652587890626,0.58482470703125,0.8787739872932434,0.004779052734375971,-0.021560668945333664,0.0025299072265639573,0.028911741749416773,-0.01416118652642567,0.015175292968749976,None,None,None,None
cf1,1097.4199999999998,0.5577450561523437,0.42096270751953124,0.3492771301269531,1.7568780183792114,0.00691223144531701,0.0018295288085934378,0.006327819824223017,0.011644572724517991,0.026048580391618614,0.050722869873046916,None,None,None,None
cf2,1097.4199999999998,0.5044605712890625,-0.5442099609375,0.5848605346679687,0.8675546050071716,0.00903167724610454,-0.02223510742188985,0.0017913818359377083,0.02883756625386963,-0.013285610150706673,0.015139465332031254,None,None,None,None
cf1,1097.44,0.5579428100585938,0.4210387268066406,0.3494366455078125,1.7568780183792114,0.009887695312401468,0.0038009643554289727,0.007975769042886507,0.011203413014927164,0.02601370075845637,0.05056335449218752,None,None,None,None
cf2,1097.44,0.5047024230957031,-0.544659423828125,0.58491015625,0.8675546050071716,0.012092590331903661,-0.02247314453101921,0.0024810791015368607,0.02867078664466174,-0.012401020007217729,0.015089843749999998,None,None,None,None
cf1,1097.46,0.5581358032226562,0.4211070251464844,0.34962200927734377,1.7568780183792114,0.009649658203129024,0.003414916992192427,0.009268188476571728,0.010764517167147165,0.025987368838587065,0.05037799072265625,None,None,None,None
cf2,1097.46,0.5049200439453125,-0.5450783081054688,0.5849422607421875,0.8675546050071716,0.010881042480480512,-0.020944213867204638,0.0016052246093759715,0.028520537091558096,-0.011549828267158706,0.015057739257812508,None,None,None,None
cf1,1097.48,0.5583601684570313,0.42118670654296875,0.34974652099609377,1.7252165079116821,0.011218261718764156,0.003984069824220797,0.006225585937505551,0.010247142380820404,0.02595402004300829,0.050253479003906254,None,None,None,None
cf2,1097.48,0.5052180480957031,-0.5455095825195313,0.58499951171875,0.9048951268196106,0.014900207519543913,-0.02156372070314679,0.0028625488281279142,0.028250582659559462,-0.010676378199310773,0.015000488281250002,None,None,None,None
cf1,1097.5,0.5585971069335938,0.42129858398437503,0.34989105224609374,1.7252165079116821,0.011846923828134575,0.005593872070319231,0.007226562500004996,0.009703210076860331,0.025871772119883982,0.050108947753906286,None,None,None,None
cf2,1097.5,0.5055483093261719,-0.5459321899414062,0.5850262451171875,0.9048951268196106,0.016513061523452697,-0.021130371093766375,0.0013366699218765265,0.02792076301637024,-0.009806200488374953,0.014973754882812496,None,None,None,None
cf1,1097.52,0.5588037109375,0.4214031982421875,0.3499869689941406,1.7059903144836426,0.010330200195322561,0.00523071289062958,0.004795837402348156,0.009223700493574748,0.02578615973338622,0.05001303100585941,None,None,None,None
cf2,1097.52,0.5059201660156251,-0.5462828369140625,0.5850716552734375,0.9203904867172241,0.01859283447267516,-0.017532348632830888,0.002270507812503886,0.027493167837682974,-0.009094865002143536,0.01492834472656246,None,None,None,None
cf1,1097.54,0.559057861328125,0.42151574707031253,0.35011203002929686,1.7059903144836426,0.012707519531258048,0.005627441406255274,0.006253051757818121,0.00861725755023051,0.025702855961753805,0.04988796997070316,None,None,None,None
cf2,1097.54,0.5063177185058594,-0.5466178588867188,0.5851177368164062,0.9203904867172241,0.01987762451173412,-0.016751098632826446,0.002304077148437153,0.027010243372826953,-0.00840571659712246,0.014882263183593758,None,None,None,None
cf1,1097.56,0.5593150024414063,0.42164492797851566,0.35025778198242186,1.7059903144836426,0.012857055664078946,0.006459045410162391,0.007287597656256384,0.00799746241269042,0.025589604505993607,0.049742218017578166,None,None,None,None
cf2,1097.56,0.5067406921386719,-0.5469859619140625,0.5851831665039062,0.9203904867172241,0.021148681640645123,-0.01840515136720131,0.0032714843750033308,0.026485869725418883,-0.0076137167813439205,0.014816833496093751,None,None,None,None
cf1,1097.58,0.5595714721679688,0.4217362365722656,0.3503870544433594,1.7141941785812378,0.012823486328134575,0.004565429687501665,0.006463623046882078,0.007354445164742167,0.025531489977372535,0.04961294555664064,None,None,None,None
cf2,1097.58,0.5071581115722656,-0.5473150024414063,0.585302490234375,0.9065883755683899,0.020870971679706304,-0.01645202636720686,0.005966186523442704,0.02594138875708463,-0.006888922396756741,0.014697509765625005,None,None,None,None
cf1,1097.6,0.5598517456054688,0.4218578796386719,0.35050006103515624,1.7141941785812378,0.014013671875014433,0.006082153320319231,0.005650329589848156,0.00664590473654819,0.025426807394380323,0.04949993896484378,None,None,None,None
cf2,1097.6,0.5075633850097656,-0.547583984375,0.5853855590820313,0.9065883755683899,0.020263671875016653,-0.013449096679697422,0.0041534423828186754,0.025381705076573727,-0.0062920851944710515,0.014614440917968707,None,None,None,None
cf1,1097.62,0.5601652221679687,0.4219927673339844,0.35067507934570313,1.7000222206115723,0.015673828125009993,0.006744384765631245,0.008750915527352597,0.005836236352811725,0.02530294762947702,0.04932492065429689,None,None,None,None
cf2,1097.62,0.5080248413085937,-0.5478317260742188,0.5855094604492188,0.9438156485557556,0.02307281494142599,-0.01238708496095214,0.006195068359382633,0.024708333610095667,-0.005745404566641232,0.014490539550781167,None,None,None,None
cf1,1097.6399999999999,0.5604402465820313,0.422137451171875,0.35078204345703123,1.7000222206115723,0.013751220703141238,0.007234191894537808,0.005348205566409893,0.00511776399834654,0.025143856930773315,0.04921795654296879,None,None,None,None
cf2,1097.6399999999999,0.5085113525390625,-0.5480627441406251,0.585617431640625,0.9438156485557556,0.0243255615234638,-0.011550903320322561,0.0053985595703125696,0.02396696943820833,-0.005228010556695766,0.014382568359375014,None,None,None,None
cf1,1097.6599999999999,0.5606859130859375,0.4222638854980469,0.3509056396484375,1.7000222206115723,0.012283325195322561,0.006321716308599544,0.006179809570319786,0.004462460353646101,0.02499889567524486,0.049094360351562505,None,None,None,None
cf2,1097.6599999999999,0.5089543151855469,-0.5482574462890625,0.5857010498046875,0.9438156485557556,0.022148132324238005,-0.009735107421879857,0.004180908203131245,0.023265576466461768,-0.0047804585406637035,0.014298950195312465,None,None,None,None
cf1,1097.68,0.5609575805664062,0.4223706970214844,0.35101333618164066,1.6553090810775757,0.01358337402329272,0.005340576171819142,0.005384826660100617,0.0037175340931856512,0.02488292702002781,0.048986663818359366,None,None,None,None
cf2,1097.68,0.5093837890625,-0.5484046630859375,0.5858067016601562,0.919571578502655,0.02147369384743214,-0.007360839843673811,0.005282592773381538,0.02255284937844272,-0.004452252460604669,0.01419329833984373,None,None,None,None
cf1,1097.7,0.5612088623046875,0.4224879150390625,0.351171875,1.6553090810775757,0.012564086914074504,0.005860900878912114,0.007926940917975515,0.0030203484485037744,0.024737336268196804,0.048828125,None,None,None,None
cf2,1097.7,0.5098392333984375,-0.5484852294921875,0.5858922119140625,0.919571578502655,0.02277221679689429,-0.0040283203125027756,0.0042755126953159,0.02175203684943831,-0.004323783989703082,0.01410778808593749,None,None,None,None
cf1,1097.72,0.5615022583007813,0.4225989074707031,0.3512611083984375,1.5993579626083374,0.014669799804702973,0.005549621582034476,0.004461669921877636,0.0021887451472635223,0.024597711342285052,0.04873889160156253,None,None,None,None
cf2,1097.72,0.5103148193359375,-0.5485755615234376,0.5860130615234375,0.9154931902885437,0.023779296875019985,-0.004516601562508327,0.006042480468754163,0.020886503983519954,-0.004165483256626351,0.013986938476562516,None,None,None,None
cf1,1097.74,0.5617489624023437,0.4226922302246094,0.35137139892578123,1.5993579626083374,0.012335205078134575,0.004666137695318121,0.005514526367191871,0.001479370182659357,0.024470280419896084,0.04862860107421879,None,None,None,None
cf2,1097.74,0.5108204650878906,-0.5486376342773438,0.5861510009765625,0.9154931902885437,0.02528228759767849,-0.00310363769531479,0.006896972656256939,0.01991787901927335,-0.004103624921845017,0.013848999023437503,None,None,None,None
cf1,1097.76,0.5620428466796875,0.42282058715820314,0.35150689697265625,1.5993579626083374,0.014694213867202419,0.006417846679693537,0.006774902343756939,0.0006235814266777267,0.024277629361735643,0.048493103027343776,None,None,None,None
cf2,1097.76,0.511246826171875,-0.5486741333007813,0.5863077392578125,0.9154931902885437,0.021318054199240224,-0.0018249511718765265,0.007836914062510547,0.019060719052300907,-0.004106455424568513,0.013692260742187434,None,None,None,None
cf1,1097.78,0.5622898559570313,0.4229355163574219,0.35166082763671874,1.538425087928772,0.012350463867200198,0.005746459960942149,0.0076965332031318,-0.00010583678589932257,0.024092457595600993,0.04833917236328128,None,None,None,None
cf2,1097.78,0.5116749267578126,-0.5486906127929687,0.586511962890625,0.9175629615783691,0.02140502929689762,-0.0008239746093715306,0.010211181640632911,0.018155737234106475,-0.004185121548785137,0.013488037109374962,None,None,None,None
cf1,1097.8,0.5624903564453125,0.42302618408203124,0.35176898193359374,1.538425087928772,0.010025024414071174,0.004533386230472185,0.005407714843754718,None,None,None,20,20,15,37909
cf2,1097.8,0.5120493164062501,-0.548672607421875,0.5866802978515625,0.9175629615783691,0.01871948242189207,0.0009002685546885408,0.008416748046882078,None,None,None,-20,-20,9,37858
cf1,1097.82,0.5626765747070313,0.4231351013183594,0.35190084838867186,1.5032763481140137,0.00931091308594437,0.005445861816413223,0.006593322753912114,None,None,None,20,20,15,37885
cf2,1097.82,0.5124215698242187,-0.5486205444335938,0.5868215942382813,0.8972457051277161,0.018612670898449365,0.0026031494140622917,0.00706481933594548,None,None,None,-20,-20,9,37875
cf1,1097.84,0.562929931640625,0.4231493835449219,0.3519876403808594,1.5032763481140137,0.012667846679698534,0.0007141113281240285,0.004339599609380412,None,None,None,20,20,15,37919
cf2,1097.84,0.5126634521484376,-0.5484451904296875,0.5869766235351562,0.8972457051277161,0.012094116210953252,0.008767700195319231,0.007751464843754163,None,None,None,-20,-20,9,37859
cf1,1097.86,0.5633940429687501,0.4228956604003906,0.35207391357421874,1.5032763481140137,0.023205566406274702,-0.012686157226574504,0.0043136596679716295,None,None,None,20,20,15,37916
cf2,1097.86,0.5125448608398437,-0.5478988647460937,0.5871553955078125,0.8972457051277161,-0.005929565429696313,0.027316284179715187,0.008938598632820895,None,None,None,-20,-20,9,37834
cf1,1097.8799999999999,0.5641952514648437,0.42235955810546877,0.3519387512207031,1.4582430124282837,0.04006042480471963,-0.026805114746116753,-0.006758117675787529,None,None,None,20,20,15,38101
cf2,1097.8799999999999,0.5119986267089844,-0.5469586181640625,0.5874136352539062,0.7923765182495117,-0.02731170654298995,0.047012329101601705,0.012911987304698534,None,None,None,-20,-20,8,37760
cf1,1097.8999999999999,0.565487060546875,0.4214319152832031,0.3515577697753906,1.4582430124282837,0.06459045410162391,-0.04638214111332472,-0.019049072265642904,None,None,None,19.978089564680708,19.011123619277278,15,38313
cf2,1097.8999999999999,0.5110159912109375,-0.5455208740234375,0.5876279296875,0.7923765182495117,-0.049131774902389236,0.07188720703131689,0.010714721679698534,None,None,None,-19.978089564680708,-19.011123619277278,8,37789
cf1,1097.9199999999998,0.5671978149414063,0.4200881042480469,0.3509522399902344,1.5894118547439575,0.08553771972664168,-0.06719055175787307,-0.030276489257838105,None,None,None,17.280655741879468,16.09426871263435,16,38515
cf2,1097.9199999999998,0.5094986877441406,-0.54362255859375,0.587706787109375,1.3119598627090454,-0.07586517333991422,0.09491577148446367,0.0039428710937519425,None,None,None,-17.280655741879468,-16.09426871263435,13,37896
cf1,1097.94,0.5695338745117188,0.4182020263671875,0.35016378784179686,1.5894118547439575,0.1168029785144016,-0.09430389404198224,-0.039422607421464424,None,None,None,13.943185328022725,12.466448159276235,16,38689
cf2,1097.94,0.507428466796875,-0.5411879272460938,0.587779296875,1.3119598627090454,-0.10351104736219789,0.12173156738153688,0.003625488281212391,None,None,None,-13.943185328022725,-12.466448159276235,13,37899
cf1,1097.96,0.5724451293945313,0.4158428649902344,0.3492434387207031,1.5894118547439575,0.14556274414075837,-0.11795806884776398,-0.04601745605472851,None,None,None,10.475697837070117,8.588222598053168,16,38827
cf2,1097.96,0.504692626953125,-0.5381244506835937,0.5878811035156251,1.3119598627090454,-0.136791992187626,0.1531738281251421,0.00509033203125916,None,None,None,-10.475697837070117,-8.588222598053168,13,37872
cf1,1097.98,0.5760767822265626,0.41284167480468753,0.3481931762695313,1.7795171737670898,0.18158264160172827,-0.1500595092774786,-0.05251312255864007,None,None,None,6.097555758862959,4.41552037038106,18,38967
cf2,1097.98,0.5013599243164063,-0.53431103515625,0.5878861083984375,1.3480443954467773,-0.16663513183608647,0.19067077636735896,0.00025024414062069786,None,None,None,-6.097555758862959,-4.41552037038106,13,37950
cf1,1098.0,0.5804323120117187,0.4092023010253906,0.3468341979980469,1.7795171737670898,0.2177764892580074,-0.1819686889650108,-0.06794891357428186,None,None,None,1.6623102392691953,-0.3681509119085272,18,39263
cf2,1098.0,0.4972505798339844,-0.5297515869140625,0.5878309936523438,1.3480443954467773,-0.20546722412128163,0.22797241210958025,-0.00275573730468521,None,None,None,-1.6623102392691953,0.3681509119085272,13,38000
cf1,1098.02,0.5854910278320312,0.40484014892578124,0.34532205200195315,1.7795171737670898,0.25293579101585384,-0.21810760498066759,-0.07560729980475515,None,None,None,-3.1702429037403093,-5.336066383134824,18,39438
cf2,1098.02,0.4923102722167969,-0.524421875,0.5877564697265625,1.3480443954467773,-0.24701538085959968,0.2664855957033677,-0.0037261962890700632,None,None,None,3.1702429037403093,5.336066383134824,13,38018
cf1,1098.04,0.5911817016601563,0.3998149108886719,0.34356793212890624,0.32954102754592896,0.2845336914065112,-0.25126190185569647,-0.08770599365242532,None,None,None,-7.883238666989197,-9.775861573696938,3,39692
cf2,1098.04,0.4866785888671875,-0.5183323974609375,0.5876036987304688,0.05582016706466675,-0.28158416748072584,0.3044738769534033,-0.007638549804690762,None,None,None,7.883238666989197,9.775861573696938,1,38087
cf1,1098.06,0.5975336303710937,0.3942276916503906,0.3415393981933594,0.32954102754592896,0.317596435547163,-0.2793609619143171,-0.10142669677743531,None,None,None,-11.773077953883687,-14.147371483578375,3,39983
cf2,1098.06,0.48043414306640625,-0.511691650390625,0.5874434204101563,0.05582016706466675,-0.31222229003934704,0.332037353515926,-0.008013916015632911,None,None,None,11.773077953883687,14.147371483578375,1,38098
