Crazyflie name,QTM packet timestamp (s),x (m),y (m),z (m),yaw (째),vx (m/s),vy (m/s),vz (m/s),vx_c (m/s),vy_c (m/s),vz_c (m/s),roll_c (째),pitch_c (째),yaw_rate_c (째/s),thrust_c (PWM)
cf1,930.78,0.5474357299804687,0.4563022155761719,0.014079384803771973,0.007824044674634933,-0.0006134033203159001,-9.155273436597943e-06,0.0005703449249272446,None,None,None,None,None,None,None
cf1,930.8,0.547434326171875,0.45628244018554687,0.014064720153808594,0.007515824865549803,-7.019042968521016e-05,-0.000988769531252498,-0.0007332324981696316,None,None,None,None,None,None,None
cf1,930.8199999999999,0.5474326171875,0.4563116455078125,0.01405630874633789,0.007515824865549803,-8.544921875083266e-05,0.0014602661132830889,-0.0004205703735355249,None,None,None,None,None,None,None
cf1,930.8399999999999,0.547454833984375,0.45633419799804686,0.014060057640075684,0.010061345994472504,0.0011108398437497224,0.0011276245117191317,0.00018744468688984252,None,None,None,None,None,None,None
cf1,930.86,0.5474357299804687,0.456306396484375,0.014084338188171387,0.010061345994472504,-0.00095520019530825,-0.0013900756835872013,0.0012140274047793178,None,None,None,None,None,None,None
cf1,930.88,0.5474117431640625,0.4563014526367188,0.014174906730651856,0.010061345994472504,-0.0011993408203136795,-0.00024719238281034893,0.004528427124027592,None,None,None,None,None,None,None
cf1,930.9,0.5474708862304688,0.4562914733886719,0.01427449131011963,0.017081724479794502,0.0029571533203181207,-0.0004989624023459358,0.004979228973393223,None,None,None,None,None,None,None
cf1,930.92,0.5474493408203125,0.4562648620605469,0.014554768562316895,0.017081724479794502,-0.001077270507816455,-0.0013305664062502776,0.014013862609876018,None,None,None,None,None,None,None
cf1,930.9399999999999,0.547465087890625,0.4563315124511719,0.01525206756591797,0.13129661977291107,0.0007873535156251388,0.003332519531251943,0.03486495018008543,None,None,None,None,None,None,None
cf1,930.9599999999999,0.5474905395507813,0.4565868835449219,0.016883216857910156,0.13129661977291107,0.0012725830078175655,0.012768554687512212,0.08155746459968347,None,None,None,None,None,None,None
cf1,930.9799999999999,0.54733056640625,0.4568676452636719,0.019716497421264648,0.13129661977291107,-0.00799865722657284,0.014038085937513878,0.14166402816785345,None,None,None,None,None,None,None
cf1,931.0,0.5471116333007813,0.45718878173828126,0.024061477661132813,0.9362540245056152,-0.01094665527338381,0.016056823730390905,0.21724901199237093,None,None,None,None,None,None,None
cf1,931.02,0.5467784423828125,0.4577102966308594,0.029966222763061524,0.9362540245056152,-0.016659545898454916,0.02607574462892988,0.29523725509670407,None,None,None,None,None,None,None
cf1,931.04,0.5461248168945313,0.4582502746582031,0.03729495620727539,2.256916046142578,-0.03268127441408894,0.026998901367211302,0.3664366722110265,None,None,None,None,None,None,None
cf1,931.06,0.5454620971679688,0.4589028625488281,0.04619442367553711,2.256916046142578,-0.03313598632815567,0.0326293945312797,0.4449733734134908,None,None,None,None,None,None,None
cf1,931.0799999999999,0.5446586303710937,0.45970748901367187,0.056691150665283206,2.256916046142578,-0.04017333984378858,0.04023132324222407,0.5248363494877821,None,None,None,None,None,None,None
cf1,931.0999999999999,0.5436806640625,0.4604176025390625,0.06812183380126953,3.0020503997802734,-0.04889831542972962,0.0355056762695639,0.571534156799836,None,None,None,None,None,None,None
cf1,931.12,0.5426714477539063,0.4612809448242188,0.08088867950439453,3.0020503997802734,-0.05046081542944612,0.04316711425760772,0.6383422851532021,None,None,None,None,None,None,None
cf1,931.14,0.5416446533203125,0.46212957763671875,0.09434134674072266,3.2900707721710205,-0.05133972167973517,0.042431640625037195,0.672633361817018,None,None,None,None,None,None,None
cf1,931.16,0.5406908569335938,0.46286758422851565,0.10837794494628906,3.2900707721710205,-0.04768981933598212,0.03690032958987869,0.7018299102789587,None,None,None,None,None,None,None
cf1,931.18,0.5398067016601562,0.46363690185546874,0.12288739013671875,3.2900707721710205,-0.0442077636719176,0.03846588134768959,0.7254722595221439,None,None,None,None,None,None,None
cf1,931.1999999999999,0.5389430541992187,0.46424963378906253,0.13770457458496094,3.364264488220215,-0.043182373046913164,0.030636596679717406,0.7408592224127833,None,None,None,None,None,None,None
cf1,931.2199999999999,0.5382219848632812,0.4647353515625,0.15266438293457033,3.364264488220215,-0.036053466796908726,0.024285888671895954,0.7479904174811497,None,None,None,None,None,None,None
cf1,931.24,0.5376002197265625,0.46518194580078126,0.1675343475341797,3.4514734745025635,-0.03108825683578875,0.022329711913955903,0.7434982299769187,None,None,None,None,None,None,None
cf1,931.26,0.537146240234375,0.46552444458007813,0.1822427978515625,3.4514734745025635,-0.022698974609395954,0.017124938964859258,0.7354225158698088,None,None,None,None,None,None,None
cf1,931.28,0.5368660278320313,0.46576638793945313,0.1967858123779297,3.4514734745025635,-0.014010620117195758,0.012097167968760824,0.727150726319021,None,None,None,None,None,None,None
cf1,931.3,0.5365986328125,0.4658232116699219,0.21094302368164064,3.5019986629486084,-0.01336975097657839,0.0028411865234415938,0.7078605651861912,None,None,None,None,None,None,None
cf1,931.3199999999999,0.5365101318359375,0.4658750305175781,0.22463145446777344,3.5019986629486084,-0.004425048828125694,0.0025909423828125696,0.6844215393072625,None,None,None,None,None,None,None
cf1,931.3399999999999,0.5365159301757813,0.46578521728515626,0.23784048461914062,3.5361506938934326,0.0002899169921857653,-0.004490661621096769,0.6604515075689597,None,None,None,None,None,None,None
cf1,931.36,0.5366275024414062,0.4654405517578125,0.25046949768066407,3.5361506938934326,0.005578613281221898,-0.017233276367105015,0.6314506530731573,None,None,None,None,None,None,None
cf1,931.38,0.5368757934570313,0.46513278198242186,0.26256719970703124,3.5361506938934326,0.01241455078126471,-0.015388488769546689,0.6048851013189088,None,None,None,None,None,None,None
cf1,931.4,0.5371527099609376,0.46470816040039065,0.2740426330566406,3.486593008041382,0.013845825195325892,-0.021231079101580057,0.5737716674809906,None,None,None,None,None,None,None
cf1,931.42,0.5375499267578125,0.46412344360351565,0.284839111328125,3.373711347579956,0.019860839843767485,-0.029235839843776368,0.5398239135747104,None,None,None,None,None,None,None
cf1,931.4399999999999,0.5380776977539062,0.46347564697265625,0.29509765625,3.373711347579956,0.026388549804708526,-0.03238983154299938,0.5129272460942166,None,None,None,None,None,None,None
cf1,931.4599999999999,0.5386846313476562,0.46281182861328124,0.304624267578125,3.373711347579956,0.03034667968752609,-0.033190917968780806,0.4763305664066827,None,None,None,None,None,None,None
cf1,931.4799999999999,0.5393782348632813,0.46202056884765624,0.31355416870117186,3.373711347579956,0.03468017578128581,-0.03956298828128581,0.4464950561527495,None,None,None,None,None,None,None
cf1,931.5,0.540190673828125,0.46114019775390624,0.32182839965820315,3.217505693435669,0.040621948241992605,-0.044018554687289754,0.41371154784958863,None,None,None,None,None,None,None
cf1,931.52,0.5410511474609375,0.4603345947265625,0.3295565490722656,3.217505693435669,0.043023681640663995,-0.04028015136722296,0.38640747070347486,None,None,None,None,None,None,None
cf1,931.54,0.5419545288085937,0.4592738037109375,0.33670663452148436,3.0552895069122314,0.04516906738285198,-0.05303955078129857,0.35750427246126243,None,None,None,None,None,None,None
cf1,931.56,0.5429183959960938,0.45827005004882815,0.3432447509765625,3.0552895069122314,0.04819335937504774,-0.05018768310551382,0.32690582275420355,None,None,None,None,None,None,None
cf1,931.5799999999999,0.5438803100585937,0.4571839294433594,0.34937515258789065,3.0552895069122314,0.04809570312503886,-0.05430603027348711,0.3065200805666869,None,None,None,None,None,None,None
cf1,931.5999999999999,0.5449244384765625,0.4560682678222656,0.35507293701171877,2.903944492340088,0.052206420898484894,-0.055783081054739614,0.28488922119166527,None,None,None,None,None,None,None
cf1,931.62,0.5459820556640625,0.4549826049804688,0.3603271484375,2.903944492340088,0.052880859374751586,-0.05428314208958289,0.2627105712878082,-0.0059772841381376274,0.00613578841222943,0.0396728515625,None,None,None,None
cf1,931.64,0.5470735473632813,0.4539200744628906,0.36512567138671875,2.7838335037231445,0.05457458496098656,-0.053126525878955964,0.23992614746115476,-0.009586087495592999,0.009582003791283388,0.03487432861328127,None,None,None,None
cf1,931.66,0.5481611328125,0.4526982421875,0.36949600219726564,2.7838335037231445,0.05437927246098545,-0.06109161376958721,0.218516540527543,-0.012181800325041651,0.012683613314105308,0.030503997802734384,None,None,None,None
cf1,931.68,0.5492034301757812,0.45158258056640627,0.37341998291015627,2.7838335037231445,0.05211486816410781,-0.05578308105473684,0.1961990356447099,-0.014295451073923224,0.014985989038204046,0.026580017089843755,None,None,None,None
cf1,931.6999999999999,0.550304443359375,0.4505068969726563,0.3768524169921875,2.697000741958618,0.055050659179739614,-0.0537841796875483,0.17162170410171884,-0.016314853834261855,0.01686484575866555,0.0231475830078125,None,None,None,None
cf1,931.7199999999999,0.5513838500976562,0.44942053222656253,0.37974188232421874,2.697000741958618,0.05397033691411003,-0.05431823730473684,0.14447326660169219,-0.018068734545485673,0.018595528022256013,0.020258117675781284,None,None,None,None
cf1,931.74,0.5523417358398438,0.4484036865234375,0.38216812133789063,2.665264844894409,0.047894287109150356,-0.05084228515600957,0.12131195068301544,-0.01946646682941235,0.0201154558469753,0.01783187866210939,None,None,None,None
cf1,931.76,0.553360595703125,0.4473827819824219,0.38407803344726565,2.665264844894409,0.0509429931641067,-0.051045227050826945,0.09549560546883798,-0.020886983961975126,0.021504293787646525,0.015921966552734368,None,None,None,None
cf1,931.78,0.5543045654296875,0.44637112426757813,0.3855098571777344,2.665264844894409,0.04719848632816899,-0.05058288574223295,0.0715911865235021,-0.022087815452228078,0.02283430899390347,0.014490142822265628,None,None,None,None
cf1,931.8,0.5551637573242187,0.4454268493652344,0.3863435974121094,2.6271932125091553,0.042959594726599486,-0.04721374511722906,0.04168701171878747,-0.02311472704396407,0.02402244589259759,0.013656402587890637,None,None,None,None
cf1,931.8199999999999,0.5560191650390625,0.44464004516601563,0.3867149353027344,2.6271932125091553,0.04277038574222462,-0.0393402099609749,0.018566894531266375,-0.024172219818282666,0.024898811937633377,0.013285064697265647,None,None,None,None
cf1,931.8399999999999,0.5568376464843751,0.4438298034667969,0.3867614135742188,2.5855531692504883,0.04092407226566733,-0.040512084960973235,0.0023239135742224625,-0.0251152996783892,0.02580100168563399,0.01323858642578124,None,None,None,None
cf1,931.86,0.5575097045898437,0.4431445007324219,0.3863699645996094,2.5855531692504883,0.03360290527327279,-0.03426513671858659,-0.019572448730377025,-0.025854684249453513,0.026550087571749436,0.01363003540039065,None,None,None,None
cf1,931.88,0.5581682739257813,0.44239971923828125,0.3855133056640625,2.5855531692504883,0.03292846679690761,-0.03723907470706612,-0.04283294677738257,-0.02652464293800532,0.02737525485431403,0.014486694335937522,None,None,None,None
cf1,931.9,0.5587214965820313,0.44183666992187504,0.38439398193359375,2.5265157222747803,0.02766113281252609,-0.02815246582033644,-0.055966186523488226,-0.02710380410678319,0.027957441265380967,0.015606018066406269,None,None,None,None
cf1,931.92,0.5592431030273438,0.44135925292968753,0.3830138854980469,2.5265157222747803,0.026080322265649564,-0.023870849609397067,-0.06900482177740644,-0.027663468437714393,0.028417620078158814,0.016986114501953142,None,None,None,None
cf1,931.9399999999999,0.5596563720703125,0.4408560791015625,0.38150347900390624,2.480705738067627,0.020663452148452697,-0.025158691406274702,-0.07552032470710053,-0.02804240435288763,0.02895657548845939,0.01849652099609378,None,None,None,None
cf1,931.9599999999999,0.5600131225585938,0.44044027709960937,0.3797284545898438,2.480705738067627,0.017837524414082276,-0.02079010009767516,-0.08875122070320396,-0.02837374566500091,0.029387893046796777,0.020271545410156244,None,None,None,None
cf1,931.9799999999999,0.5603150024414063,0.440177734375,0.37787686157226563,2.480705738067627,0.015093994140638462,-0.0131271362304794,-0.09257965087899149,-0.028690883944086122,0.029622920380730958,0.02212313842773439,None,None,None,None
cf1,932.0,0.560460205078125,0.4398771057128906,0.37591659545898437,2.414950132369995,0.00726013183589977,-0.015031433105397844,-0.09801330566359508,-0.028764926615047103,0.02997841058204754,0.02408340454101565,None,None,None,None
cf1,932.02,0.5606257934570312,0.4398081970214844,0.37386660766601565,2.414950132369995,0.008279418945319231,-0.003445434570315345,-0.1024993896485293,-0.028970049128437984,0.03000091715119283,0.026133392333984373,None,None,None,None
cf1,932.04,0.560674072265625,0.4397266845703125,0.37188922119140627,2.3672804832458496,0.0024139404296929816,-0.004075622558597879,-0.09886932373055879,-0.029002547393742428,0.03009260717431369,0.02811077880859375,None,None,None,None
cf1,932.06,0.5606917724609375,0.43974114990234375,0.36984814453125003,2.3672804832458496,0.0008850097656229183,0.000723266601563402,-0.10205383300790472,-0.02903399074006782,0.030064777657958425,0.03015185546874999,None,None,None,None
cf1,932.0799999999999,0.5605872802734375,0.43975354003906253,0.36789559936523436,2.3672804832458496,-0.00522460937500333,0.0006195068359393735,-0.09762725830087246,-0.028891242435233944,0.03009369319834467,0.03210440063476566,None,None,None,None
cf1,932.0999999999999,0.5605116577148438,0.43990335083007814,0.3659651794433594,2.334862232208252,-0.0037811279296896512,0.007490539550787529,-0.09652099609383688,-0.028849883740740236,0.02991912596943406,0.034034820556640644,None,None,None,None
cf1,932.12,0.5602988891601562,0.44001541137695316,0.36413351440429687,2.334862232208252,-0.010638427734326602,0.005603027343723979,-0.09158325195268838,-0.028595535855085067,0.02985732898726013,0.03586648559570316,None,None,None,None
cf1,932.14,0.5601016845703125,0.4402191772460938,0.36234957885742186,2.324789524078369,-0.009860229492195758,0.010188293457040028,-0.08919677734383133,-0.0284026495310284,0.02965993713483418,0.03765042114257816,None,None,None,None
cf1,932.16,0.5597855224609375,0.44050048828125,0.3607518310546875,2.324789524078369,-0.015808105468765266,0.014065551757823671,-0.07988739013679075,-0.028070211939847947,0.029405046873336463,0.03924816894531252,None,None,None,None
cf1,932.18,0.5594913330078125,0.4408704833984375,0.3591899719238281,2.324789524078369,-0.01470947265626249,0.018499755859391516,-0.07809295654303991,-0.027806654543997555,0.029010956343573587,0.0408100280761719,None,None,None,None
cf1,932.1999999999999,0.5590701293945313,0.4411127014160156,0.3578263854980469,2.302349090576172,-0.021060180664081166,0.01211090087891711,-0.0681793212891228,-0.027292456651425153,0.02885501671195138,0.042173614501953116,None,None,None,None
cf1,932.2199999999999,0.5587528076171875,0.44149432373046876,0.35652627563476563,2.302349090576172,-0.015866088867203528,0.01908111572267516,-0.0650054931641228,-0.02699167633099163,0.028446968531964465,0.04347372436523439,None,None,None,None
cf1,932.24,0.5583496704101563,0.441832763671875,0.35538214111328126,2.2892587184906006,-0.020156860351464922,0.016921997070231922,-0.05720672607394557,-0.026535811777992847,0.028137365564192603,0.044617858886718764,None,None,None,None
cf1,932.26,0.5579185791015625,0.4422525634765625,0.3543272705078125,2.2892587184906006,-0.021554565429707413,0.02098999023439318,-0.05274353027348656,-0.02606751848045983,0.027715655751738802,0.045672729492187536,None,None,None,None
cf1,932.28,0.5574724731445313,0.442669189453125,0.3533885192871094,2.2892587184906006,-0.02230529785158061,0.020831298828144013,-0.046937561035196806,-0.025565547155430787,0.027299475890038075,0.04661148071289062,None,None,None,None
cf1,932.3,0.5570862426757812,0.44314080810546874,0.35261035156250004,2.270005702972412,-0.019311523437521648,0.023580932617208526,-0.03890838623050383,-0.025177323757077118,0.026762381083825986,0.04738964843749999,None,None,None,None
cf1,932.3199999999999,0.5566306762695312,0.44356488037109376,0.3518852233886719,2.270005702972412,-0.02277832031252054,0.02120361328127026,-0.03625640869143987,-0.024645790382007315,0.026324073680759612,0.048114776611328125,None,None,None,None
cf1,932.3399999999999,0.5561886596679687,0.4440078430175781,0.35118563842773437,2.2230396270751953,-0.02210083007814568,0.022148132324238005,-0.03497924804690817,-0.024135193273104812,0.025841172564948642,0.04881436157226565,None,None,None,None
cf1,932.36,0.55572412109375,0.444430419921875,0.35071572875976564,2.2230396270751953,-0.023226928710823443,0.021128845214742484,-0.023495483398324135,-0.023564984492406803,0.02539386711802398,0.04928427124023438,None,None,None,None
cf1,932.38,0.5553368530273438,0.4448106384277344,0.35030679321289065,2.2230396270751953,-0.019363403320328113,0.019010925292987174,-0.02044677734376804,-0.023093896731274818,0.02496851517084086,0.04969320678710937,None,None,None,None
cf1,932.4,0.5549386596679687,0.44521450805664065,0.34995916748046874,2.155181646347046,-0.019909667968771926,0.020193481445331445,-0.017381286621111755,-0.0226064524604123,0.024501656141657557,0.050040832519531286,None,None,None,None
cf1,932.42,0.5545132446289063,0.4456571350097656,0.3496348571777344,2.155181646347046,-0.021270751953142347,0.022131347656268598,-0.016215515136731345,-0.022080121983063784,0.02397369170151471,0.05036514282226562,None,None,None,None
cf1,932.4399999999999,0.5541113891601562,0.4460765380859375,0.3494354553222656,2.1157567501068115,-0.02009277343752054,0.02097015380861342,-0.00997009277344881,-0.02157215134516317,0.023461876905136594,0.05056454467773441,None,None,None,None
cf1,932.4599999999999,0.5537445068359376,0.4463992614746094,0.34928207397460936,2.1157567501068115,-0.01834411621094992,0.016136169433609536,-0.007669067382819231,-0.021064724264296897,0.0230922192804348,0.05071792602539066,None,None,None,None
cf1,932.4799999999999,0.5534282836914063,0.4467201232910156,0.34921112060546877,2.1157567501068115,-0.01581115722657839,0.016043090820325893,-0.0035476684570328113,-0.02064197065460644,0.022691396681615867,0.05078887939453125,None,None,None,None
cf1,932.5,0.55309912109375,0.4470480346679688,0.3491926574707031,2.06853985786438,-0.016458129882734002,0.016395568847579187,-0.0009231567382789515,-0.02018943782446341,0.02227773785956404,0.05080734252929692,None,None,None,None
cf1,932.52,0.55275830078125,0.44734457397460936,0.3491893005371094,2.06853985786438,-0.017041015625017763,0.014826965332042804,-0.00016784667968576528,-0.019685691353626016,0.02192174662627508,0.05081069946289063,None,None,None,None
cf1,932.54,0.5524464721679687,0.4476129455566406,0.34923080444335936,2.0274457931518555,-0.015591430664077834,0.013418579101574504,0.0020751953125,-0.019212539166054376,0.02159631515284563,0.05076919555664067,None,None,None,None
cf1,932.56,0.552189208984375,0.4479434509277344,0.34927413940429686,2.0274457931518555,-0.012863159179699643,0.016525268554705194,0.0021667480468770817,-0.018878466398323683,0.02111341061235061,0.050725860595703165,None,None,None,None
cf1,932.5799999999999,0.5519898071289062,0.4481499633789063,0.34932287597656253,2.0274457931518555,-0.009970092773446034,0.010325622558602875,0.002436828613285864,-0.018585684930149355,0.020829360618919646,0.05067712402343749,None,None,None,None
cf1,932.5999999999999,0.5517860107421875,0.44834768676757814,0.3494171142578125,1.9917148351669312,-0.01018981933594659,0.009886169433601764,0.004711914062503886,-0.018273794449076532,0.020561513565570892,0.0505828857421875,None,None,None,None
cf1,932.62,0.5515878295898438,0.44853799438476566,0.3495334167480469,1.9917148351669312,-0.00990905761713832,0.009515380859330765,0.005815124511690518,-0.017964469103509483,0.020301579512466996,0.050466583251953134,None,None,None,None
cf1,932.64,0.5513936767578125,0.44872915649414064,0.3495859375,1.949598789215088,-0.00970764160157284,0.009558105468757494,0.00262603759765795,-0.017659475887949874,0.020034021611731408,0.05041406250000002,None,None,None,None
cf1,932.66,0.5512090454101563,0.4488453063964844,0.34970660400390624,1.949598789215088,-0.009231567382819786,0.005807495117193537,0.006033325195317565,-0.017324201198258636,0.01991087721311784,0.05029339599609378,None,None,None,None
cf1,932.68,0.5510331420898438,0.448956298828125,0.34981781005859375,1.949598789215088,-0.0087951660156318,0.005549621582034476,0.005560302734380412,-0.01700003289940407,0.019792040101121972,0.050182189941406274,None,None,None,None
cf1,932.6999999999999,0.5508947143554688,0.44908010864257814,0.3499517517089844,1.919769525527954,-0.006921386718756384,0.006190490722662946,0.006697082519538917,-0.016764184530485445,0.019622341143496296,0.05004824829101562,None,None,None,None
cf1,932.7199999999999,0.5507661743164063,0.4491345520019531,0.35006921386718753,1.919769525527954,-0.006427001953130135,0.002722167968751943,0.0058731079101618355,-0.016504516078421246,0.019589660911920107,0.04993078613281249,None,None,None,None
cf1,932.74,0.5506746215820313,0.449162109375,0.3501773986816406,1.8804961442947388,-0.0045776367187281425,0.0013778686523375483,0.005409240722627757,-0.016310723461365202,0.019589713674785073,0.049822601318359416,None,None,None,None
cf1,932.76,0.5505838012695312,0.44921771240234376,0.35027691650390624,1.8804961442947388,-0.004541015625007772,0.002780151367190206,0.00497589111328642,-0.01613472196910101,0.019530786605814185,0.04972308349609378,None,None,None,None
cf1,932.78,0.5505119018554687,0.4492343444824219,0.35036770629882813,1.8804961442947388,-0.0035949707031279142,0.0008316040039071174,0.004539489746098434,-0.01597708179765445,0.01954127388320464,0.04963229370117189,None,None,None,None
cf1,932.8,0.550468994140625,0.4492181396484375,0.3504570617675781,1.825209379196167,-0.0021453857421879856,-0.000810241699220797,0.004467773437503886,-0.015866104016327272,0.019602084047163657,0.049542938232421896,None,None,None,None
cf1,932.8199999999999,0.55045654296875,0.44922552490234374,0.35049920654296873,1.825209379196167,-0.0006225585937497224,0.0003692626953131245,0.002107238769532256,-0.015841433492379063,0.019594506398870656,0.04950079345703129,None,None,None,None
cf1,932.8399999999999,0.5504549560546875,0.44922445678710937,0.35061907958984373,1.752226710319519,-7.934570312458367e-05,-5.340576171857653e-05,0.005993652343755274,-0.015837024133589082,0.019597731857537517,0.04938092041015629,None,None,None,None
cf1,932.86,0.5504519653320312,0.44920230102539066,0.3507279968261719,1.752226710319519,-0.00014953613281449494,-0.0011077880859303008,0.005445861816382267,-0.015816062945258454,0.019645777556375126,0.04927200317382813,None,None,None,None
cf1,932.88,0.5504715576171875,0.4491663208007813,0.3507677917480469,1.752226710319519,0.0009796142578131245,-0.0017990112304705195,0.001989746093751943,-0.015839623351687204,0.019708291536946056,0.049232208251953125,None,None,None,None
cf1,932.9,0.5504967651367187,0.4491491394042969,0.35082205200195316,1.7038249969482422,0.0012603759765650673,-0.0008590698242196867,0.002713012695315345,-0.015888091315545413,0.019728158601094836,0.04917794799804687,None,None,None,None
cf1,932.92,0.5505328979492188,0.44906829833984374,0.35082354736328125,1.7038249969482422,0.0018066406250033308,-0.0040420532226618355,7.476806640489692e-05,-0.01592227333424908,0.019872734745417526,0.04917645263671877,None,None,None,None
cf1,932.9399999999999,0.5505532836914062,0.4490316772460938,0.35087884521484375,1.6700503826141357,0.0010192871093726407,-0.0018310546875,0.002764892578127359,-0.015947128054809245,0.019935423111575347,0.049121154785156274,None,None,None,None
cf1,932.9599999999999,0.5506066284179688,0.4489521179199219,0.3509024353027344,1.6700503826141357,0.0026672363281323554,-0.003977966308597323,0.0011795043945339214,-0.016022056406693116,0.02006538963138143,0.04909756469726562,None,None,None,None
cf1,932.9799999999999,0.5506574096679687,0.4489266357421875,0.35090042114257813,1.6700503826141357,0.0025390624999977796,-0.001274108886721352,-0.0001007080078136796,-0.01612411050012016,0.020086000952350254,0.04909957885742189,None,None,None,None
cf1,933.0,0.5507028198242188,0.44885256958007813,0.35093255615234376,1.6409573554992676,0.0022705078124909796,-0.0037033081054505786,0.0016067504882734003,-0.016183314384786738,0.020208758497124207,0.04906744384765627,None,None,None,None
cf1,933.02,0.5507138671875,0.44881777954101565,0.35093972778320315,1.6409573554992676,0.0005523681640645123,-0.0017395019531256939,0.0003585815429699643,-0.016187358565427565,0.02027251037071962,0.049060272216796874,None,None,None,None
cf1,933.04,0.5507725219726562,0.4487647705078125,0.3509465942382813,1.6081509590148926,0.0029327392578131243,-0.0026504516601601703,0.00034332275390711736,-0.01628964116512939,0.02034364772363361,0.04905340576171874,None,None,None,None
cf1,933.06,0.5508359375,0.44872537231445314,0.35098171997070315,1.6081509590148926,0.003170776367192427,-0.001969909667969409,0.001756286621095103,-0.016410580877229516,0.02038420037392305,0.04901828002929687,None,None,None,None
cf1,933.0799999999999,0.5508539428710938,0.4486808166503906,0.3509691772460938,1.6081509590148926,0.0009002685546885408,-0.0022277832031284694,-0.0006271362304694092,-0.016424368621117392,0.020462793033644604,0.049030822753906245,None,None,None,None
cf1,933.0999999999999,0.5509093627929688,0.4486658020019531,0.351006103515625,1.570015788078308,0.0027709960937508326,-0.0007507324218759715,0.001846313476562847,-0.016541228695639957,0.02045905237427816,0.04899389648437502,None,None,None,None
cf1,933.12,0.550958740234375,0.4486474304199219,0.35104812622070314,1.570015788078308,0.0024688720702985356,-0.0009185791015565152,0.002101135253896839,-0.016641850024071664,0.020465742029380164,0.048951873779296884,None,None,None,None
cf1,933.14,0.5509835205078125,0.448634765625,0.3510665588378906,1.5502128601074219,0.001239013671878747,-0.0006332397460956582,0.0009216308593748612,-0.01669008680211396,0.020476005486671407,0.0489334411621094,None,None,None,None
cf1,933.16,0.5510234375,0.4486239929199219,0.3511378173828125,1.5502128601074219,0.001995849609378192,-0.000538635253905452,0.0035629272460984338,-0.016773451977891454,0.020473226361381967,0.0488621826171875,None,None,None,None
cf1,933.18,0.5510458374023438,0.448568115234375,0.3511935729980469,1.5502128601074219,0.001119995117189096,-0.0027938842773464908,0.0027877807617202417,-0.01678973088884616,0.0205713669543099,0.048806427001953145,None,None,None,None
cf1,933.1999999999999,0.5510901489257812,0.4486231689453125,0.35129751586914065,1.53865647315979,0.0022155761718731957,0.002752685546877637,0.005197143554693537,-0.016922668059948624,0.02043413131476804,0.04870248413085937,None,None,None,None
cf1,933.2199999999999,0.5511312866210938,0.44869091796875,0.35142886352539066,1.53865647315979,0.00205688476562958,0.0033874511718770817,0.006567382812506106,-0.017056095133188343,0.02027257281028211,0.04857113647460937,None,None,None,None
cf1,933.24,0.5511470336914063,0.4487063598632813,0.35153219604492186,1.5335979461669922,0.0007873535156206632,0.0007720947265606786,0.005166625976535699,-0.017100695707742426,0.02023171096437105,0.04846780395507816,None,None,None,None
cf1,933.26,0.5511559448242188,0.4487330932617188,0.3516908874511719,1.5335979461669922,0.0004455566406273592,0.0013366699218765265,0.007934570312508327,-0.017136974968752803,0.020172121445852315,0.04830911254882814,None,None,None,None
cf1,933.28,0.5511990356445312,0.4487953186035156,0.35186325073242186,1.5335979461669922,0.002154541015621808,0.0031112670898448256,0.00861816406250666,-0.017271126387368853,0.020019137771454847,0.04813674926757816,None,None,None,None
cf1,933.3,0.5511925659179687,0.4488939514160156,0.35203424072265627,1.5478655099868774,-0.00032348632812458366,0.004931640625004441,0.008549499511728013,-0.01731770954258323,0.01982134678202283,0.047965759277343756,None,None,None,None
cf1,933.3199999999999,0.5512003173828125,0.44896640014648437,0.3522923278808594,1.5478655099868774,0.0003875732421890959,0.003622436523440484,0.012904357910168498,-0.017379876855222052,0.01966729879447465,0.04770767211914062,None,None,None,None
cf1,933.3399999999999,0.5511928100585938,0.44905068969726564,0.3525245361328125,1.5324809551239014,-0.00037536621093659797,0.004214477539067288,0.011610412597664611,-0.017415692475966738,0.01949724596758286,0.04747546386718754,None,None,None,None
cf1,933.36,0.551212890625,0.44911907958984376,0.3527928466796875,1.5324809551239014,0.001004028320306862,0.0034194946288899,0.013415527343687898,-0.0175029816246597,0.019342043330742735,0.0472071533203125,None,None,None,None
cf1,933.38,0.5511845703125,0.44923126220703125,0.3529819030761719,1.5324809551239014,-0.0014160156250011102,0.0056091308593793025,0.009452819824226903,-0.017510489478216696,0.01912408844184353,0.047018096923828134,None,None,None,None
cf1,933.4,0.5511532592773437,0.4492875366210938,0.35322448730468753,1.5065301656723022,-0.001565551757816455,0.0028137207031290246,0.01212921142579308,-0.017476283341063832,0.01902478551259786,0.04677551269531249,None,None,None,None
cf1,933.42,0.551126220703125,0.44935986328125,0.35348040771484374,1.5065301656723022,-0.0013519287109365979,0.0036163330078142347,0.012796020507822007,-0.0174616939212627,0.01888813610602236,0.046519592285156286,None,None,None,None
cf1,933.4399999999999,0.55109765625,0.44947137451171876,0.3538236694335938,1.4921045303344727,-0.0014282226562536081,0.005575561523443259,0.017163085937517763,-0.017468611761426077,0.018667504096380277,0.04617633056640624,None,None,None,None
cf1,933.4599999999999,0.5510594482421876,0.4495890197753906,0.3541077880859375,1.4921045303344727,-0.0019104003906218082,0.005882263183598434,0.014205932617199643,-0.017458063418014137,0.018437643561250758,0.04589221191406251,None,None,None,None
cf1,933.4799999999999,0.55101123046875,0.4497472534179688,0.35438983154296877,1.4921045303344727,-0.0024108886718798572,0.007911682128915444,0.014102172851575615,-0.01745125408305738,0.018122785955825865,0.04561016845703125,None,None,None,None
cf1,933.5,0.5510098876953126,0.4498910827636719,0.35469534301757816,1.4731870889663696,-6.713867187170403e-05,0.007191467285121512,0.015275573730396456,-0.01754093952308993,0.017805362536240522,0.045304656982421865,None,None,None,None
cf1,933.52,0.5509529418945313,0.44999032592773436,0.3549905700683594,1.4731870889663696,-0.002847290039067843,0.004962158203127359,0.014761352539074504,-0.017477029783798538,0.017620355194342806,0.04500942993164064,None,None,None,None
cf1,933.54,0.5508862915039062,0.450103759765625,0.3552396240234375,1.4668532609939575,-0.0033325195312547185,0.005671691894537252,0.012452697753917665,-0.017400136531129668,0.0174078854427596,0.044760375976562516,None,None,None,None
cf1,933.56,0.5508438720703125,0.45022402954101565,0.35557696533203126,1.4668532609939575,-0.002120971679688541,0.006013488769537808,0.016867065429702975,-0.017382490184674713,0.01716167821664355,0.044423034667968764,None,None,None,None
cf1,933.5799999999999,0.550799072265625,0.4503871765136719,0.355907470703125,1.4668532609939575,-0.002239990234378192,0.008157348632819231,0.01652526855470242,-0.01738774929077741,0.016814901986870294,0.044092529296875016,None,None,None,None
cf1,933.5999999999999,0.5507898559570312,0.4505268249511719,0.35623968505859377,1.4365702867507935,-0.0004608154296874306,0.006982421875007772,0.01661071777345325,-0.01745892500980471,0.016494586421972796,0.04376031494140625,None,None,None,None
cf1,933.62,0.5507784423828125,0.45066912841796875,0.35654754638671876,1.4365702867507935,-0.0005706787109344642,0.007115173339807711,0.0153930664061761,-0.017527145838060903,0.016165261461151298,0.04345245361328126,None,None,None,None
cf1,933.64,0.5507103271484375,0.45076895141601564,0.35679534912109373,1.3906792402267456,-0.003405761718753053,0.004991149902349267,0.012390136718759714,-0.017438072564375226,0.015971593868193842,0.04320465087890629,None,None,None,None
cf1,933.66,0.5506511840820313,0.4508766784667969,0.3571108093261719,1.3906792402267456,-0.0029571533203125696,0.005386352539068398,0.01577301025392266,-0.017374386245148053,0.015750774506549478,0.042889190673828126,None,None,None,None
cf1,933.68,0.5505482177734375,0.45095745849609375,0.35740945434570315,1.3906792402267456,-0.005148315429691871,0.004039001464845936,0.01493225097657617,-0.017191008862240006,0.015622940336271705,0.042590545654296874,None,None,None,None
cf1,933.6999999999999,0.5504622802734375,0.45107781982421874,0.35777520751953124,1.3481781482696533,-0.004296875000007772,0.006018066406254718,0.018287658691420995,-0.017072342184576268,0.015384808559368275,0.04222479248046879,None,None,None,None
cf1,933.7199999999999,0.5503927612304688,0.45123489379882814,0.35807577514648437,1.3481781482696533,-0.0034759521484382635,0.007853698730477181,0.015028381347670162,-0.017016206817108297,0.015040387283010815,0.04192422485351566,None,None,None,None
cf1,933.74,0.5503298950195312,0.4513159484863281,0.35837860107421876,1.318979024887085,-0.0031433105468619896,0.004052734374979184,0.015141296386647496,-0.016923639477880954,0.014878768978317882,0.04162139892578126,None,None,None,None
cf1,933.76,0.5502422485351562,0.45142626953125004,0.35872937011718753,1.318979024887085,-0.004382324218753053,0.005516052246101209,0.017538452148454363,-0.01679181583971024,0.014657834629692569,0.04127062988281249,None,None,None,None
cf1,933.78,0.5501514892578125,0.4515264892578125,0.35908438110351565,1.318979024887085,-0.004537963867189096,0.005010986328129024,0.017750549316422105,-0.016644461500604363,0.0144623539399077,0.040915618896484374,None,None,None,None
cf1,933.8,0.5500701904296875,0.4516453247070313,0.3593593444824219,1.3034740686416626,-0.004064941406254718,0.005941772460943259,0.013748168945325337,-0.01653143299763279,0.014209310597925882,0.04064065551757812,None,None,None,None
cf1,933.8199999999999,0.5499866333007812,0.4517463989257813,0.35968707275390627,1.3034740686416626,-0.004177856445318121,0.005053710937504441,0.01638641357423301,-0.01639965570052637,0.014001271058566024,0.040312927246093755,None,None,None,None
cf1,933.8399999999999,0.5499458618164063,0.45182464599609373,0.36006634521484376,1.2507119178771973,-0.0020385742187508326,0.003912353515626249,0.01896362304689207,-0.0163551023503546,0.013821752241546508,0.03993365478515626,None,None,None,None
cf1,933.86,0.5498943481445313,0.45195593261718753,0.36040167236328124,1.2507119178771973,-0.0025756835937350816,0.006564331054658443,0.016766357421793988,-0.016321183051816644,0.013504908567068588,0.03959832763671878,None,None,None,None
cf1,933.88,0.5497821044921876,0.4520397033691406,0.3607418823242188,1.2507119178771973,-0.005612182617192427,0.004188537597658505,0.01701049804689207,-0.01610446264075459,0.013355769112684624,0.039258117675781246,None,None,None,None
cf1,933.9,0.5497033081054687,0.45213198852539066,0.3610531311035156,1.2101705074310303,-0.003939819335944369,0.004614257812506106,0.015562438964855927,-0.01597435717992432,0.013157825245509553,0.03894686889648441,None,None,None,None
cf1,933.92,0.5496508178710937,0.452204345703125,0.36135775756835936,1.2101705074310303,-0.0026245117187541633,0.003617858886720797,0.015231323242201309,-0.01589475666444959,0.012994323292198486,0.03864224243164066,None,None,None,None
cf1,933.9399999999999,0.5495596313476563,0.45225192260742186,0.36163082885742187,1.1952286958694458,-0.0045593261718754165,0.0023788452148448256,0.013653564453137906,-0.015699725716230697,0.012926230855493503,0.03836917114257815,None,None,None,None
cf1,933.9599999999999,0.5495167846679687,0.45232366943359376,0.3619296875,1.1952286958694458,-0.0021423339843804124,0.0035873413085978786,0.014942932128919329,-0.01564263550729028,0.01275500262257966,0.038070312500000036,None,None,None,None
cf1,933.9799999999999,0.5494412841796875,0.45238653564453124,0.36216140747070313,1.1952286958694458,-0.003775024414063402,0.0031433105468770817,0.011585998535167941,-0.015495762783718017,0.012630772049592405,0.03783859252929689,None,None,None,None
cf1,934.0,0.5494151611328125,0.4524888916015625,0.36246490478515625,1.17430579662323,-0.001306152343743408,0.0051177978515398615,0.015174865722583348,-0.015502462968797866,0.012356395965717708,0.03753509521484377,None,None,None,None
cf1,934.02,0.5493742065429688,0.4525570068359375,0.36274075317382815,1.17430579662323,-0.002047729492190206,0.003405761718753053,0.013792419433607315,-0.015446555563179924,0.012188699975535006,0.03725924682617188,None,None,None,None
cf1,934.04,0.5493199462890626,0.45262384033203124,0.36300894165039066,1.1809428930282593,-0.0027130126953125696,0.003341674804688541,0.013409423828137906,-0.015355180794982614,0.012032695448145348,0.03699105834960936,None,None,None,None
cf1,934.06,0.54927099609375,0.45272857666015626,0.3633158264160156,1.1809428930282593,-0.0024475097656318,0.0052368164062558285,0.015344238281261935,-0.015304216861337495,0.011759042970627,0.0366841735839844,None,None,None,None
cf1,934.0799999999999,0.5492539672851563,0.45281997680664066,0.36359237670898437,1.1809428930282593,-0.0008514404296840999,0.004570007324224128,0.013827514648449921,-0.015325858100555903,0.011498444605787835,0.036407623291015656,None,None,None,None
cf1,934.0999999999999,0.5492489624023438,0.45293157958984376,0.3638675231933594,1.1523208618164062,-0.000250244140626249,0.00558013916016017,0.01375732421876471,-0.015392727994792703,0.011164740811883393,0.03613247680664061,None,None,None,None
cf1,934.12,0.5492083129882812,0.452969970703125,0.36417312622070314,1.1523208618164062,-0.0020324707031185813,0.0019195556640530457,0.01528015136711334,-0.015315125593236383,0.011076610525120894,0.035826873779296886,None,None,None,None
cf1,934.14,0.549163330078125,0.4530714111328125,0.36446209716796873,1.1379586458206177,-0.0022491455078120144,0.005072021484380412,0.01444854736329308,-0.015270855748699066,0.010796352090554124,0.03553790283203129,None,None,None,None
cf1,934.16,0.5491783447265625,0.4531940612792969,0.3648017578125,1.1379586458206177,0.0007507324218731959,0.006132507324224682,0.0169830322265795,-0.015396472921884938,0.01040282521758029,0.035198242187500006,None,None,None,None
cf1,934.18,0.5491600341796875,0.45325900268554686,0.36509869384765625,1.1379586458206177,-0.0009155273437486122,0.0032470703125011104,0.014846801757825337,-0.015394765446072966,0.010210601031563701,0.03490130615234377,None,None,None,None
cf1,934.1999999999999,0.54914892578125,0.45331396484375003,0.36539559936523436,1.155138373374939,-0.0005554199218776368,0.0027481079101607255,0.014845275878918774,-0.015404465599395447,0.010043482776188486,0.034604400634765664,None,None,None,None
cf1,934.2199999999999,0.54911865234375,0.45334069824218753,0.3656957702636719,1.155138373374939,-0.0015136718749988898,0.0013366699218765265,0.015008544921890405,-0.015344888773030748,0.00997904569302899,0.03430422973632813,None,None,None,None
cf1,934.24,0.5491332397460937,0.45349572753906253,0.36598220825195316,1.172930359840393,0.0007293701171827295,0.007751464843712877,0.01432189941399476,-0.01548929851583216,0.009467504364959876,0.034017791748046866,None,None,None,None
cf1,934.26,0.5491522216796875,0.4535811462402344,0.3663685913085938,1.172930359840393,0.0009490966796874307,0.004270935058596213,0.019319152832048908,-0.015595544812870525,0.00917455182161543,0.03363140869140624,None,None,None,None
cf1,934.28,0.54914208984375,0.45364630126953126,0.36662500000000003,1.172930359840393,-0.0005065917968731959,0.003257751464847046,0.012820434570324227,-0.015613132856953545,0.008965768450452813,0.03337499999999999,None,None,None,None
cf1,934.3,0.54913134765625,0.453718017578125,0.36693048095703124,1.179870843887329,-0.0005371093749988898,0.0035858154296913164,0.01527404785157395,-0.015633059993263677,0.008733633529155743,0.03306951904296879,None,None,None,None
cf1,934.3199999999999,0.549119140625,0.45376715087890623,0.36720675659179686,1.179870843887329,-0.0006103515625027756,0.002456665039062847,0.013813781738293635,-0.015634083278060658,0.008576497842269316,0.032793243408203165,None,None,None,None
cf1,934.3399999999999,0.5491100463867188,0.4538146667480469,0.36750347900390623,1.1702845096588135,-0.0004547119140611816,0.0023757934570344764,0.014836120605482176,-0.015641724832819167,0.008421765402426017,0.03249652099609379,None,None,None,None
cf1,934.36,0.5491213989257813,0.4538953552246094,0.3677113647460938,1.1702845096588135,0.0005676269531213571,0.004034423828106091,0.01039428710932799,-0.015721955314762344,0.008139803835796024,0.03228863525390624,None,None,None,None
cf1,934.38,0.5491829223632813,0.45390603637695315,0.3680491638183594,1.1702845096588135,0.0030761718750022204,0.0005340576171885408,0.016889953613295858,-0.015883402807989198,0.00806474649748193,0.03195083618164063,None,None,None,None
cf1,934.4,0.549195068359375,0.45401864624023436,0.368309326171875,1.1544153690338135,0.000607299804689651,0.0056304931640656225,0.013008117675792526,-0.015982710686098366,0.007670650386592288,0.031690673828125016,None,None,None,None
cf1,934.42,0.5492406005859375,0.4540633239746094,0.3685909729003906,1.1544153690338135,0.0022766113281245835,0.0022338867187547185,0.01408233642579308,-0.016122096428849854,0.0074890370721092,0.03140902709960941,None,None,None,None
cf1,934.4399999999999,0.5492480468750001,0.4541072082519531,0.36882748413085936,1.1611169576644897,0.00037231445312902454,0.0021942138671868757,0.011825561523448255,-0.016166115870072956,0.007332467078480963,0.03117251586914066,None,None,None,None
cf1,934.4599999999999,0.549264892578125,0.4541269226074219,0.3690738525390625,1.1611169576644897,0.0008422851562502776,0.0009857177734393734,0.012318420410167941,-0.016218857695289465,0.007254172268668032,0.030926147460937525,None,None,None,None
cf1,934.4799999999999,0.5492782592773438,0.4541252746582031,0.36921429443359377,1.1611169576644897,0.0006683349609354877,-8.239746093770817e-05,0.007022094726570063,-0.016250634605971453,0.007252221300751246,0.030785705566406252,None,None,None,None
cf1,934.5,0.54932373046875,0.4542162780761719,0.36945181274414063,1.1785616874694824,0.0022735595703040866,0.004550170898415729,0.0118759155272862,-0.016412505034461285,0.006909246098124907,0.030548187255859394,None,None,None,None
cf1,934.52,0.549360107421875,0.4542455444335938,0.36968359375,1.1785616874694824,0.0018188476562502776,0.0014633178710962134,0.011589050292978291,-0.016516280866074796,0.006786938294906156,0.03031640625000004,None,None,None,None
cf1,934.54,0.5493884887695313,0.4542765808105469,0.36989334106445315,1.1672090291976929,0.0014190673828142347,0.001551818847657395,0.010487365722667941,-0.016601037620989093,0.00666297678891044,0.03010665893554687,None,None,None,None
cf1,934.56,0.5494212036132813,0.45428134155273436,0.3700850830078125,1.1672090291976929,0.0016357421875016654,0.000238037109373751,0.009587097167976625,-0.016681669253024323,0.006628968180804704,0.029914916992187512,None,None,None,None
cf1,934.5799999999999,0.5494539794921875,0.45430239868164063,0.3702552795410156,1.1672090291976929,0.00163879394531479,0.0010528564453142347,0.008509826660162947,-0.01677056620636459,0.006538107334157924,0.02974472045898441,None,None,None,None
cf1,934.5999999999999,0.549491455078125,0.4543287658691406,0.3704211120605469,1.1398229598999023,0.0018737792968754163,0.0013183593750005552,0.008291625976571728,-0.01687267533025731,0.006426526166203291,0.029578887939453125,None,None,None,None
cf1,934.62,0.5495238037109376,0.45435757446289066,0.37061764526367186,1.1398229598999023,0.0016174316406192754,0.0014404296874951429,0.00982666015620108,-0.016963214310112884,0.00630931804612536,0.029382354736328165,None,None,None,None
cf1,934.64,0.5495410766601563,0.4543771667480469,0.370832763671875,1.125157356262207,0.000863647460936598,0.0009796142578131245,0.010755920410167387,-0.017013360156427914,0.006232091511708669,0.029167236328125012,None,None,None,None
cf1,934.66,0.549578369140625,0.45444329833984376,0.37105780029296875,1.125157356262207,0.0018646240234360429,0.0033065795898459356,0.011251831054697422,None,None,None,None,None,None,None
cf1,934.68,0.549584228515625,0.4544439086914063,0.37129925537109376,1.125157356262207,0.0002929687500044409,3.051757812569389e-05,0.01207275390626138,None,None,None,None,None,None,None
cf1,934.6999999999999,0.5496194458007813,0.4544937744140625,0.3715323791503906,1.1212377548217773,0.0017608642578120144,0.00249328613281479,0.011656188964853152,None,None,None,None,None,None,None
cf1,934.7199999999999,0.5496716918945312,0.45453814697265627,0.371766357421875,1.1212377548217773,0.002612304687501665,0.002218627929689096,0.011698913574231345,None,None,None,None,None,None,None
cf1,934.74,0.5497066040039063,0.45453082275390627,0.37212261962890625,1.0993248224258423,0.0017456054687420204,-0.00036621093749791833,0.017813110351476025,None,None,None,None,None,None,None
cf1,934.76,0.5497376708984375,0.45453350830078126,0.37254681396484374,1.0993248224258423,0.0015533447265639571,0.00013427734374972246,0.021209716796893735,None,None,None,None,None,None,None
cf1,934.78,0.5497838745117187,0.45451873779296875,0.37309036254882816,1.0993248224258423,0.002310180664063402,-0.000738525390626249,0.027177429199245776,None,None,None,None,None,None,None
cf1,934.8,0.5498099365234375,0.4545256042480469,0.3737683410644531,1.0554990768432617,0.0013031005859377083,0.00034332275390711736,0.03389892578127859,None,None,None,None,None,None,None
cf1,934.8199999999999,0.5499193725585938,0.45453610229492186,0.3746203308105469,1.0554990768432617,0.005471801757822007,0.0005249023437491673,0.04259948730472851,None,None,None,None,None,None,None
cf1,934.8399999999999,0.550036376953125,0.454535400390625,0.37560491943359375,1.0683671236038208,0.005850219726566177,-3.509521484260508e-05,0.04922943115238702,None,None,None,None,None,None,None
cf1,934.86,0.5501610107421875,0.45451974487304686,0.3767879943847656,1.0683671236038208,0.006231689453093601,-0.000782775878903778,0.059153747558311036,None,None,None,None,None,None,None
cf1,934.88,0.5503283081054687,0.45447314453125,0.3779811096191406,1.0683671236038208,0.008364868164070064,-0.0023300170898459356,0.05965576171880357,None,None,None,None,None,None,None
cf1,934.9,0.5504498291015625,0.454427978515625,0.3793848571777344,1.0969094038009644,0.0060760498046929816,-0.0022583007812513878,0.07018737792975349,None,None,None,None,None,None,None
cf1,934.92,0.5506318969726562,0.45436538696289064,0.38085470581054687,1.0969094038009644,0.009103393554696313,-0.003129577636720797,0.07349243164069008,None,None,None,None,None,None,None
cf1,934.9399999999999,0.5508066406250001,0.45432073974609377,0.382470458984375,1.116579294204712,0.008737182617199088,-0.002232360839845381,0.08078765869147929,None,None,None,None,None,None,None
cf1,934.9599999999999,0.5510350952148437,0.4542433776855469,0.38411306762695313,1.116579294204712,0.011422729492193537,-0.003868103027347046,0.08213043212898206,None,None,None,None,None,None,None
cf1,934.9799999999999,0.5512523803710938,0.45416180419921875,0.385770751953125,1.116579294204712,0.010864257812513878,-0.004078674316411003,0.08288421630866838,None,None,None,None,None,None,None
cf1,935.0,0.5514619140625,0.45408728027343753,0.38752783203125,1.1340646743774414,0.010476684570259678,-0.003726196289043331,0.08785400390583194,None,None,None,None,None,None,None
cf1,935.02,0.5517738037109375,0.4540443420410156,0.38925378417968753,1.1340646743774414,0.01559448242189096,-0.0021469116210973234,0.08629760742195425,None,None,None,None,None,None,None
cf1,935.04,0.55199609375,0.453915283203125,0.3910155944824219,1.14303719997406,0.011114501953134575,-0.006452941894536142,0.08809051513679851,None,None,None,None,None,None,None
cf1,935.06,0.5523629150390625,0.45383572387695315,0.39265927124023436,1.14303719997406,0.018341064453142347,-0.003977966308597323,0.08218383789069786,None,None,None,None,None,None,None
cf1,935.0799999999999,0.5526659545898438,0.45368649291992186,0.39437652587890626,1.14303719997406,0.015151977539076725,-0.007461547851571174,0.08586273193367282,None,None,None,None,None,None,None
cf1,935.0999999999999,0.5530595703125,0.45354370117187504,0.395898681640625,1.1504484415054321,0.019680786132826446,-0.007139587402347601,0.07610778808600765,None,None,None,None,None,None,None
cf1,935.12,0.5533868408203125,0.4534143371582031,0.39738833618164066,1.1504484415054321,0.016363525390549888,-0.006468200683564997,0.07448272705042576,None,None,None,None,None,None,None
cf1,935.14,0.5537938232421875,0.4533326416015625,0.3986929321289063,1.1656447649002075,0.020349121093767485,-0.004084777832034476,0.06522979736334027,None,None,None,None,None,None,None
cf1,935.16,0.5541355590820313,0.45318130493164066,0.3996796875,1.1656447649002075,0.017086791992203528,-0.0075668334960989885,0.04933776855473073,None,None,None,None,None,None,None
cf1,935.18,0.554513671875,0.4530087585449219,0.400439208984375,1.1656447649002075,0.018905639648453806,-0.008627319335946034,0.03797607421878581,None,None,None,None,None,None,None
cf1,935.1999999999999,0.55495947265625,0.45290625,0.4010204772949219,1.184558629989624,0.02229003906252054,-0.0051254272460989885,0.029063415527370916,None,None,None,None,None,None,None
cf1,935.2199999999999,0.5554312133789062,0.452743896484375,0.4013757934570313,1.184558629989624,0.023587036132831998,-0.008117675781256939,0.01776580810548495,None,None,None,None,None,None,None
cf1,935.24,0.555890380859375,0.4525832214355469,0.4013966064453125,1.1714457273483276,0.022958374023331073,-0.008033752441367002,0.0010406494140558214,None,None,None,None,None,None,None
cf1,935.26,0.5562847290039062,0.45243109130859377,0.401256103515625,1.1714457273483276,0.01971740722657839,-0.007606506347664056,-0.007025146484380412,None,None,None,None,None,None,None
cf1,935.28,0.5567347412109375,0.45229840087890627,0.40094985961914065,1.1714457273483276,0.02250061035158172,-0.006634521484380968,-0.015312194824232454,None,None,None,None,None,None,None
cf1,935.3,0.5571967773437501,0.45214883422851565,0.40044903564453127,1.1279343366622925,0.023101806640650674,-0.007478332519537808,-0.025041198730491612,None,None,None,None,None,None,None
cf1,935.3199999999999,0.5576675415039063,0.45195166015625,0.399876220703125,1.1279343366622925,0.023538208007833107,-0.009858703613291971,-0.028640747070339215,None,None,None,None,None,None,None
cf1,935.3399999999999,0.5581531372070313,0.45173748779296874,0.39910089111328123,1.0737988948822021,0.024279785156272483,-0.010708618164072283,-0.03876647949222407,None,None,None,None,None,None,None
cf1,935.36,0.5585693969726563,0.4516303100585938,0.3982522888183594,1.0737988948822021,0.020812988281149733,-0.005358886718722591,-0.042430114745889445,None,None,None,None,None,None,None
cf1,935.38,0.5590291748046875,0.45146624755859377,0.3974081726074219,1.0737988948822021,0.02298889160158172,-0.008203125000007772,-0.042205810546913164,None,None,None,None,None,None,None
cf1,935.4,0.5594951782226563,0.45133001708984377,0.39650592041015625,1.0068371295928955,0.023300170898459358,-0.006811523437506106,-0.04511260986332306,None,None,None,None,None,None,None
cf1,935.42,0.5599972534179688,0.4511810607910156,0.39558404541015624,1.0068371295928955,0.025103759765649564,-0.007447814941414889,-0.046093750000042746,None,None,None,None,None,None,None
cf1,935.4399999999999,0.5604789428710938,0.45102716064453124,0.39463406372070314,0.9307553768157959,0.024084472656271373,-0.007695007324225238,-0.04749908447269792,None,None,None,None,None,None,None
cf1,935.4599999999999,0.5609620971679687,0.4509052429199219,0.3936270751953125,0.9307553768157959,0.024157714843769707,-0.00609588623047274,-0.05034942626957888,None,None,None,None,None,None,None
cf1,935.4799999999999,0.5613792724609376,0.45081558227539065,0.3926571960449219,0.9307553768157959,0.020858764648459358,-0.004483032226566733,-0.04849395751957389,None,None,None,None,None,None,None
cf1,935.5,0.5618043212890625,0.45061224365234376,0.39173336791992186,0.9041355848312378,0.021252441406148345,-0.010166931152295914,-0.04619140624978073,None,None,None,None,None,None,None
cf1,935.52,0.56229833984375,0.45052059936523436,0.39073504638671874,0.9041355848312378,0.024700927734394845,-0.00458221435547385,-0.04991607666020125,None,None,None,None,None,None,None
cf1,935.54,0.562826416015625,0.45047698974609374,0.38970150756835936,0.9132288098335266,0.02640380859377415,-0.0021804809570333664,-0.051676940918016036,None,None,None,None,None,None,None
cf1,935.56,0.5632913208007813,0.4503394775390625,0.388662109375,0.9132288098335266,0.02324523925783422,-0.006875610351567843,-0.05196990966801493,None,None,None,None,None,None,None
cf1,935.5799999999999,0.5637442016601563,0.45023526000976566,0.38756985473632816,0.9132288098335266,0.022644042968770817,-0.005210876464847046,-0.054612731933642286,None,None,None,None,None,None,None
cf1,935.5999999999999,0.5641956176757813,0.4501504821777344,0.3864417724609375,0.8970306515693665,0.022570800781272483,-0.004238891601566733,-0.05640411376958277,None,None,None,None,None,None,None
cf1,935.62,0.5646759033203125,0.4500448913574219,0.3852623291015625,0.8970306515693665,0.024014282226444104,-0.005279541015601234,-0.05897216796847002,None,None,None,None,None,None,None
cf1,935.64,0.5650848388671875,0.44993536376953125,0.383985595703125,0.8621676564216614,0.020446777343770817,-0.005476379394536142,-0.06383666992193204,None,None,None,None,None,None,None
cf1,935.66,0.565616943359375,0.4498966064453125,0.38274191284179687,0.8621676564216614,0.026605224609395954,-0.0019378662109399286,-0.06218414306646374,None,None,None,None,None,None,None
cf1,935.68,0.5661032104492187,0.4498096618652344,0.3814492492675781,0.8621676564216614,0.024313354492211302,-0.004347229003907672,-0.06463317871099655,None,None,None,None,None,None,None
cf1,935.6999999999999,0.5665692749023438,0.4497572021484375,0.3801611328125,0.8235874772071838,0.023303222656272483,-0.002622985839847601,-0.06440582275396319,None,None,None,None,None,None,None
cf1,935.7199999999999,0.5670357666015625,0.4497254943847656,0.37877932739257814,0.8235874772071838,0.0233245849609588,-0.0015853881835962134,-0.06909027099615728,None,None,None,None,None,None,None
cf1,935.74,0.5674711303710938,0.44974090576171877,0.3773733825683594,0.809440016746521,0.02176818847645798,0.000770568847654125,-0.0702972412106014,None,None,None,None,None,None,None
cf1,935.76,0.5679288330078125,0.44964300537109375,0.3759068603515625,0.809440016746521,0.02288513183595769,-0.004895019531255274,-0.07332611083991089,None,None,None,None,None,None,None
cf1,935.78,0.5684338989257812,0.44956613159179687,0.3743785400390625,0.809440016746521,0.025253295898459358,-0.003843688964847601,-0.07641601562506939,None,None,None,None,None,None,None
cf1,935.8,0.5689532470703125,0.44950152587890624,0.3728301391601563,0.7778893709182739,0.02596740722658616,-0.0032302856445344764,-0.07742004394538196,None,None,None,None,None,None,None
cf1,935.8199999999999,0.5693881225585937,0.44940890502929687,0.37119799804687503,0.7778893709182739,0.021743774414082276,-0.00463104248047274,-0.08160705566413667,None,None,None,None,None,None,None
cf1,935.8399999999999,0.5698709716796875,0.4494272155761719,0.36953033447265626,0.7524308562278748,0.024142456054709636,0.0009155273437513878,-0.08338317871101432,None,None,None,None,None,None,None
cf1,935.86,0.5703655395507813,0.4494576721191406,0.36773388671875,0.7524308562278748,0.0247283935545724,0.001522827148429607,-0.08982238769488358,None,None,None,None,None,None,None
cf1,935.88,0.5708055419921875,0.4493669738769531,0.36586126708984373,0.7524308562278748,0.022000122070329222,-0.004534912109378747,-0.09363098144539916,None,None,None,None,None,None,None
cf1,935.9,0.5713114624023438,0.4492115173339844,0.363772705078125,0.7691517472267151,0.02529602050783755,-0.007772827148443259,-0.10442810058603264,None,None,None,None,None,None,None
cf1,935.92,0.57180078125,0.4491262817382813,0.3616211853027344,0.7691517472267151,0.02446594238283422,-0.0042617797851596155,-0.10757598876962662,None,None,None,None,None,None,None
cf1,935.9399999999999,0.5723078613281251,0.44907125854492186,0.35934436035156253,0.809895932674408,0.02535400390627581,-0.0027511596679738503,-0.11384124755869725,None,None,None,None,None,None,None
cf1,935.9599999999999,0.5727605590820313,0.44901898193359374,0.3569772644042969,0.809895932674408,0.022634887695331445,-0.0026138305664082278,-0.11835479736338968,None,None,None,None,None,None,None
cf1,935.9799999999999,0.5732451171875,0.4489836120605469,0.354517333984375,0.809895932674408,0.024227905273460467,-0.0017684936523448256,-0.12299652099620557,None,None,None,None,None,None,None
cf1,936.0,0.573728515625,0.44895751953125,0.3518177795410156,0.7721893787384033,0.024169921874884814,-0.0013046264648368545,-0.1349777221673254,None,None,None,None,None,None,None
cf1,936.02,0.5742192993164063,0.44883706665039064,0.34919158935546873,0.7721893787384033,0.024539184570332554,-0.006022644042974405,-0.13130950927746363,None,None,None,None,None,None,None
cf1,936.04,0.5746865234375,0.4487149353027344,0.34635894775390624,0.7171825766563416,0.023361206054710745,-0.0061065673828186754,-0.14163208007825337,None,None,None,None,None,None,None
cf1,936.06,0.5752351684570313,0.44869982910156253,0.34360467529296873,0.7171825766563416,0.02743225097658616,-0.0007553100585928826,-0.13771362304700088,None,None,None,None,None,None,None
cf1,936.0799999999999,0.5757271728515625,0.44871575927734375,0.3408597717285156,0.7171825766563416,0.024600219726583942,0.0007965087890617368,-0.13724517822278062,None,None,None,None,None,None,None
cf1,936.0999999999999,0.5761525268554688,0.44860086059570314,0.33802764892578124,0.663446307182312,0.021267700195334773,-0.005744934082035587,-0.14160614013684736,None,None,None,None,None,None,None
cf1,936.12,0.5766849975585938,0.44856225585937504,0.33517657470703127,0.663446307182312,0.026623535156123364,-0.0019302368163961452,-0.1425537109368179,None,None,None,None,None,None,None
cf1,936.14,0.5771420288085938,0.4484917297363281,0.332256591796875,0.6590999960899353,0.022851562500018872,-0.0035263061523492663,-0.14599914550794635,None,None,None,None,None,None,None
cf1,936.16,0.5776412353515625,0.44842169189453124,0.3294003601074219,0.6590999960899353,0.024960327148460467,-0.003501892089847046,-0.14281158447278453,None,None,None,None,None,None,None
cf1,936.18,0.5781097412109375,0.448387451171875,0.3264095458984375,0.6590999960899353,0.023425292968769707,-0.0017120361328131245,-0.14954071044935568,None,None,None,None,None,None,None
cf1,936.1999999999999,0.5786383666992188,0.44838748168945314,0.3233915100097656,0.642257034778595,0.026431274414086717,1.5258789065622503e-06,-0.15090179443373167,None,None,None,None,None,None,None
cf1,936.2199999999999,0.579037353515625,0.4482474060058594,0.32030816650390626,0.642257034778595,0.019949340820331445,-0.007003784179694092,-0.15416717529310875,None,None,None,None,None,None,None
cf1,936.24,0.5795267333984375,0.44827398681640623,0.31720770263671877,0.6564610004425049,0.02446899414050825,0.0013290405273361605,-0.1550231933586341,None,None,None,None,None,None,None
cf1,936.26,0.5800386962890625,0.4482673034667969,0.31403695678710936,0.6564610004425049,0.02559814453127026,-0.00033416748046774384,-0.15853729248061485,None,None,None,None,None,None,None
cf1,936.28,0.5805631713867188,0.4482376708984375,0.31065365600585937,0.6564610004425049,0.026223754882838658,-0.001481628417969409,-0.1691650390626532,None,None,None,None,None,None,None
cf1,936.3,0.5810376586914062,0.44817520141601563,0.3072145690917969,0.6782723069190979,0.023724365234394845,-0.0031234741210973234,-0.17195434570328003,None,None,None,None,None,None,None
