Crazyflie name,QTM packet timestamp (s),x (m),y (m),z (m),yaw (째),vx (m/s),vy (m/s),vz (m/s),vx_c (m/s),vy_c (m/s),vz_c (m/s),roll_c (째),pitch_c (째),yaw_rate_c (째/s),thrust_c (PWM)
cf2,9348.279999999999,0.5251390991210938,-0.5224146118164062,0.0076107320785522466,-0.08517549186944962,-0.0001342773437588818,0.0011932373047688239,-0.00010805130005627876,None,None,None,None,None,None,None
cf1,9348.3,0.5391719360351562,0.4514363403320313,0.01333871364593506,0.016713878139853477,0.0007415771484169609,-6.866455077986222e-05,0.0007482528686360547,None,None,None,None,None,None,None
cf2,9348.3,0.5251251831054687,-0.52242626953125,0.00762959623336792,-0.08517549186944962,-0.0006958007812377876,-0.0005828857421769529,0.0009432077407630959,None,None,None,None,None,None,None
cf1,9348.32,0.5391525268554688,0.45144403076171874,0.01334028720855713,0.016695767641067505,-0.0009704589843516853,0.00038452148436445287,7.86781311017809e-05,None,None,None,None,None,None,None
cf2,9348.32,0.5251356201171875,-0.5224328002929688,0.007612286567687989,-0.08540079742670059,0.0005218505859269529,-0.00032653808593028353,-0.0008654832839776779,None,None,None,None,None,None,None
cf1,9348.34,0.539159423828125,0.4514624938964844,0.013340533256530762,0.016695767641067505,0.0003448486328030631,0.0009231567382632089,1.230239868136307e-05,None,None,None,None,None,None,None
cf2,9348.34,0.5251384887695313,-0.52241748046875,0.00762998628616333,-0.08540079742670059,0.00014343261718583467,0.0007659912109214018,0.0008849859237477434,None,None,None,None,None,None,None
cf1,9348.359999999999,0.5391727905273438,0.4514390869140625,0.013334548950195313,0.0252483282238245,0.0006683349609866273,-0.0011703491211771555,-0.00029921531679312583,None,None,None,None,None,None,None
cf2,9348.359999999999,0.525142333984375,-0.522427001953125,0.007670187950134278,-0.08470948040485382,0.00019226074220110023,-0.000476074218779976,0.0020100831986863297,None,None,None,None,None,None,None
cf1,9348.38,0.5391572875976562,0.4514412841796875,0.013377212524414062,0.0252483282238245,-0.0007751464843605671,0.00010986328124777956,0.002133178710890888,None,None,None,None,None,None,None
cf2,9348.38,0.5251124877929687,-0.5224146118164062,0.0077298002243041996,-0.08470948040485382,-0.0014923095702841893,0.000619506835922512,0.0029806137084310244,None,None,None,None,None,None,None
cf1,9348.4,0.539122802734375,0.4514901123046875,0.013432392120361328,0.0252483282238245,-0.0017242431640264178,0.0024414062499472644,0.0027589797973030863,None,None,None,None,None,None,None
cf2,9348.4,0.5250902709960937,-0.5224511108398437,0.007847771644592286,-0.08470948040485382,-0.0011108398437244648,-0.0018249511718350319,0.005898571014275555,None,None,None,None,None,None,None
cf1,9348.42,0.5391215209960938,0.45153021240234376,0.01348021697998047,0.028498178347945213,-6.4086914057504e-05,0.0020050048827692014,0.0023912429809048855,None,None,None,None,None,None,None
cf2,9348.42,0.525031494140625,-0.5225226440429688,0.008091296195983887,-0.04056587070226669,-0.002938842773372552,-0.0035766601561733947,0.012176227569314267,None,None,None,None,None,None,None
cf1,9348.439999999999,0.5390991821289063,0.45156552124023436,0.01362984848022461,0.028498178347945213,-0.0011169433594521605,0.0017654418946521256,0.007481575012724152,None,None,None,None,None,None,None
cf2,9348.439999999999,0.5249292602539063,-0.5227222900390626,0.008844673156738281,-0.04056587070226669,-0.005111694336288608,-0.009982299805379447,0.03766884804032346,None,None,None,None,None,None,None
cf1,9348.46,0.5391597290039063,0.4517607421875,0.014387543678283692,0.11805789172649384,0.003027343749934497,0.009761047363069476,0.03788475990212717,None,None,None,None,None,None,None
cf2,9348.46,0.5247122802734375,-0.5229869995117188,0.010440784454345703,-0.012282274663448334,-0.010848999023201578,-0.013235473632522176,0.07980556487862912,None,None,None,None,None,None,None
cf1,9348.48,0.5393086547851562,0.45213912963867187,0.015979037284851075,0.11805789172649384,0.0074462890623334665,0.018919372558179916,0.07957468032663217,None,None,None,None,None,None,None
cf2,9348.48,0.524284912109375,-0.5232788696289062,0.013570662498474122,-0.012282274663448334,-0.021368408202659818,-0.014593505859054145,0.15649390220300502,None,None,None,None,None,None,None
cf1,9348.5,0.539484130859375,0.4526816711425781,0.01908975410461426,0.11805789172649384,0.008773803710745987,0.02712707519472075,0.15553584098476417,None,None,None,None,None,None,None
cf2,9348.5,0.5237810668945313,-0.5236243286132812,0.01830232048034668,-0.012282274663448334,-0.025192260741635164,-0.017272949218372524,0.23658289908846378,None,None,None,None,None,None,None
cf1,9348.52,0.5397903442382813,0.4536414489746094,0.023827444076538088,0.19982518255710602,0.015310668944983319,0.047988891600516115,0.2368844985910208,None,None,None,None,None,None,None
cf2,9348.52,0.5231513061523437,-0.5240170288085938,0.024799928665161133,0.4249012768268585,-0.0314880371086911,-0.019635009765199784,0.32488040923363126,None,None,None,None,None,None,None
cf1,9348.539999999999,0.5401998291015625,0.45491311645507815,0.030381824493408205,0.19982518255710602,0.020474243165474425,0.0635833740278326,0.3277190208661583,None,None,None,None,None,None,None
cf2,9348.539999999999,0.5223735961914062,-0.5243793334960938,0.03314466857910156,0.4249012768268585,-0.038885498049563406,-0.018115234376251222,0.4172369957258614,None,None,None,None,None,None,None
cf1,9348.56,0.5407026977539062,0.456638916015625,0.03882684326171875,0.24860158562660217,0.025143432616637384,0.08628997802545943,0.42225093840631045,None,None,None,None,None,None,None
cf2,9348.56,0.5213782958984375,-0.5248640747070312,0.04302201461791992,1.0314396619796753,-0.04976501464734782,-0.024237060546343205,0.49386730193013795,None,None,None,None,None,None,None
cf1,9348.58,0.5413628540039063,0.4586994323730469,0.04900719833374024,0.24860158562660217,0.03300781249928168,0.10302581786884527,0.5090177535899636,None,None,None,None,None,None,None
cf2,9348.58,0.5202349853515625,-0.5253612060546875,0.05420956420898437,1.0314396619796753,-0.05716552734250211,-0.024856567382271266,0.5593774795410126,None,None,None,None,None,None,None
cf1,9348.6,0.5419733886718751,0.46119845581054686,0.06111109924316406,0.24860158562660217,0.03052673339777303,0.12495117187227107,0.605195045457981,None,None,None,None,None,None,None
cf2,9348.6,0.5190167236328125,-0.5259619750976563,0.06649491119384766,1.0314396619796753,-0.060913085936173283,-0.030038452147784132,0.6142673492297563,None,None,None,None,None,None,None
cf1,9348.619999999999,0.5427265625000001,0.46388189697265625,0.07482292175292969,0.9064081311225891,0.03765869140885347,0.1341720581147437,0.6855911255356707,None,None,None,None,None,None,None
cf2,9348.619999999999,0.5176600952148438,-0.5265148315429687,0.07958831787109376,1.6308908462524414,-0.06783142090312291,-0.027642822267532917,0.6546703339075566,None,None,None,None,None,None,None
cf1,9348.64,0.5434873046875001,0.4668796691894531,0.09039527893066407,0.9064081311225891,0.038037109374169556,0.14988861083657165,0.7786178588697233,None,None,None,None,None,None,None
cf2,9348.64,0.5163164672851562,-0.5271327514648437,0.09320265197753906,1.6308908462524414,-0.06718139648291173,-0.030895996093074984,0.6807167053074066,None,None,None,None,None,None,None
cf1,9348.66,0.5442940063476562,0.4698937377929688,0.10753449249267578,1.4644427299499512,0.04033508300692821,0.1507034301724936,0.8569606780818801,None,None,None,None,None,None,None
cf2,9348.66,0.5148947143554687,-0.5276063232421875,0.1069863510131836,2.0300276279449463,-0.07108764648282291,-0.02367858886667069,0.6891849517671835,None,None,None,None,None,None,None
cf1,9348.68,0.5450428466796875,0.4728747863769531,0.12597824096679688,1.4644427299499512,0.037442016600745934,0.14905242919596384,0.9221874236859255,None,None,None,None,None,None,None
cf2,9348.68,0.5134910888671875,-0.5281815795898438,0.12083486938476563,2.0300276279449463,-0.07018127441252872,-0.028762817382188,0.6924259185639875,None,None,None,None,None,None,None
cf1,9348.699999999999,0.5457706909179688,0.47555361938476565,0.14572738647460937,1.4644427299499512,0.03639221191658132,0.13394165039988426,0.9874572754588787,None,None,None,None,None,None,None
cf2,9348.699999999999,0.5121358642578125,-0.5287212524414062,0.1345695343017578,2.0300276279449463,-0.06776123047343292,-0.02698364257998629,0.6867332458970766,None,None,None,None,None,None,None
cf1,9348.72,0.5464269409179687,0.4780192565917969,0.16642666625976563,1.9437159299850464,0.03281249999927947,0.12328186034887131,1.034963989235222,None,None,None,None,None,None,None
cf2,9348.72,0.51079150390625,-0.52923681640625,0.1479493865966797,2.3195550441741943,-0.06721801757665728,-0.025778198241625173,0.6689926147314919,None,None,None,None,None,None,None
cf1,9348.74,0.5469832763671875,0.4800820617675781,0.1879281005859375,1.9437159299850464,0.027816772460329653,0.10314025878680985,1.0750717162851275,None,None,None,None,None,None,None
cf2,9348.74,0.5096707153320312,-0.529741455078125,0.16078239440917969,2.3195550441741943,-0.05603942870971792,-0.025231933593199328,0.6416503906109937,None,None,None,None,None,None,None
cf1,9348.76,0.5475249023437501,0.4819403991699219,0.21018563842773438,2.3287851810455322,0.0270812988275388,0.09291687011515967,1.112876892065552,None,None,None,None,None,None,None
cf2,9348.76,0.5084084777832031,-0.530220703125,0.17312313842773439,2.5544650554656982,-0.06311187744002986,-0.023962402343229307,0.6170372009142664,None,None,None,None,None,None,None
cf1,9348.779999999999,0.5479904174804687,0.4833062438964844,0.2328412780761719,2.3287851810455322,0.02327575683754205,0.06829223633284734,1.1327819825001748,None,None,None,None,None,None,None
cf2,9348.779999999999,0.50735107421875,-0.5306862182617188,0.184796875,2.5544650554656982,-0.05287017822630708,-0.023275756837547602,0.5836868286536261,None,None,None,None,None,None,None
cf1,9348.8,0.5482420043945313,0.48437347412109377,0.25600244140625,2.3287851810455322,0.012579345702854105,0.05336151122930329,1.1580581664786278,None,None,None,None,None,None,None
cf2,9348.8,0.5062969970703125,-0.5310377197265626,0.1957432098388672,2.5544650554656982,-0.05270385742072592,-0.017575073241803917,0.5473167419314132,None,None,None,None,None,None,None
cf1,9348.82,0.5485151977539062,0.4850653686523438,0.2793478698730469,2.635577917098999,0.01365966796844802,0.0345947265617456,1.167271423314365,None,None,None,None,None,None,None
cf2,9348.82,0.5053254089355469,-0.5313206176757813,0.20588861083984375,2.7128820419311523,-0.04857940673722015,-0.014144897460629413,0.5072700500377549,None,None,None,None,None,None,None
cf1,9348.84,0.5486640014648437,0.4853428039550781,0.3028293762207031,2.635577917098999,0.007440185546712908,0.013871765136413717,1.1740753173571836,None,None,None,None,None,None,None
cf2,9348.84,0.5045154724121094,-0.53168994140625,0.21521217346191407,2.7128820419311523,-0.04049682617099237,-0.018466186523032824,0.4661781310933403,None,None,None,None,None,None,None
cf1,9348.859999999999,0.5487138671875,0.4851939392089844,0.32631753540039066,2.9491333961486816,0.0024932861329876378,-0.007443237305200146,1.1744079590655545,None,None,None,None,None,None,None
cf2,9348.859999999999,0.5038324890136718,-0.53189013671875,0.22370048522949218,2.7810277938842773,-0.034149169924237,-0.010009765625688338,0.42441558840824184,None,None,None,None,None,None,None
cf1,9348.88,0.5486893920898438,0.4846902770996094,0.3495992431640625,2.9491333961486816,-0.0012237548827852996,-0.02518310546820155,1.164085388158182,None,None,None,None,None,None,None
cf2,9348.88,0.5032084350585938,-0.5321027221679687,0.23142498779296874,2.7810277938842773,-0.03120269775322041,-0.010629272460706019,0.3862251281653978,None,None,None,None,None,None,None
cf1,9348.9,0.548559326171875,0.4838235168457031,0.372742431640625,3.201195478439331,-0.006503295898299277,-0.04333801269436659,1.1571594238028664,None,None,None,None,None,None,None
cf2,9348.9,0.5026135559082031,-0.53224951171875,0.2384304656982422,2.7810277938842773,-0.029743957518885377,-0.007339477538904293,0.35027389525602676,None,None,None,None,None,None,None
cf1,9348.92,0.5484017944335937,0.48263159179687504,0.39544607543945315,3.201195478439331,-0.007876586913890971,-0.05959625244010368,1.1351821899166297,None,None,None,None,None,None,None
cf2,9348.92,0.5021935424804688,-0.5324188232421875,0.24464706420898438,2.7649292945861816,-0.02100067138625884,-0.008465576171688482,0.3108299255303247,None,None,None,None,None,None,None
cf1,9348.939999999999,0.5480899658203126,0.48106185913085936,0.41771218872070315,3.201195478439331,-0.015591430665135807,-0.07848663330620899,1.1133056641394534,None,None,None,None,None,None,None
cf2,9348.939999999999,0.5018697204589844,-0.5324520874023437,0.25010182189941405,2.7649292945861816,-0.016191101075339102,-0.0016632080079276856,0.2727378845403352,None,None,None,None,None,None,None
cf1,9348.96,0.547745361328125,0.4793272705078125,0.43944012451171877,3.3508379459381104,-0.017230224609000856,-0.08672943115045054,1.0863967895270672,None,None,None,None,None,None,None
cf2,9348.96,0.5016634216308594,-0.5324529418945313,0.254947509765625,2.635112762451172,-0.010314941406022404,-4.272460937722044e-05,0.24228439330526041,None,None,None,None,None,None,None
cf1,9348.98,0.5473016967773437,0.476818359375,0.46028118896484377,3.3508379459381104,-0.022183227538578997,-0.1254455566378861,1.0420532226335044,None,None,None,None,None,None,None
cf2,9348.98,0.501552001953125,-0.5323966674804688,0.2592168273925781,2.635112762451172,-0.005570983886599679,0.002813720703065048,0.21346588134299527,None,None,None,None,None,None,None
cf1,9349.0,0.5468451538085938,0.474522216796875,0.48065493774414064,3.3508379459381104,-0.0228271484370004,-0.11480712890374367,1.018687438942608,None,None,None,None,None,None,None
cf2,9349.0,0.5015200500488282,-0.5322678833007812,0.2630406188964844,2.635112762451172,-0.0015975952148068351,0.006439208984236222,0.19118957519114027,0.0002691179272638224,-0.0010846968988109799,0.0369593811035156,None,None,None,None
cf1,9349.02,0.5463524169921875,0.47200042724609376,0.5001724243164063,3.457322120666504,-0.024636840819775706,-0.12608947753631025,0.9758743285919813,None,None,None,None,None,None,None
cf2,9349.02,0.5014436340332031,-0.53210791015625,0.266447021484375,2.4976656436920166,-0.0038208007811678436,0.00799865722638542,0.17032012939081229,0.0008492350519821977,-0.0022628730109423667,0.033552978515625,None,None,None,None
cf1,9349.039999999999,0.5457745361328125,0.4694387512207031,0.5189788208007813,3.457322120666504,-0.02889404297074951,-0.1280838012783857,0.9403198242837458,None,None,None,None,None,None,None
cf2,9349.039999999999,0.5016688537597657,-0.5319203491210938,0.26939328002929686,2.4976656436920166,0.011260986328904932,0.009378051758461703,0.14731292725627573,-0.000857983688124626,-0.0034973646916280797,0.030606719970703133,None,None,None,None
cf1,9349.06,0.545202880859375,0.466654296875,0.5369387817382812,3.4752912521362305,-0.028582763671251055,-0.1392227172821173,0.8979980468553967,None,None,None,None,None,None,None
cf2,9349.06,0.5016220092773438,-0.5316026000976563,0.2721893310546875,2.3564202785491943,-0.002342224121042402,0.01588745117152861,0.1398025512664812,-0.000468115250331876,-0.005309659465399588,0.027810668945312478,None,None,None,None
cf1,9349.08,0.5444963989257813,0.4637624816894531,0.5539906616210938,3.4752912521362305,-0.03532409667891312,-0.14459075927418766,0.8525939941220165,None,None,None,None,None,None,None
cf2,9349.08,0.50182080078125,-0.5312862548828126,0.27456509399414064,2.3564202785491943,0.00993957519509434,0.015817260741839444,0.1187881469700636,-0.0016461513986201614,-0.006800279835397906,0.025434906005859348,None,None,None,None
cf1,9349.1,0.5438475952148437,0.46077584838867186,0.5701259155273437,3.4752912521362305,-0.03244018554617001,-0.1493316650358029,0.8067626952948863,None,None,None,None,None,None,None
cf2,9349.1,0.5021030883789063,-0.530958251953125,0.2764454345703125,2.3564202785491943,0.014114379882504413,0.01640014648402195,0.09401702880654123,-0.00309936346431045,-0.008089788322450277,0.02355456542968748,None,None,None,None
cf1,9349.119999999999,0.5431625366210938,0.45775241088867186,0.5853936767578125,3.408968687057495,-0.03425292968986256,-0.15117187501044943,0.7633880615762066,None,None,None,None,None,None,None
cf2,9349.119999999999,0.5024605407714844,-0.5306026611328125,0.2780235595703125,2.2558975219726562,0.017872619630141234,0.017779541016851242,0.07890625000545341,-0.004693460960957835,-0.00926773692690409,0.021976440429687494,None,None,None,None
cf1,9349.14,0.5424396362304688,0.45476123046875,0.599720947265625,3.408968687057495,-0.036145019530463965,-0.1495590209928283,0.7163635253749864,None,None,None,None,None,None,None
cf2,9349.14,0.5028847961425781,-0.5301834106445312,0.2792666015625,2.2558975219726562,0.021212768554221762,0.020962524413606753,0.062152099608018305,-0.0063111160506356045,-0.010480328359771859,0.020733398437499995,None,None,None,None
cf1,9349.16,0.5417142333984375,0.4516722106933594,0.6132012939453125,3.2958526611328125,-0.036270141600771466,-0.15445098876615923,0.6740173339696657,None,None,None,None,None,None,None
cf2,9349.16,0.5032709045410156,-0.5297879638671875,0.28020925903320315,2.1885335445404053,0.019305419921456447,0.019772338866753957,0.04713287353412902,-0.0075873160533570395,-0.011514939207688556,0.019790740966796838,None,None,None,None
cf1,9349.18,0.5409783935546875,0.4485928039550781,0.6256321411132812,3.2958526611328125,-0.036791992186698416,-0.15397033691070297,0.6215423583848689,None,None,None,None,None,None,None
cf2,9349.18,0.5036675109863281,-0.529336669921875,0.2808283996582031,2.1885335445404053,0.0198303222651909,0.02256469726513317,0.030957031249322208,-0.008728539171193065,-0.012625476012976351,0.01917160034179688,None,None,None,None
cf1,9349.199999999999,0.5402661743164062,0.4455878295898438,0.6373167114257813,3.1612887382507324,-0.03561096191652359,-0.15024871827210226,0.5842285156653844,None,None,None,None,None,None,None
cf2,9349.199999999999,0.5040535583496094,-0.5288929443359375,0.2812152709960938,2.1885335445404053,0.01930236816539893,0.022186279298409883,0.019343566895870596,-0.009735646544167165,-0.013635914893509,0.01878472900390621,None,None,None,None
cf1,9349.22,0.5395593872070312,0.44260357666015626,0.6481019897460938,3.1612887382507324,-0.035339355467978395,-0.1492126464811187,0.5392639160038544,None,None,None,None,None,None,None
cf2,9349.22,0.5044237060546876,-0.5284253540039062,0.2813772277832031,2.1748812198638916,0.018507385253503518,0.023379516601052353,0.008097839355290282,-0.010597044319621815,-0.014654777591934209,0.018622772216796868,None,None,None,None
cf1,9349.24,0.5390022583007813,0.4399393920898438,0.6582125244140625,3.1612887382507324,-0.027856445311888266,-0.13320922851271622,0.5055267333874024,None,None,None,None,None,None,None
cf2,9349.24,0.5048128051757813,-0.527980224609375,0.2813294982910156,2.1748812198638916,0.01945495605426284,0.022256469726075666,-0.0023864746093233747,-0.01147388257459055,-0.01554026521693561,0.018670501708984377,None,None,None,None
cf1,9349.26,0.5383470458984375,0.4371572265625,0.6674036254882812,3.0090010166168213,-0.03276062011647418,-0.1391082763641527,0.459555053700905,0.0029901058561903654,0.012696599463690698,0.032596374511718706,None,None,None,None
cf2,9349.26,0.5051903381347657,-0.5275250854492187,0.28112124633789065,2.132866621017456,0.018876647948805468,0.022756958007316787,-0.010412597656020739,-0.012256847483093036,-0.016411413068344524,0.018878753662109338,None,None,None,None
cf1,9349.279999999999,0.5377118530273438,0.4345167846679688,0.6757684936523438,3.0090010166168213,-0.03175964355688047,-0.1320220947356866,0.418243408232038,0.004511401025176123,0.018958041466311183,0.02423150634765614,None,None,None,None
cf2,9349.279999999999,0.5054990539550781,-0.5271248168945313,0.2808239440917969,2.132866621017456,0.015435791016689149,0.02001342773575556,-0.01486511230571529,-0.012846232637779934,-0.017157974869613575,0.019176055908203093,None,None,None,None
cf1,9349.3,0.5370899047851563,0.43204925537109373,0.683490478515625,3.0090010166168213,-0.031097412108697764,-0.12337646484105938,0.38609924315563426,0.0056768277839379985,0.023421897143024062,0.0165095214843749,None,None,None,None
cf2,9349.3,0.5057543029785156,-0.5267202758789062,0.2804579162597656,2.132866621017456,0.012762451171598554,0.02022705078081035,-0.01830139160116393,-0.01326630367351319,-0.017919881108257322,0.01954208374023436,None,None,None,None
cf1,9349.32,0.5365238647460938,0.429640869140625,0.6903897094726562,2.861988067626953,-0.028302001952505495,-0.1204193115208085,0.344961547844028,0.0065250229092842435,0.027113570420786347,0.009610290527343746,None,None,None,None
cf2,9349.32,0.5059634704589844,-0.526317138671875,0.28004681396484377,2.042454957962036,0.010458374023208239,0.020156860351121186,-0.020555114745644386,-0.013554479254569712,-0.01867968614174428,0.019953186035156223,None,None,None,None
cf1,9349.34,0.5360082397460938,0.4274732055664063,0.6965118408203125,2.861988067626953,-0.025781249999438226,-0.10838317870856995,0.30610656737613173,0.007219229934667716,0.030058687104744575,0.003488159179687478,None,None,None,None
cf2,9349.34,0.5061023864746094,-0.5259086303710938,0.27965588378906253,2.042454957962036,0.006945800781097899,0.020425415038614524,-0.019546508788635064,-0.013653777637571148,-0.019467852788585423,0.020344116210937457,None,None,None,None
cf1,9349.359999999999,0.5354971313476563,0.4253620300292969,0.7019005737304688,2.7910068035125732,-0.02555541992364081,-0.10555877686276527,0.2694366455264384,0.007856734077444283,0.03267512383773506,-0.001900573730468813,None,None,None,None
cf2,9349.359999999999,0.50618505859375,-0.5255598754882813,0.27930990600585937,1.9371726512908936,0.004133605957315328,0.017437744141830146,-0.017298889161354043,-0.013648741679333753,-0.020140830353439578,0.020690093994140624,None,None,None,None
cf1,9349.38,0.53506298828125,0.42347976684570315,0.7064292602539063,2.7910068035125732,-0.02170715331984232,-0.09411315917763304,0.2264343261669334,0.008340535965792123,0.034849628396011384,-0.006429260253906333,None,None,None,None
cf2,9349.38,0.5062565612792969,-0.5252416381835937,0.278946533203125,1.9371726512908936,0.0035751342772668672,0.01591186523403305,-0.018168640136321013,-0.013637033770033303,-0.02074017338972724,0.021053466796874976,None,None,None,None
cf1,9349.4,0.5346878662109376,0.42182775878906253,0.7100328979492188,2.7910068035125732,-0.018756103515211998,-0.08260040283022797,0.18018188476169036,0.008731499997673173,0.03665446320836276,-0.0100328979492188,None,None,None,None
cf2,9349.4,0.5062398681640625,-0.5249653930664062,0.27868182373046874,1.9371726512908936,-0.0008346557616984885,0.01381225585907302,-0.013235473632524952,-0.01343278376066968,-0.021293846235926575,0.021318176269531253,None,None,None,None
cf1,9349.42,0.5343497314453125,0.42028207397460937,0.7128636474609376,2.7155280113220215,-0.016906738280883626,-0.0772842407209712,0.1415374755828505,0.009057701948621674,0.03826955418596809,-0.0128636474609376,None,None,None,None
cf2,9349.42,0.5061576232910157,-0.5247331542968751,0.27842578125,1.8415052890777588,-0.004112243652253544,0.011611938476304373,-0.012802124023157169,-0.013094071909138793,-0.021787851267114168,0.021574218749999985,None,None,None,None
cf1,9349.439999999999,0.5340390625,0.418947021484375,0.7148450927734376,2.7155280113220215,-0.01553344726669914,-0.06675262451633186,0.09907226563184786,0.00936453207890408,0.03960829591212363,-0.014845092773437596,None,None,None,None
cf2,9349.439999999999,0.5060603332519531,-0.5245323486328125,0.278198486328125,1.8415052890777588,-0.004864501953464173,0.010040283203821665,-0.011364746094536037,-0.012738317734838436,-0.022220681136624586,0.021801513671874995,None,None,None,None
cf1,9349.46,0.5338129272460937,0.41779446411132815,0.7161470336914063,2.7155280113220215,-0.011306762695065475,-0.05762786865108559,0.06509704589701697,0.009546145961093058,0.040737180294143326,-0.016147033691406354,None,None,None,None
cf2,9349.46,0.5059216918945313,-0.52436328125,0.27802810668945316,1.7694613933563232,-0.006932067870939152,0.008453369140441813,-0.008518981933405844,-0.012297803916550488,-0.022608699924468158,0.02197189331054683,None,None,None,None
cf1,9349.48,0.53364306640625,0.416818115234375,0.7167830200195313,2.6042182445526123,-0.008493041992000428,-0.04881744384659127,0.03179931640555611,0.009659422105395724,0.041673852543065826,-0.01678302001953136,None,None,None,None
cf2,9349.48,0.5057107849121094,-0.5242605590820313,0.27789321899414066,1.7694613933563232,-0.010545349120863657,0.005136108398322592,-0.0067443847654778954,-0.011708588190058286,-0.022906303033001344,0.022106781005859333,None,None,None,None
cf1,9349.5,0.5335066528320312,0.4159845886230469,0.716809814453125,2.6042182445526123,-0.0068206787107903954,-0.0416763305654967,0.0013397216796536382,0.009740718317673473,0.042458832653132196,-0.016809814453125016,None,None,None,None
cf2,9349.5,0.5054834289550781,-0.5241879272460938,0.2777878723144531,1.7694613933563232,-0.011367797851315475,0.0036315917967972844,-0.005267333984261757,-0.011088066220471334,-0.02315165848435668,0.022212127685546867,None,None,None,None
cf1,9349.52,0.5334446411132813,0.4154049987792969,0.7163717651367187,2.446455478668213,-0.003100585937431166,-0.02897949218686773,-0.02190246581983344,0.009741016007661248,0.04300222737791675,-0.016371765136718786,None,None,None,None
cf2,9349.52,0.5052037963867188,-0.5241071166992187,0.2777195739746094,1.657557487487793,-0.01398162841766427,0.004040527343663403,-0.003414916992112005,-0.010321571927208398,-0.023429904445283218,0.0222804260253906,None,None,None,None
cf1,9349.539999999999,0.5334410400390626,0.4150357666015625,0.7154254150390625,2.446455478668213,-0.00018005371094776957,-0.01846160888799509,-0.04731750488608072,0.009680746396498312,0.04335123553142352,-0.015425415039062584,None,None,None,None
cf2,9349.539999999999,0.5048470458984375,-0.524081787109375,0.2776554260253906,1.657557487487793,-0.01783752441529346,0.0012664794922721545,-0.003207397461160377,-0.009366612062355178,-0.023636182118821316,0.022344573974609372,None,None,None,None
cf1,9349.56,0.5335017700195313,0.41486807250976565,0.7141427612304687,2.300830125808716,0.003036499023368111,-0.008384704589659175,-0.0641326904282914,0.00954795413430553,0.04351973810272356,-0.014142761230468759,None,None,None,None
cf2,9349.56,0.504435546875,-0.5241212158203125,0.27761297607421875,1.5309447050094604,-0.02057495117142647,-0.0019714355468283705,-0.002122497558546843,-0.008272302193676594,-0.0237405827815095,0.022387023925781235,None,None,None,None
cf1,9349.58,0.533572509765625,0.4148004150390625,0.7125938720703126,2.300830125808716,0.0035369873046092295,-0.0033828735350832527,-0.07744445800611774,0.009416150873855625,0.04359546288228535,-0.012593872070312595,None,None,None,None
cf2,9349.58,0.50402490234375,-0.5241865234375,0.27763058471679686,1.5309447050094604,-0.0205322265620548,-0.0032653808593083866,0.0008804321288859885,-0.007163911260469457,-0.023784517800425852,0.02236941528320313,None,None,None,None
cf1,9349.6,0.53375732421875,0.41499426269531253,0.7108408203125001,2.300830125808716,0.00924072265604905,0.009692382812289613,-0.08765258788871097,0.00913472764549948,0.04344515289170917,-0.01084082031250011,None,None,None,None
cf2,9349.6,0.5035932312011718,-0.5242648315429688,0.2776399841308594,1.5309447050094604,-0.021583557128435793,-0.003915405273350348,0.0004699707031161182,-0.005973052103552453,-0.02379540651727584,0.022360015869140604,None,None,None,None
cf1,9349.619999999999,0.5339301147460938,0.4153055419921875,0.7089933471679688,2.1960229873657227,0.008639526367785078,0.01556396484482414,-0.09237365723294823,0.008891024054816166,0.0431809848084021,-0.008993347167968846,None,None,None,None
cf2,9349.619999999999,0.503161376953125,-0.524375732421875,0.27762673950195316,1.4161231517791748,-0.02159271240383325,-0.005545043945693029,-0.0006622314453571865,-0.004761218963302291,-0.02372935338525354,0.022373260498046832,None,None,None,None
cf1,9349.64,0.5341772460937501,0.41578900146484377,0.7071116333007813,2.1960229873657227,0.01235656738254549,0.0241729736322857,-0.09408569335732109,0.008543680975368319,0.04276325614883361,-0.00711163330078135,None,None,None,None
cf2,9349.64,0.5027334899902344,-0.5245452270507812,0.277621337890625,1.4161231517791748,-0.021394348144065232,-0.008474731445127648,-0.00027008056640264176,-0.0035421395249991064,-0.023538873522760493,0.022378662109375003,None,None,None,None
cf1,9349.66,0.5344754028320312,0.41642428588867186,0.705099365234375,2.179393768310547,0.014907836913732209,0.031764221190711525,-0.10061340331811926,0.00812437107745908,0.0422026835234767,-0.005099365234375042,None,None,None,None
cf2,9349.66,0.5022709045410156,-0.5247534790039062,0.27765621948242186,1.3211487531661987,-0.023129272460431793,-0.010412597656023514,0.0017440795898057248,-0.0021877028535546104,-0.02325909729925056,0.022343780517578127,None,None,None,None
cf1,9349.68,0.534801513671875,0.4172456970214844,0.7032762451171876,2.179393768310547,0.016305541991833893,0.04107055663973016,-0.09115600585738215,0.007673726311628819,0.041455794231293475,-0.003276245117187604,None,None,None,None
cf2,9349.68,0.5018235778808594,-0.5249556274414062,0.27768338012695315,1.3211487531661987,-0.022366333007323446,-0.010107421874779065,0.0013580322265347444,-0.0008376585894287693,-0.022951412354557856,0.02231661987304684,None,None,None,None
cf1,9349.699999999999,0.53518408203125,0.41821749877929687,0.701392578125,2.179393768310547,0.019128417970072274,0.048590087893982316,-0.09418334961588812,0.007128126689292307,0.04055245135863691,-0.0013925781250000435,None,None,None,None
cf2,9349.699999999999,0.5013510131835938,-0.5251983642578125,0.27773629760742186,1.3211487531661987,-0.02362823486491536,-0.012136840821153771,0.002645874023618189,0.0006291246092718372,-0.02253175494798061,0.022263702392578133,None,None,None,None
cf1,9349.72,0.53558203125,0.4192333679199219,0.6997037353515625,2.2031257152557373,0.019897460937067013,0.050793457030142,-0.08444213867003203,0.006538483955423644,0.03958392375872326,0.0002962646484374609,None,None,None,None
cf2,9349.72,0.5009062805175781,-0.5254344482421875,0.2777832946777344,1.2557259798049927,-0.02223663330029636,-0.011804199218493539,0.00234985351557504,0.002047462387815464,-0.022075900289779765,0.022216705322265606,None,None,None,None
cf1,9349.74,0.53598974609375,0.42034561157226563,0.6981692504882813,2.2031257152557373,0.02038574218705591,0.05561218261597347,-0.07672424316238662,0.005917629549072699,0.03848905053338519,0.0018307495117186878,None,None,None,None
cf2,9349.74,0.5004479675292969,-0.5257139892578125,0.27782601928710937,1.2557259798049927,-0.022915649413562344,-0.013977050780944689,0.0021362304687028155,0.003549622124023217,-0.02148572721547834,0.022173980712890617,None,None,None,None
cf1,9349.76,0.5364285278320312,0.4215643310546875,0.696842041015625,2.280567169189453,0.021939086913578997,0.06093597411976287,-0.06636047363136643,0.005217249706245203,0.03724837660816284,0.0031579589843749867,None,None,None,None
cf2,9349.76,0.49998394775390625,-0.526034912109375,0.27791897583007813,1.2059346437454224,-0.02320098876902471,-0.016046142577774168,0.00464782714833647,0.005114778240044044,-0.020751175537660413,0.02208102416992186,None,None,None,None
cf1,9349.779999999999,0.536915771484375,0.42291259765625,0.6954981689453125,2.280567169189453,0.024362182618871984,0.06741333008278516,-0.06719360352026962,0.004389638414551585,0.03582168376750527,0.0045018310546874885,None,None,None,None
cf2,9349.779999999999,0.4995714111328125,-0.526343017578125,0.27804638671875,1.2059346437454224,-0.020626831056113303,-0.015405273438561374,0.006370544434032982,0.006540026226996292,-0.019989504507617346,0.021953613281250006,None,None,None,None
cf1,9349.8,0.5373967895507813,0.424298828125,0.694425537109375,2.280567169189453,0.02405090331979125,0.06931152343598843,-0.05363159179570039,0.003519242654498483,0.03428465352906425,0.005574462890624909,None,None,None,None
cf2,9349.8,0.4991627197265625,-0.5266773071289063,0.27821414184570314,1.2059346437454224,-0.02043457031205369,-0.016714477538700014,0.008387756347475007,0.007982733442778568,-0.019108721708195338,0.021785858154296844,None,None,None,None
cf1,9349.82,0.5378796997070313,0.42566278076171876,0.6935568237304688,2.3204448223114014,0.024145507811973756,0.06819763183444813,-0.04343566894436492,0.002570817313305237,0.03269545107223837,0.00644317626953117,None,None,None,None
cf2,9349.82,0.4988016357421875,-0.52702294921875,0.27832608032226563,1.1506773233413696,-0.018054199218356427,-0.017282104491811688,0.0055969238280023205,0.009294117402363494,-0.01815902486477049,0.021673919677734355,None,None,None,None
cf1,9349.84,0.5383828735351562,0.4270986633300781,0.6928070678710938,2.3204448223114014,0.025158691405697108,0.07179412841640084,-0.03748779296793066,0.0014915853207268625,0.03092268907546193,0.007192932128906149,None,None,None,None
cf2,9349.84,0.49846759033203125,-0.527361328125,0.27842584228515627,1.1506773233413696,-0.01670227050744779,-0.016918945312130295,0.004988098144422725,0.010521889858349261,-0.017177112722349976,0.021574157714843722,None,None,None,None
cf1,9349.859999999999,0.5388775024414063,0.42856042480468753,0.692173583984375,2.3584890365600586,0.024731445314213073,0.07308807373552262,-0.03167419433812936,0.00031783953278562675,0.028990106465668568,0.007826416015624948,None,None,None,None
cf2,9349.859999999999,0.498162109375,-0.5276959228515625,0.2785813293457031,1.1083883047103882,-0.0152740478526186,-0.0167297363292813,0.0077743530278801265,0.011656679945351437,-0.016164251338695177,0.021418670654296867,None,None,None,None
cf1,9349.88,0.53936181640625,0.429985595703125,0.6916534423828126,2.3584890365600586,0.02421569824165737,0.07125854492031791,-0.026007080077554347,-0.0009735522345636478,0.026951250902962843,0.008346557617187389,None,None,None,None
cf2,9349.88,0.4978383178710938,-0.528041259765625,0.2787752990722656,1.1083883047103882,-0.01618957519495723,-0.017266845702746413,0.009698486327912948,0.0128381118677801,-0.015056534222580902,0.021224700927734375,None,None,None,None
cf1,9349.9,0.5398504028320312,0.4314546813964844,0.6912276611328125,2.3584890365600586,0.024429321288526817,0.07345428466636697,-0.021289062499537038,-0.0024631623320269954,0.024641106566153127,0.008772338867187424,None,None,None,None
cf2,9349.9,0.497556884765625,-0.5283876342773438,0.2790118713378906,1.1083883047103882,-0.014071655273132744,-0.0173187255855628,0.011828613280992429,0.013877146510510849,-0.013925484163352219,0.020988128662109362,None,None,None,None
cf1,9349.92,0.5402839965820313,0.4328188171386719,0.6908489990234375,2.415663242340088,0.021679687499530375,0.06820678710788453,-0.018933105468335886,-0.004003762667163575,0.022242522186697145,0.009151000976562407,None,None,None,None
cf2,9349.92,0.49732861328125,-0.5287261352539062,0.2792497253417969,1.0904388427734375,-0.0114135742185002,-0.016925048827750856,0.011892700195052707,0.01474136737530813,-0.012811670489859149,0.020750274658203116,None,None,None,None
cf1,9349.939999999999,0.5407129516601563,0.4342154235839844,0.6905574951171876,2.415663242340088,0.021447753907733257,0.06983032227045335,-0.014575195313506973,-0.005806683623891666,0.019429124456757235,0.009442504882812397,None,None,None,None
cf2,9349.939999999999,0.4971395263671875,-0.529110107421875,0.27944790649414064,1.0904388427734375,-0.009454345703778367,-0.019198608399767825,0.00990905761787334,0.01551178501323795,-0.011553698614101054,0.020552093505859348,None,None,None,None
cf1,9349.96,0.541144287109375,0.4355788269042969,0.6903532104492187,2.461568593978882,0.02156677246046399,0.0681701660141362,-0.01021423339821934,-0.007933077021054738,0.01614950244062508,0.009646789550781243,None,None,None,None
cf2,9349.96,0.49698193359375004,-0.5294716796875,0.27966488647460935,1.1078437566757202,-0.00787963867170125,-0.01807861328085254,0.010848999023198802,0.01616049796312143,-0.010343228055540983,0.020335113525390636,None,None,None,None
cf1,9349.98,0.5415433959960938,0.43684051513671873,0.690165771484375,2.461568593978882,0.019955444335503957,0.06308441161971513,-0.009371948241982665,-0.010179276731340243,0.012413465874132085,0.009834228515624988,None,None,None,None
cf2,9349.98,0.49687832641601565,-0.5298426513671876,0.27988314819335935,1.1078437566757202,-0.00518035888660634,-0.018548583983974208,0.010913085937261858,0.016656940783399698,-0.009102492207896386,0.020116851806640634,None,None,None,None
cf1,9350.0,0.5418960571289063,0.438076904296875,0.689981689453125,2.461568593978882,0.01763305664024086,0.06181945800646469,-0.00920410156229794,-0.012308686182026464,0.007922035747163998,0.010018310546874964,None,None,None,None
cf2,9350.0,0.4967974548339844,-0.5301619873046876,0.28007385253906253,1.1078437566757202,-0.004043579101473682,-0.01596679687465139,0.00953521728495058,0.017043073320092163,-0.008010398704320739,0.01992614746093746,None,None,None,None
cf1,9350.02,0.5422293090820313,0.4392823486328125,0.6898898315429688,2.4838876724243164,0.016662597655883626,0.060272216795559386,-0.004592895507709804,-0.013960898143969436,0.0028425077265818825,0.010110168457031166,None,None,None,None
cf2,9350.02,0.49673077392578124,-0.5304641723632812,0.2802666931152344,1.1307190656661987,-0.0033340454100854733,-0.015109252929354989,0.00964202880838253,0.017364784029930604,-0.006960334619838557,0.0197333068847656,None,None,None,None
cf1,9350.039999999999,0.5425231323242188,0.44037930297851563,0.6897781372070313,2.4838876724243164,0.014691162110391408,0.05484771728894697,-0.0055847167972608025,-0.014798902353795218,-0.0018490290315669763,0.010221862792968661,None,None,None,None
cf2,9350.039999999999,0.49668988037109374,-0.5307819213867188,0.2804581604003906,1.1307190656661987,-0.0020446777345165534,-0.015887451172973566,0.00957336425847336,0.01761311575710773,-0.005849444401527021,0.019541839599609367,None,None,None,None
cf1,9350.06,0.5428259887695313,0.44141213989257816,0.6896377563476562,2.475101947784424,0.015142822265293043,0.051641845701999235,-0.00701904296860012,-0.015181258265551606,-0.005847212541799133,0.010362243652343728,None,None,None,None
cf2,9350.06,0.49670709228515625,-0.5310527954101563,0.28066296386718753,1.1285815238952637,0.0008605957031066813,-0.013543701171579681,0.010240173339621983,0.017689115195896735,-0.004906574010547567,0.019337036132812457,None,None,None,None
cf1,9350.08,0.543026611328125,0.44237579345703126,0.6894763183593751,2.475101947784424,0.01003112792946934,0.04818267822160348,-0.008071899413882089,-0.015103996917610012,-0.009144177583334436,0.010523681640624893,None,None,None,None
cf2,9350.08,0.4966952514648438,-0.5313040161132813,0.2808589172363281,1.1285815238952637,-0.0005920410156105671,-0.012561035155975776,0.009797668456815034,0.017805894305435777,-0.004005895465244673,0.01914108276367188,None,None,None,None
cf1,9350.1,0.5431939697265625,0.443185546875,0.6893305053710937,2.475101947784424,0.008367919921692923,0.04048767089755321,-0.007290649413906514,-0.014968003140722013,-0.011591555353892807,0.010669494628906206,None,None,None,None
cf2,9350.1,0.4967767028808594,-0.5315801391601562,0.2810108642578125,1.1285815238952637,0.004072570800692154,-0.013806152343446908,0.007597351074054714,0.01770615046338457,-0.0030275744153986997,0.01898913574218747,None,None,None,None
cf1,9350.119999999999,0.5433312377929688,0.4440103759765625,0.6891087646484375,2.4520914554595947,0.006863403320786288,0.041241455080976056,-0.011087036133578277,-0.014727520149347025,-0.013849799318180905,0.010891235351562445,None,None,None,None
cf2,9350.119999999999,0.49688909912109375,-0.5318495483398438,0.281192138671875,1.128873348236084,0.005619812012105802,-0.013470458985308142,0.0090637207037495,0.017515188666192352,-0.002055135034147249,0.01880786132812501,None,None,None,None
cf1,9350.14,0.54343017578125,0.4446910095214844,0.6889072875976563,2.4520914554595947,0.004946899413952033,0.034031677245350736,-0.010073852538841011,-0.014498278379375985,-0.01555816534072566,0.011092712402343663,None,None,None,None
cf2,9350.14,0.4969945983886719,-0.5321008911132813,0.2813958740234375,1.128873348236084,0.005274963378791619,-0.012567138671601885,0.010186767577904621,0.0173144370401524,-0.0011237102914424554,0.01860412597656247,None,None,None,None
cf1,9350.16,0.54348828125,0.445277587890625,0.6886683349609375,2.4520914554595947,0.002905273437440048,0.029328918456390372,-0.011947631835679373,-0.014241497749352655,-0.01694683784345537,0.011331665039062466,None,None,None,None
cf2,9350.16,0.4971186218261719,-0.5323040161132813,0.2815733642578125,1.128873348236084,0.0062011718748651076,-0.010156249999776846,0.008874511718554601,0.01704756699027489,-0.00035627001151264056,0.018426635742187503,None,None,None,None
cf1,9350.18,0.5435000610351562,0.4457449645996094,0.6884151611328125,2.386838912963867,0.000588989257797512,0.023368835448709435,-0.012658691405971334,-0.01395768584993818,-0.018015987373356065,0.01158483886718742,None,None,None,None
cf2,9350.18,0.49723919677734374,-0.532451416015625,0.2817586669921875,1.1139287948608398,0.006028747558460801,-0.007369995117023742,0.00926513671854794,0.016772000153997657,0.00021291071649310843,0.0182413330078125,None,None,None,None
cf1,9350.199999999999,0.5434713134765625,0.4461853637695313,0.688099853515625,2.386838912963867,-0.0014373779297854772,0.02201995849761656,-0.015765380860468015,-0.013597322843838565,-0.019003679762655278,0.011900146484374985,None,None,None,None
cf2,9350.199999999999,0.49738522338867186,-0.53257177734375,0.28191098022460936,1.1139287948608398,0.007301330566910708,-0.006018066406670774,0.007615661621620135,0.016426201414187193,0.0006903150333947979,0.018089019775390625,None,None,None,None
cf1,9350.22,0.5434113159179688,0.4465816040039063,0.6877744140625001,2.3136579990386963,-0.002999877929622552,0.019812011718318125,-0.01627197265589029,-0.013194508682286471,-0.019877427418512696,0.012225585937499894,None,None,None,None
cf2,9350.22,0.49756890869140624,-0.5327145996093751,0.2820381469726563,1.132398009300232,0.009184265136518632,-0.007141113281094569,0.006358337402206915,0.015974261023411374,0.0012750720309989685,0.01796185302734371,None,None,None,None
cf1,9350.24,0.5433021240234375,0.4468074645996094,0.6873590698242188,2.3136579990386963,-0.005459594726445372,0.011293029784909503,-0.020767211913610084,-0.012775056255152737,-0.020405291312800326,0.012640930175781162,None,None,None,None
cf2,9350.24,0.49777117919921876,-0.5328048095703125,0.2821593017578125,1.132398009300232,0.010113525390405175,-0.00451049804677397,0.006057739257679273,0.015464673319200527,0.0016694207843327602,0.01784069824218748,None,None,None,None
cf1,9350.26,0.5431470947265625,0.4469248046875,0.6870081176757813,2.2364156246185303,-0.007751464843577915,0.005867004394402187,-0.017547607421491973,-0.012301290360780462,-0.020731720103387852,0.012991882324218662,None,None,None,None
cf2,9350.26,0.49797735595703124,-0.5328975219726563,0.2822648620605469,1.1535109281539917,0.01030883789039907,-0.004635620117087025,0.005278015136604674,0.014924654961417564,0.0020911386721770703,0.017735137939453083,None,None,None,None
cf1,9350.279999999999,0.5429590454101563,0.4469786376953125,0.6866951904296875,2.2364156246185303,-0.009402465820962814,0.0026916503908098522,-0.015646362305770246,-0.01177384416582557,-0.02094602982490328,0.013304809570312437,None,None,None,None
cf2,9350.279999999999,0.49822134399414064,-0.5329694213867188,0.2823248596191406,1.1535109281539917,0.012199401856313213,-0.0035949707033731348,0.0029998779298926136,0.014266474566633821,0.0024533227779857418,0.017675140380859378,None,None,None,None
cf1,9350.3,0.5427393798828125,0.4469280090332031,0.6863700561523438,2.2364156246185303,-0.010983276366948246,-0.0025314331054129614,-0.016256713866830565,-0.011213273315782799,-0.02096941995732595,0.013629943847656145,None,None,None,None
cf2,9350.3,0.4984617309570313,-0.5329832763671876,0.2823912963867188,1.1425495147705078,0.012019348144269516,-0.0006927490234247324,0.0033218383788360282,0.013605410437087831,0.002582639088915158,0.017608703613281207,None,None,None,None
cf1,9350.32,0.5425120239257812,0.44681558227539064,0.6860328369140625,2.2364156246185303,-0.011367797851315475,-0.00562133789050121,-0.016860961913698902,-0.010654123789760075,-0.020873126375425943,0.013967163085937484,None,None,None,None
cf2,9350.32,0.49868182373046877,-0.5330103759765625,0.2824945068359375,1.1425495147705078,0.011004638671634082,-0.0013549804687189137,0.005160522460824257,0.012969836506154239,0.0027732420216775256,0.01750549316406247,None,None,None,None
cf1,9350.34,0.542232421875,0.4466231384277344,0.6856329345703125,2.170886278152466,-0.013980102538757744,-0.009622192382603223,-0.019995117187062574,-0.00997660418307588,-0.020643255408310513,0.014367065429687464,None,None,None,None
cf2,9350.34,0.49890386962890626,-0.5330044555664063,0.28255023193359374,1.1425495147705078,0.011102294921632417,0.00029602050780528353,0.0027862548827503274,0.012312476193532393,0.0028259072518312628,0.017449768066406246,None,None,None,None
cf1,9350.359999999999,0.5419437866210938,0.4463609924316406,0.6852816162109375,2.1290507316589355,-0.014431762696308092,-0.01310729980559372,-0.017565917969962364,-0.009285794357608236,-0.02027165939858704,0.014718383789062428,None,None,None,None
cf2,9350.359999999999,0.4990992126464844,-0.532955322265625,0.2826534118652344,1.1265718936920166,0.009767150879581127,0.002456665039233197,0.005158996582389714,0.011726309359681074,0.0026708200407889295,0.017346588134765584,None,None,None,None
cf1,9350.38,0.5416283569335938,0.4460702819824219,0.6849735717773437,2.1290507316589355,-0.01577148437465472,-0.014535522460619977,-0.015402221679352767,-0.008500108737086884,-0.01984435393662601,0.015026428222656207,None,None,None,None
cf2,9350.38,0.4993209533691406,-0.532921630859375,0.28272677612304686,1.1265718936920166,0.011087036132569917,0.0016845703124622525,0.0036682128905428436,0.011022540764144181,0.0025935922172270888,0.017273223876953125,None,None,None,None
cf1,9350.4,0.5412945556640625,0.44565994262695313,0.6846522827148438,2.1290507316589355,-0.01669006347620112,-0.020516967772989524,-0.01606445312464695,-0.0076777262181101265,-0.01916017596334901,0.01534771728515616,None,None,None,None
cf2,9350.4,0.49954708862304686,-0.5328812255859375,0.28276959228515625,1.1265718936920166,0.011306762695065475,0.0020202636718317014,0.0021408081054223984,0.010269491996078699,0.0024819853861476715,0.017230407714843743,None,None,None,None
cf1,9350.42,0.5409254150390626,0.4452227172851563,0.684319091796875,2.081883192062378,-0.018457031249593657,-0.021861267089365522,-0.01665954589807612,-0.006698941304018014,-0.01840343257984723,0.015680908203124955,None,None,None,None
cf2,9350.42,0.4997392578125,-0.5328153686523438,0.2828612060546875,1.0963541269302368,0.009608459472447251,0.0032928466796147806,0.004580688476463135,0.009607688359817873,0.0022191495672847345,0.01713879394531248,None,None,None,None
cf1,9350.439999999999,0.5405408325195312,0.4447066345214844,0.6838854370117188,2.081883192062378,-0.0192291259778956,-0.02580413818537746,-0.021682739259309913,-0.0056260690726498,-0.01743226610690825,0.016114562988281178,None,None,None,None
cf2,9350.439999999999,0.4999007873535156,-0.5327456665039063,0.28295877075195314,1.0963541269302368,0.008076477051338998,0.0034851074221153634,0.004878234863618619,0.009028483308898085,0.0019082509679075204,0.017041229248046852,None,None,None,None
cf1,9350.46,0.5401961059570313,0.4441765441894531,0.6835934448242188,2.019263982772827,-0.017236328124621413,-0.026504516600985184,-0.014599609374680255,-0.00460434274262834,-0.016341532704876236,0.016406555175781157,None,None,None,None
cf2,9350.46,0.5000870971679687,-0.5326159667968751,0.28304147338867186,1.0917410850524902,0.009315490722452247,0.0064849853514209466,0.004135131835845907,0.008336373643139331,0.0012479726053000156,0.01695852661132813,None,None,None,None
cf1,9350.48,0.5398516235351563,0.44361923217773436,0.6833049926757813,2.019263982772827,-0.017224121093374744,-0.02786560058533021,-0.014422607421561918,-0.0034836666339289083,-0.01509284300035205,0.01669500732421869,None,None,None,None
cf2,9350.48,0.5002751159667969,-0.5324854736328125,0.28309475708007814,1.0917410850524902,0.009400939941201137,0.006524658202985112,0.0026641845702558785,0.007580339843587808,0.0005272051085021686,0.016905242919921848,None,None,None,None
cf1,9350.5,0.5394551391601563,0.4430328063964844,0.6830369262695313,2.019263982772827,-0.019824218749564793,-0.029321289061857735,-0.0134033203122069,-0.001998480917088536,-0.01365067507821274,0.01696307373046868,None,None,None,None
cf2,9350.5,0.5004689636230469,-0.5323697509765625,0.28315890502929686,1.0917410850524902,0.009692382812292389,0.005786132812375655,0.0032073974608658904,0.0067260718471156234,-0.00016716152523784685,0.01684109497070313,None,None,None,None
cf1,9350.52,0.5390479125976563,0.4423783569335938,0.68269384765625,1.9883720874786377,-0.020361328124557022,-0.032722473143816544,-0.01715393066369113,-0.00022066933121991304,-0.01178869849672799,0.017306152343749992,None,None,None,None
cf2,9350.52,0.5006420593261719,-0.5322427978515625,0.28317041015625,1.0927040576934814,0.008654785156059042,0.006347656249861222,0.0005752563476443151,0.005882220355518493,-0.0009946726710444603,0.016829589843749992,None,None,None,None
cf1,9350.539999999999,0.5387022094726562,0.44175344848632814,0.6824168090820313,1.9883720874786377,-0.01728515625119682,-0.03124542236544216,-0.013851928711891458,0.0015963683062933018,-0.009651436252132918,0.017583190917968672,None,None,None,None
cf2,9350.539999999999,0.5007907104492187,-0.5320732421875,0.28323544311523435,1.0927040576934814,0.007432556152856257,0.008477783203711753,0.0032516479494425986,0.0050485382831476746,-0.00214480913672766,0.016764556884765636,None,None,None,None
cf1,9350.56,0.5383553466796875,0.44111163330078124,0.682218994140625,1.950373649597168,-0.017343139648056137,-0.032090759276644586,-0.009890747070096562,0.0037917579561118834,-0.0068708843574941765,0.01778100585937492,None,None,None,None
cf2,9350.56,0.5009350280761719,-0.531912353515625,0.2832618408203125,1.085871696472168,0.007215881347497765,0.008044433593570145,0.0013198852538798822,0.004140254125313132,-0.003250028835569738,0.016738159179687462,None,None,None,None
cf1,9350.58,0.5379838256835937,0.4404776306152344,0.6820536499023437,1.950373649597168,-0.018576049804286156,-0.03170013427665125,-0.008267211913884309,0.006223304002122931,-0.0032889971438758462,0.017946350097656216,None,None,None,None
cf2,9350.58,0.5010579223632813,-0.5317568969726563,0.28335922241210937,1.085871696472168,0.006144714355337466,0.007772827148269301,0.004869079589735781,0.003293498618425741,-0.004264663683550502,0.01664077758789062,None,None,None,None
cf1,9350.6,0.5376553955078125,0.43986474609375004,0.6818431396484376,1.950373649597168,-0.016421508788702233,-0.030644226073547897,-0.010525512695078797,0.007877519894659365,0.000436588880734475,0.018156860351562387,None,None,None,None
cf2,9350.6,0.5011432495117187,-0.5315921630859375,0.28343380737304685,1.085871696472168,0.004266357421779521,0.008236694335759309,0.0037292480467928436,0.0026565124974960524,-0.005228533855382436,0.016566192626953136,None,None,None,None
cf1,9350.619999999999,0.5373373413085938,0.43919503784179686,0.6816091918945313,1.9199018478393555,-0.01590270996203468,-0.03348541259997315,-0.011697387696122686,0.008881406127506503,0.003970715903952305,0.01839080810546867,None,None,None,None
cf2,9350.619999999999,0.5012419738769531,-0.5314598999023438,0.2834723815917969,1.0698175430297852,0.0049362182620608375,0.006613159180142969,0.0019287109376348922,0.001971659634247347,-0.005957482442450879,0.016527618408203104,None,None,None,None
cf1,9350.64,0.5370440673828125,0.43855133056640627,0.68146484375,1.9199018478393555,-0.014663696288743311,-0.032185363768827094,-0.007217407226404293,0.00951919933400871,0.006747674196740463,0.018535156249999907,None,None,None,None
cf2,9350.64,0.5013164367675781,-0.5313163452148437,0.28356845092773436,1.0698175430297852,0.0037231445311667333,0.007177734374845679,0.004803466796768974,0.0014551686795575085,-0.006673529117286113,0.016431549072265628,None,None,None,None
cf1,9350.66,0.5367726440429688,0.43798046875,0.6814224243164063,1.9199018478393555,-0.013571166991891625,-0.028543090819689663,-0.0021209716796403155,0.010033428042377179,0.008815299015058646,0.01857757568359364,None,None,None,None
cf2,9350.66,0.5013793029785156,-0.5311779174804687,0.2836508483886719,1.0698175430297852,0.0031433105468083866,0.00692138671859901,0.004119873046786182,0.0010364501845508561,-0.007314308989260844,0.016349151611328105,None,None,None,None
cf1,9350.68,0.5365484619140625,0.43738766479492186,0.681343994140625,1.8982919454574585,-0.011209106445069917,-0.029640197753260933,-0.003921508788982009,0.010323005569682093,0.010734996277752356,0.01865600585937499,None,None,None,None
cf2,9350.68,0.5014390563964843,-0.5310646362304687,0.28375863647460936,1.0725849866867065,0.0029876708983703317,0.005664062499875655,0.005389404296756206,0.0006623057271918074,-0.007810948495126027,0.01624136352539063,None,None,None,None
cf1,9350.699999999999,0.5363377685546875,0.4368247985839844,0.6812786865234375,1.8982919454574585,-0.010534667969476086,-0.028143310548819557,-0.00326538085959982,0.010577451389559067,0.012364266537246643,0.018721313476562473,None,None,None,None
cf2,9350.699999999999,0.5014771728515625,-0.5309179077148437,0.2839142150878906,1.0725849866867065,0.0019058227540376727,0.007336425781758482,0.007778930664600126,0.0004258815139352802,-0.00841619683492627,0.01608578491210938,None,None,None,None
cf1,9350.72,0.5361534423828125,0.43631915283203127,0.681178466796875,1.8900359869003296,-0.00921630859355016,-0.025282287597103638,-0.005010986328015088,0.01078477413725422,0.01370515464760761,0.018821533203124963,None,None,None,None
cf2,9350.72,0.5014803466796875,-0.5307763671875,0.28408151245117186,1.091914415359497,0.00015869140625111023,0.007077026367031514,0.008364868163879869,0.0003966820883025387,-0.008969948380047735,0.01591848754882813,None,None,None,None
cf1,9350.74,0.5359981689453125,0.43588601684570316,0.681111572265625,1.8900359869003296,-0.007763671874830136,-0.02165679931593246,-0.003344726562425615,0.010952351934251687,0.014777853433219022,0.018888427734374935,None,None,None,None
cf2,9350.74,0.5015217590332032,-0.53069189453125,0.28420989990234374,1.091914415359497,0.0020706176757360082,0.004223632812407852,0.006419372558454139,0.00016483063952991156,-0.00929139171083463,0.015790100097656246,None,None,None,None
cf1,9350.76,0.5358853149414062,0.43543099975585936,0.6810192260742187,1.8531230688095093,-0.0056427001951898205,-0.02275085449169345,-0.004617309570214246,0.010975147347712561,0.015874613190499983,0.018980773925781236,None,None,None,None
cf2,9350.76,0.5015591125488281,-0.5306204223632812,0.28435113525390626,1.1124193668365479,0.0018676757812067014,0.0035736083983603393,0.007061767577971789,-3.8254024705684665e-05,-0.009555953879691248,0.015648864746093727,None,None,None,None
cf1,9350.779999999999,0.5358099975585937,0.435060546875,0.6809894409179688,1.8531230688095093,-0.0037658691408864577,-0.018522644044247867,-0.0014892578126010302,0.010949043823483265,0.016733811671257582,0.019010559082031198,None,None,None,None
cf2,9350.779999999999,0.5015302124023437,-0.5305184326171876,0.28454348754882813,1.1124193668365479,-0.001445007324318809,0.005099487305035277,0.009617614746758357,0.00011512689509207962,-0.009923809363217833,0.015456512451171855,None,None,None,None
cf1,9350.8,0.5357440185546876,0.43471502685546876,0.6809782714843751,1.8531230688095093,-0.0032989501952353393,-0.01727600097618558,-0.000558471679672512,0.010917295694582807,0.017505139131811967,0.01902172851562489,None,None,None,None
cf2,9350.8,0.5015189208984375,-0.5304541015625001,0.28470907592773437,1.1124193668365479,-0.0005645751952986222,0.003216552734305056,0.008279418945130979,0.00017286084356083007,-0.010150631121800528,0.015290924072265621,None,None,None,None
cf1,9350.82,0.535708740234375,0.4344654235839844,0.680934326171875,1.815828800201416,-0.001763916015590583,-0.012480163573946467,-0.002197265624955591,0.010861408755369385,0.018052127924420704,0.019065673828124963,None,None,None,None
cf2,9350.82,0.5015027465820313,-0.5303847045898438,0.28490771484375,1.129604697227478,-0.0008087158202930711,0.0034698486327386703,0.009931945800564479,0.00025438206922150076,-0.010390892849850284,0.015092285156249996,None,None,None,None
cf1,9350.84,0.5357457885742187,0.4342243347167969,0.6808765869140625,1.815828800201416,0.001852416992146977,-0.012054443359111322,-0.002886962890561717,0.010604220967743563,0.018610254759252053,0.019123413085937457,None,None,None,None
cf2,9350.84,0.5014663391113281,-0.5304063110351562,0.28511404418945313,1.129604697227478,-0.0018203735351210004,-0.0010803222655994648,0.010316467284931708,0.000443913553573066,-0.010314229413619052,0.014885955810546858,None,None,None,None
cf1,9350.859999999999,0.53576904296875,0.4340469665527344,0.6808182983398438,1.8066892623901367,0.0011627197266465994,-0.008868408203737844,-0.002914428711138728,0.010430226699974806,0.01900873522276672,0.019181701660156203,None,None,None,None
cf2,9350.859999999999,0.5014248046875001,-0.5304087524414063,0.28530072021484376,1.1439034938812256,-0.002076721191545444,-0.00012207031251110223,0.009333801270176707,0.0006591732555933449,-0.01030195438324671,0.014699279785156227,None,None,None,None
cf1,9350.88,0.5358441772460938,0.4339065856933594,0.6807723999023437,1.8066892623901367,0.003756713867104788,-0.007019042968597344,-0.0022949218749511503,0.01013012931978596,0.01935134276142447,0.019227600097656228,None,None,None,None
cf2,9350.88,0.5013931274414063,-0.5304092407226563,0.2855087890625,1.1439034938812256,-0.0015838623046536382,-2.441406249888978e-05,0.010403442382584348,0.0008230882589709629,-0.010296350322174836,0.014491210937499999,None,None,None,None
cf1,9350.9,0.535937255859375,0.4338576965332031,0.6807305908203125,1.8066892623901367,0.004653930663959804,-0.0024444580077603193,-0.0020904541015153155,0.009830960206460796,0.01950696880284102,0.019269409179687447,None,None,None,None
cf2,9350.9,0.50134912109375,-0.5304691772460938,0.2857190551757813,1.1439034938812256,-0.002200317382768646,-0.002996826171809497,0.010513305663834904,0.0010609774152775366,-0.010079923819031061,0.014280944824218711,None,None,None,None
cf1,9350.92,0.5360647583007813,0.43382635498046873,0.6806720581054687,1.799837589263916,0.006375122070173167,-0.0015670776366846107,-0.002926635742125883,0.009439045255235956,0.019642973250153933,0.019327941894531242,None,None,None,None
cf2,9350.92,0.5013201904296876,-0.530541748046875,0.2859271240234375,1.1474207639694214,-0.0014465332030883626,-0.0036285400389842295,0.010403442382584348,0.0012267174957505068,-0.009816000898726786,0.014072875976562482,None,None,None,None
cf1,9350.939999999999,0.53620849609375,0.4338690185546875,0.6806322021484376,1.799837589263916,0.007186889648932937,0.0021331787110865476,-0.001992797851695449,0.009035287830458772,0.01963215480204314,0.019367797851562396,None,None,None,None
cf2,9350.939999999999,0.5012626953125,-0.530642822265625,0.2861539611816406,1.1474207639694214,-0.0028747558595765056,-0.005053710937846389,0.011341857910938818,0.0015560691848403377,-0.009433259077297482,0.013846038818359385,None,None,None,None
cf1,9350.96,0.5363845825195312,0.43396368408203123,0.6806057739257813,1.7731938362121582,0.008804321288870987,0.004733276367082584,-0.0013214111327864097,0.008554515564528976,0.01952850216519225,0.0193942260742187,None,None,None,None
