Crazyflie name,QTM packet timestamp (s),x (m),y (m),z (m),yaw (째),vx (m/s),vy (m/s),vz (m/s),vx_c (m/s),vy_c (m/s),vz_c (m/s),roll_c (째),pitch_c (째),yaw_rate_c (째/s),thrust_c (PWM)
cf3,2342.3199999999997,-0.7116730346679687,-0.044557403564453125,0.007975557804107667,-0.018497919663786888,-0.001071166992184655,0.0001422882080081334,-9.708404541016058e-05,None,None,None,None,None,None,None
cf1,2342.3399999999997,0.3399193725585938,0.9821312866210937,0.0240929012298584,0.02229834906756878,6.408691406451228e-05,0.0021881103515606266,-0.002238273620607442,None,None,None,None,None,None,None
cf2,2342.3399999999997,0.31250946044921873,-0.8028504638671875,0.006848108291625976,0.009473324753344059,-0.0004150390625016653,0.0002838134765650674,-0.0010784149169931676,None,None,None,None,None,None,None
cf3,2342.3399999999997,-0.7116536865234375,-0.044574951171875,0.007960004329681396,-0.016166847199201584,0.0009674072265606265,-0.0008773803710946174,-0.0007776737213142366,None,None,None,None,None,None,None
cf1,2342.3599999999997,0.33989437866210936,0.98213037109375,0.024116910934448243,0.02229834906756878,-0.0012496948242219073,-4.5776367185765277e-05,0.0012004852294932543,None,None,None,None,None,None,None
cf2,2342.3599999999997,0.31251296997070316,-0.8028724975585938,0.0068517737388610845,0.009473324753344059,0.00017547607422135209,-0.0011016845703159,0.00018327236175557873,None,None,None,None,None,None,None
cf3,2342.3599999999997,-0.7116688232421875,-0.04458013534545899,0.007978487491607665,-0.016166847199201584,-0.0007568359374994449,-0.0002592086791995267,0.0009241580963142886,None,None,None,None,None,None,None
cf1,2342.38,0.33989791870117186,0.9821144409179687,0.024104583740234376,0.02229834906756878,0.00017700195312111421,-0.0007965087890464018,-0.0006163597106798805,None,None,None,None,None,None,None
cf2,2342.38,0.3125176086425781,-0.8028723754882813,0.006856931209564209,0.006532751955091953,0.00023193359374222843,6.103515626110223e-06,0.0002578735351505948,None,None,None,None,None,None,None
cf3,2342.38,-0.711654052734375,-0.04457938003540039,0.00797787380218506,-0.012321243062615395,0.0007385253906094569,3.776550292892422e-05,-3.068447112962082e-05,None,None,None,None,None,None,None
cf1,2342.4,0.33990618896484376,0.9821138916015625,0.024093683242797852,0.024507660418748856,0.0004135131835951031,-2.746582031256939e-05,-0.0005450248718266815,None,None,None,None,None,None,None
cf2,2342.4,0.3125527038574219,-0.8028602905273438,0.006794651508331299,0.006532751955091953,0.0017547607421913164,0.0006042480468765266,-0.003113985061648354,None,None,None,None,None,None,None
cf3,2342.4,-0.7116502685546875,-0.044555610656738284,0.008026560783386231,-0.012321243062615395,0.00018920898437486123,0.0011884689331065053,0.0024343490600607924,None,None,None,None,None,None,None
cf1,2342.42,0.33985809326171873,0.982119140625,0.024142429351806643,0.024507660418748856,-0.002404785156253608,0.000262451171878747,0.0024373054504417363,None,None,None,None,None,None,None
cf2,2342.42,0.31255047607421876,-0.8028623657226562,0.0067917718887329104,0.006532751955091953,-0.0001113891601568398,-0.00010375976562402855,-0.00014398097991953713,None,None,None,None,None,None,None
cf3,2342.42,-0.7116735229492188,-0.04454694366455078,0.008042884826660157,-0.012321243062615395,-0.0011627197265672879,0.0004333496093755551,0.0008162021636970404,None,None,None,None,None,None,None
cf1,2342.44,0.3398544921875,0.9821139526367187,0.024182905197143556,0.0320843830704689,-0.00018005371093548773,-0.0002593994140656225,0.0020237922668475006,None,None,None,None,None,None,None
cf2,2342.44,0.31250616455078123,-0.8028583984375001,0.006962456226348877,-0.006753545720130205,-0.002215576171878747,0.0001983642578086836,0.00853421688080608,None,None,None,None,None,None,None
cf3,2342.44,-0.711696044921875,-0.04444837951660156,0.008131800651550293,0.009138723835349083,-0.0011260986328097938,0.00492820739746537,0.004445791244510821,None,None,None,None,None,None,None
cf1,2342.46,0.3398620300292969,0.9820564575195313,0.024273563385009765,0.0320843830704689,0.0003768920898431602,-0.0028747558593748613,0.004532909393314578,None,None,None,None,None,None,None
cf2,2342.46,0.3124844970703125,-0.8028540649414063,0.0070754561424255374,-0.006753545720130205,-0.001083374023437153,0.0002166748046874306,0.005649995803838169,None,None,None,None,None,None,None
cf3,2342.46,-0.7117388305664063,-0.04433267974853516,0.008333403587341309,0.009138723835349083,-0.0021392822265672877,0.00578498840332556,0.01008014678955998,None,None,None,None,None,None,None
cf1,2342.48,0.33988616943359373,0.982095703125,0.024488594055175783,0.058937918394804,0.0012069702148437152,0.0019622802734393734,0.010751533508310674,None,None,None,None,None,None,None
cf2,2342.48,0.3124693908691406,-0.8028276977539063,0.007402985095977783,-0.0614623948931694,-0.0007553100585956582,0.0013183593750033308,0.01637644767762717,None,None,None,None,None,None,None
cf3,2342.48,-0.7118568115234375,-0.04404941558837891,0.009058022499084472,0.009138723835349083,-0.005899047851565068,0.014163208007825268,0.03623094558719112,None,None,None,None,None,None,None
cf1,2342.5,0.34002301025390624,0.9821851806640626,0.025056047439575197,0.058937918394804,0.0068420410156318,0.004473876953130135,0.02837266921999651,None,None,None,None,None,None,None
cf2,2342.5,0.3123204345703125,-0.8028818969726562,0.008538562774658203,-0.0614623948931694,-0.007447814941412114,-0.002709960937499445,0.05677888393407266,None,None,None,None,None,None,None
cf3,2342.5,-0.7120302734375,-0.04366922378540039,0.010908674240112305,0.11827477812767029,-0.008673095703134575,0.019009590148943236,0.0925325870514758,None,None,None,None,None,None,None
cf1,2342.52,0.3401912841796875,0.9823953857421875,0.02647524642944336,0.058937918394804,0.008413696289071728,0.010510253906258048,0.07095994949347269,None,None,None,None,None,None,None
cf2,2342.52,0.31221722412109376,-0.8028421020507812,0.01089415740966797,-0.0614623948931694,-0.005160522460941594,0.001989746093751943,0.11777973175059542,None,None,None,None,None,None,None
cf3,2342.52,-0.7124415893554688,-0.043002483367919925,0.014461749076843262,0.11827477812767029,-0.020565795898454916,0.033337020874053616,0.17765374183670943,None,None,None,None,None,None,None
cf1,2342.54,0.3405064697265625,0.9827532348632813,0.029425142288208007,0.2067869007587433,0.0157592773437636,0.017892456054701862,0.1474947929383665,None,None,None,None,None,None,None
cf2,2342.54,0.31205062866210936,-0.8028911132812501,0.015298234939575196,-0.451212078332901,-0.008329772949227458,-0.0024505615234449245,0.2202038764955616,None,None,None,None,None,None,None
cf3,2342.54,-0.7131658935546875,-0.04211032104492188,0.020160438537597657,0.11827477812767029,-0.036215209960971016,0.044608116149942915,0.28493447303797886,None,None,None,None,None,None,None
cf1,2342.56,0.34088180541992186,0.9833069458007813,0.03387814712524414,0.2067869007587433,0.0187667846679844,0.027685546875025537,0.22265024185200907,None,None,None,None,None,None,None
cf2,2342.56,0.31189224243164065,-0.8030462036132813,0.022115028381347657,-0.451212078332901,-0.007919311523442704,-0.007754516601567288,0.340839672088933,None,None,None,None,None,None,None
cf3,2342.56,-0.7141814575195312,-0.04088742828369141,0.027898698806762694,1.1065449714660645,-0.05077819824223129,0.061144638061579146,0.3869130134586038,None,None,None,None,None,None,None
cf1,2342.58,0.34135501098632814,0.9839448242187501,0.040254951477050785,0.5316966772079468,0.023660278320335883,0.03189392089846935,0.3188402175906223,None,None,None,None,None,None,None
cf2,2342.58,0.3117613525390625,-0.8032166137695312,0.030777549743652346,-0.451212078332901,-0.006544494628913223,-0.008520507812506106,0.43312606811562837,None,None,None,None,None,None,None
cf3,2342.58,-0.715690185546875,-0.03937281799316406,0.03780498886108399,1.1065449714660645,-0.07543640136725904,0.07573051452643612,0.4953145027165151,None,None,None,None,None,None,None
cf1,2342.6,0.341880859375,0.9845387573242188,0.048719058990478514,0.5316966772079468,0.026292419433617306,0.0296966552734638,0.42320537567177136,None,None,None,None,None,None,None
cf2,2342.6,0.31170339965820315,-0.8033822631835937,0.04144203567504883,-1.0882201194763184,-0.0028976440429705195,-0.008282470703132355,0.5332242965703092,None,None,None,None,None,None,None
cf3,2342.6,-0.7175396118164062,-0.03736558532714844,0.04957257461547852,3.2828612327575684,-0.092471313476645,0.10036163330087239,0.5883792877202616,None,None,None,None,None,None,None
cf1,2342.62,0.34267230224609374,0.9852174682617187,0.059215744018554686,0.5316966772079468,0.039572143554722404,0.033935546875027756,0.524834251404286,None,None,None,None,None,None,None
cf2,2342.62,0.31157684326171875,-0.80350830078125,0.053926406860351564,-1.0882201194763184,-0.006327819824225793,-0.006301879882819786,0.6242185592657044,None,None,None,None,None,None,None
cf3,2342.62,-0.7198782958984375,-0.034981494903564454,0.06310738754272462,3.2828612327575684,-0.11693420410167164,0.1192045211793077,0.6767406463629204,None,None,None,None,None,None,None
cf1,2342.64,0.34334869384765626,0.9859688110351563,0.07127206420898438,1.3221958875656128,0.03381958007815678,0.037567138671913164,0.6028160095220331,None,None,None,None,None,None,None
cf2,2342.64,0.31153564453125,-0.8036239013671875,0.06769827270507812,-1.9325244426727295,-0.0020599365234399286,-0.005780029296880968,0.6885932922369543,None,None,None,None,None,None,None
cf3,2342.64,-0.7223124389648438,-0.032372734069824216,0.0781673583984375,4.990955352783203,-0.12170715332042137,0.13043804168713055,0.7529985427863289,None,None,None,None,None,None,None
cf1,2342.66,0.34420159912109377,0.9867453002929688,0.08512284088134765,1.3221958875656128,0.04264526367191428,0.03882446289065956,0.6925388336187934,None,None,None,None,None,None,None
cf2,2342.66,0.3114546508789063,-0.8036400756835937,0.08272315216064453,-1.9325244426727295,-0.004049682617189096,-0.0008087158203114592,0.7512439727790037,None,None,None,None,None,None,None
cf3,2342.66,-0.7251264038085937,-0.02950475311279297,0.09461203002929687,4.990955352783203,-0.140698242187626,0.14339904785169266,0.8222335815437164,None,None,None,None,None,None,None
cf1,2342.68,0.3453796691894531,0.9868233032226563,0.10051712799072265,1.3221958875656128,0.05890350341802104,0.003900146484379302,0.7697143554694501,None,None,None,None,None,None,None
cf2,2342.68,0.31145925903320315,-0.8036152954101563,0.09827763366699219,-2.795584201812744,0.0002304077148437153,0.001239013671873196,0.77772407531809,None,None,None,None,None,None,None
cf3,2342.68,-0.7281113891601563,-0.026582466125488282,0.1123236312866211,4.990955352783203,-0.14924926757826337,0.14611434936536735,0.8855800628670166,None,None,None,None,None,None,None
cf1,2342.7,0.3461589660644531,0.9874437255859375,0.11673519134521484,2.1036412715911865,0.038964843750035526,0.031021118164087827,0.810903167725347,None,None,None,None,None,None,None
cf2,2342.7,0.3115484924316406,-0.8037193603515626,0.11460779571533203,-2.795584201812744,0.004461669921877636,-0.00520324707031701,0.8165081024177346,None,None,None,None,None,None,None
cf3,2342.7,-0.7311162109375,-0.023604061126708986,0.13098426818847655,5.403536319732666,-0.15024108886732343,0.14892024993910025,0.9330318450936216,None,None,None,None,None,None,None
cf1,2342.72,0.34695901489257813,0.987900390625,0.13380928039550782,2.1036412715911865,0.040002441406286914,0.02283325195314568,0.8537044525154254,None,None,None,None,None,None,None
cf2,2342.72,0.3117738037109375,-0.8036851196289063,0.13100062561035156,-2.795584201812744,0.011265563964853707,0.0017120361328131245,0.8196414947517219,None,None,None,None,None,None,None
cf3,2342.72,-0.7340944213867188,-0.020686355590820313,0.15064349365234375,5.403536319732666,-0.14891052246107317,0.14588527679456634,0.9829612731942539,None,None,None,None,None,None,None
cf1,2342.74,0.3476838073730469,0.988278564453125,0.15141378784179688,2.913081169128418,0.03623962402347046,0.01890869140626693,0.8802253723152532,None,None,None,None,None,None,None
cf2,2342.74,0.3120425109863281,-0.8036673583984375,0.14763565063476564,-3.5163347721099854,0.013435363769543913,0.000888061523441594,0.8317512512214604,None,None,None,None,None,None,None
cf3,2342.74,-0.7369464721679687,-0.01791452217102051,0.17109942626953126,5.355965614318848,-0.14260253906262713,0.13859167099011624,1.0227966308603056,None,None,None,None,None,None,None
cf1,2342.7599999999998,0.34833813476562503,0.9883876342773438,0.1696143798828125,2.913081169128418,0.03271636962893709,0.005453491210943259,0.9100296020516088,None,None,None,None,None,None,None
cf2,2342.7599999999998,0.31239190673828127,-0.8036145629882813,0.16391282653808595,-3.5163347721099854,0.01746978759767294,0.0026397705078142347,0.8138587951667559,None,None,None,None,None,None,None
cf3,2342.7599999999998,-0.739622802734375,-0.015242841720581055,0.19211428833007813,5.355965614318848,-0.1338165283204347,0.1335840225220942,1.050743103028299,None,None,None,None,None,None,None
cf1,2342.7799999999997,0.34900851440429687,0.9884263305664063,0.18815328979492188,3.5606071949005127,0.0335189819336223,0.001934814453126804,0.9269454956063121,None,None,None,None,None,None,None
cf2,2342.7799999999997,0.3127600708007813,-0.8035641479492188,0.17998289489746094,-3.9582502841949463,0.01840820312501721,0.0025207519531245835,0.8035034179694805,None,None,None,None,None,None,None
cf3,2342.7799999999997,-0.7420234375,-0.012863298416137696,0.2137391357421875,5.068331718444824,-0.12003173828136018,0.11897716522227617,1.0812423706064522,None,None,None,None,None,None,None
cf1,2342.7999999999997,0.34945108032226563,0.988276611328125,0.2067447967529297,3.5606071949005127,0.022128295898458248,-0.007485961914067843,0.9295753479012364,None,None,None,None,None,None,None
cf2,2342.7999999999997,0.31320068359375003,-0.8035056762695313,0.19559991455078127,-3.9582502841949463,0.02203063964845769,0.002923583984379302,0.7808509826667264,None,None,None,None,None,None,None
cf3,2342.7999999999997,-0.74413525390625,-0.010666750907897949,0.23539552307128908,5.068331718444824,-0.10559082031259714,0.10982737541208724,1.0828193664560637,None,None,None,None,None,None,None
cf1,2342.8199999999997,0.34983380126953123,0.9881073608398437,0.22508216857910157,3.5606071949005127,0.01913604736329752,-0.008462524414073394,0.9168685913094274,None,None,None,None,None,None,None
cf2,2342.8199999999997,0.3136170349121094,-0.8034047241210938,0.21088142395019532,-3.9582502841949463,0.020817565917987727,0.005047607421880968,0.7640754699713977,None,None,None,None,None,None,None
cf3,2342.8199999999997,-0.7458358154296875,-0.008818255424499512,0.25711166381835937,5.068331718444824,-0.0850280761719498,0.09242477417000587,1.085807037354502,None,None,None,None,None,None,None
cf1,2342.8399999999997,0.35030667114257813,0.9876853637695313,0.2433070068359375,4.043928623199463,0.023643493652366475,-0.02109985351564068,0.9112419128426255,None,None,None,None,None,None,None
cf2,2342.8399999999997,0.3142401733398438,-0.8033579711914063,0.22545031738281252,-4.183609962463379,0.03115692138674689,0.0023376464843759713,0.728444671631522,None,None,None,None,None,None,None
cf3,2342.8399999999997,-0.7473504638671875,-0.007287957668304443,0.2785147094726563,4.677722454071045,-0.07573242187507105,0.07651488780982305,1.0701522827158185,None,None,None,None,None,None,None
cf1,2342.8599999999997,0.3505372314453125,0.9871156616210938,0.26109039306640625,4.043928623199463,0.011528015136729679,-0.02848510742190317,0.8891693115242457,None,None,None,None,None,None,None
cf2,2342.8599999999997,0.3148339233398438,-0.8032178344726563,0.2392851257324219,-4.183609962463379,0.0296875000000272,0.007006835937507216,0.6917404174810978,None,None,None,None,None,None,None
cf3,2342.8599999999997,-0.7485380859375,-0.00595043420791626,0.29979461669921875,4.677722454071045,-0.05938110351568065,0.06687617301946999,1.0639953613290916,None,None,None,None,None,None,None
cf1,2342.88,0.3507959289550781,0.9864735107421875,0.27857159423828126,4.043928623199463,0.012934875487997311,-0.03210754394461361,0.874060058574672,None,None,None,None,None,None,None
cf2,2342.88,0.3156099853515625,-0.8032371826171875,0.25248046875,-4.2417402267456055,0.03880310058508818,-0.0009674072265386302,0.6597671508645053,None,None,None,None,None,None,None
cf3,2342.88,-0.7494802856445313,-0.004919385433197022,0.32049978637695314,4.257236957550049,-0.04710998535053388,0.05155243873483663,1.0352584838641221,None,None,None,None,None,None,None
cf1,2342.9,0.35087454223632814,0.9856498413085938,0.29535733032226563,4.399167060852051,0.003930664062504996,-0.04118347167972185,0.8392868041999818,None,None,None,None,None,None,None
cf2,2342.9,0.316471923828125,-0.8031568603515625,0.2648677062988281,-4.2417402267456055,0.04309692382816511,0.004016113281250277,0.6193618774419678,None,None,None,None,None,None,None
cf3,2342.9,-0.7501043090820313,-0.004202038764953613,0.34073818969726566,4.257236957550049,-0.031201171875028865,0.03586733341220304,1.011920166016546,None,None,None,None,None,None,None
cf1,2342.92,0.35091934204101566,0.9848124389648437,0.31148065185546875,4.399167060852051,0.002239990234378192,-0.04187011718754163,0.806166076660889,None,None,None,None,None,None,None
cf2,2342.92,0.31734164428710937,-0.803187255859375,0.27646121215820313,-4.2417402267456055,0.04348602294925799,-0.0015197753906251387,0.5796752929692782,None,None,None,None,None,None,None
cf3,2342.92,-0.7504432983398438,-0.003679811716079712,0.36019961547851564,4.257236957550049,-0.01694946289064068,0.026111352443718826,0.9730712890633842,None,None,None,None,None,None,None
cf1,2342.94,0.3509407043457031,0.9837159423828126,0.327167236328125,4.64427375793457,0.0010681152343743061,-0.054824829101607256,0.7843292236335259,None,None,None,None,None,None,None
cf2,2342.94,0.31838519287109374,-0.803169677734375,0.2872000732421875,-4.160940170288086,0.05217742919926576,0.0008789062500022205,0.5369430541997066,None,None,None,None,None,None,None
cf3,2342.94,-0.7504918212890626,-0.0034870073795318602,0.3788094177246094,3.7564961910247803,-0.0024261474609399286,0.009640216827401349,0.9304901123055346,None,None,None,None,None,None,None
cf1,2342.96,0.35075003051757814,0.9827046508789062,0.34181805419921873,4.64427375793457,-0.009533691406258048,-0.05056457519536253,0.732540893555353,None,None,None,None,None,None,None
cf2,2342.96,0.31940139770507814,-0.8031135864257812,0.29722711181640626,-4.160940170288086,0.05081024169926632,0.0028045654296896512,0.5013519287113946,None,None,None,None,None,None,None
cf3,2342.96,-0.7502605590820313,-0.0035464234352111817,0.3967341003417969,3.7564961910247803,0.011563110351575059,-0.002970802783968775,0.8962341308601898,None,None,None,None,None,None,None
cf1,2342.98,0.3503299255371094,0.9805077514648438,0.35583160400390623,4.64427375793457,-0.021005249023456025,-0.10984497070322118,0.7006774902350121,None,None,None,None,None,None,None
cf2,2342.98,0.32044042968750003,-0.8031312255859375,0.3063976745605469,-4.160940170288086,0.05195159912114173,-0.0008819580078153449,0.4585281372074486,None,None,None,None,None,None,None
cf3,2342.98,-0.7497479858398438,-0.00382658576965332,0.41377142333984374,3.2345454692840576,0.025628662109395954,-0.014008116722119665,0.8518661499031164,None,None,None,None,None,None,None
cf1,2343.0,0.350083251953125,0.9792213745117188,0.3689593505859375,4.732863903045654,-0.012333679199230788,-0.06431884765631134,0.6563873291021596,None,None,None,None,None,None,None
cf2,2343.0,0.32150018310546874,-0.8030346069335937,0.31482083129882815,-4.012982368469238,0.05298767089848378,0.004830932617193537,0.42115783691444586,None,None,None,None,None,None,None
cf3,2343.0,-0.7489395141601562,-0.004286899566650391,0.42990960693359376,3.2345454692840576,0.040423583984414826,-0.02301568984987447,0.806909179688235,None,None,None,None,None,None,None
cf1,2343.02,0.34972308349609377,0.9780272216796875,0.38135504150390626,4.732863903045654,-0.01800842285157839,-0.05970764160161836,0.6197845458990022,None,None,None,None,None,None,None
cf2,2343.02,0.3226808776855469,-0.8030578613281251,0.3224709167480469,-4.012982368469238,0.05903472900396041,-0.0011627197265672879,0.3825042724612852,None,None,None,None,None,None,None
cf3,2343.02,-0.7479976806640625,-0.005079936981201172,0.44523010253906253,3.2345454692840576,0.04709167480473184,-0.0396518707275751,0.7660247802741355,None,None,None,None,None,None,None
cf1,2343.04,0.3493575439453125,0.9767516479492188,0.39280645751953125,4.702503204345703,-0.01827697753908061,-0.06377868652349378,0.5725708007817705,None,None,None,None,None,None,None
cf2,2343.04,0.3238404846191406,-0.8030061645507812,0.3295136413574219,-3.8297252655029297,0.057980346679739614,0.002584838867194647,0.35213623046907,None,None,None,None,None,None,None
cf3,2343.04,-0.7463583984375001,-0.005925806522369385,0.4592704772949219,2.7793142795562744,0.08196411132819453,-0.04229347705844914,0.7020187377936056,None,None,None,None,None,None,None
cf1,2343.06,0.3488551940917969,0.9754680786132812,0.40356643676757814,4.702503204345703,-0.02511749267580307,-0.06417846679693537,0.5379989624028338,None,None,None,None,None,None,None
cf2,2343.06,0.325094482421875,-0.8029641113281251,0.3357334899902344,-3.8297252655029297,0.0626998901367763,0.002102661132809794,0.3109924316409077,None,None,None,None,None,None,None
cf3,2343.06,-0.7449422607421875,-0.007115829944610596,0.4726402282714844,2.7793142795562744,0.07080688476569286,-0.059501171112114656,0.6684875488287335,None,None,None,None,None,None,None
cf1,2343.08,0.3464862976074219,0.97355322265625,0.4123046875,4.595667839050293,-0.11844482421885741,-0.09574279785164834,0.43691253662148977,None,None,None,None,None,None,None
cf2,2343.08,0.32637393188476566,-0.8028893432617188,0.341383544921875,-3.6520254611968994,0.0639724731445911,0.0037384033203170103,0.28250274658228763,None,None,None,None,None,None,None
cf3,2343.08,-0.7432969360351562,-0.008402911186218262,0.48528805541992187,2.36881160736084,0.08226623535163834,-0.06435406208044182,0.6323913574224495,None,None,None,None,None,None,None
cf1,2343.1,0.3457961120605469,0.9722868041992188,0.421156982421875,4.595667839050293,-0.03450927734378136,-0.06332092285161947,0.44261474609415274,None,None,None,None,None,None,None
cf2,2343.1,0.3276737976074219,-0.8028881225585938,0.34656820678710937,-3.6520254611968994,0.0649932861328703,6.103515625138778e-05,0.25923309326195393,None,None,None,None,None,None,None
cf3,2343.1,-0.7416530151367188,-0.009775732040405273,0.4970412292480469,2.36881160736084,0.08219604492194758,-0.068641042709413,0.5876586914067854,None,None,None,None,None,None,None
cf1,2343.12,0.34519018554687503,0.9710392456054687,0.4293158264160156,4.595667839050293,-0.030296325683620638,-0.06237792968755829,0.40794219970740253,None,None,None,None,None,None,None
cf2,2343.12,0.32893307495117186,-0.8028573608398437,0.35118670654296874,-3.6520254611968994,0.06296386718755606,0.0015380859375038857,0.2309249877931787,None,None,None,None,None,None,None
cf3,2343.12,-0.7396029663085938,-0.011394434928894043,0.5078174438476563,2.36881160736084,0.10250244140634243,-0.0809351444245121,0.5388107299809585,None,None,None,None,None,None,None
cf1,2343.14,0.3444597473144531,0.9696578369140625,0.43694696044921877,4.460431098937988,-0.036521911621128965,-0.06907043457037475,0.3815567016605043,None,None,None,None,None,None,None
cf2,2343.14,0.33033514404296876,-0.8027980346679687,0.3552393798828125,-3.5003621578216553,0.07010345458990921,0.002966308593751943,0.20263366699237284,None,None,None,None,None,None,None
cf3,2343.14,-0.7375287475585938,-0.01309423828125,0.5178614501953125,2.0556352138519287,0.10371093750009548,-0.08499016761787513,0.5022003173832683,None,None,None,None,None,None,None
cf1,2343.16,0.3438795776367188,0.9683961791992187,0.44361419677734376,4.460431098937988,-0.029008483886743,-0.06308288574224571,0.3333618164065528,None,None,None,None,None,None,None
cf2,2343.16,0.33165191650390624,-0.8026830444335937,0.35904205322265625,-3.5003621578216553,0.0658386230469337,0.005749511718755274,0.19013366699236006,-0.0077464194606815815,0,0.04095794677734377,None,None,None,None
cf3,2343.16,-0.7352767333984375,-0.01497669792175293,0.52718310546875,2.0556352138519287,0.11260070800791748,-0.09412298202523209,0.4660827636723006,None,None,None,None,None,None,None
cf1,2343.18,0.34229339599609376,0.9669557495117188,0.4483771667480469,4.3378801345825195,-0.079309082031323,-0.07202148437506106,0.23814849853537334,None,None,None,None,None,None,None
cf2,2343.18,0.3329403686523438,-0.802594970703125,0.3622756042480469,-3.5003621578216553,0.06442260742193537,0.004403686523439374,0.1616775512696788,-0.012285837079010117,0,0.03772439575195313,None,None,None,None
cf3,2343.18,-0.73303759765625,-0.01686578369140625,0.5358783569335938,1.8246625661849976,0.11195678710947589,-0.09445428848275193,0.4347625732425821,None,None,None,None,None,None,None
cf1,2343.2,0.34147286987304687,0.9658251342773437,0.4537699890136719,4.3378801345825195,-0.041026306152382015,-0.056530761718805236,0.26964111328149454,None,None,None,None,None,None,None
cf2,2343.2,0.3343310546875,-0.8025647583007812,0.36543521118164063,-3.4013805389404297,0.0695343017578753,0.0015106201171913164,0.15798034667983066,-0.01601452616425655,0,0.03456478881835939,None,None,None,None
cf3,2343.2,-0.7306156616210938,-0.018847187042236327,0.543922119140625,1.8246625661849976,0.12109680175791859,-0.09907016754159392,0.4021881103519303,None,None,None,None,None,None,None
cf1,2343.22,0.34071151733398436,0.9647381591796875,0.45861550903320314,4.3378801345825195,-0.038067626953160114,-0.05434875488285976,0.24227600097678323,0.004473837554943177,0,0.04138449096679686,None,None,None,None
cf2,2343.22,0.3355994567871094,-0.8024210815429688,0.3681144714355469,-3.4013805389404297,0.06342010498052658,0.00718383789062958,0.13396301269543415,-0.01883386295114151,0,0.03188552856445315,None,None,None,None
cf3,2343.22,-0.7280477294921875,-0.020863874435424805,0.55112890625,1.8246625661849976,0.12839660644543024,-0.1008343696595156,0.36033935546907503,None,None,None,None,None,None,None
cf1,2343.24,0.3399450073242188,0.9636844482421876,0.46296673583984377,4.260014533996582,-0.03832550048831362,-0.05268554687504552,0.21756134033222932,0.007188398260500483,0,0.03703326416015623,None,None,None,None
cf2,2343.24,0.3369058837890625,-0.8023408203125,0.3704772644042969,-3.327846050262451,0.06532135009771457,0.004013061523442704,0.1181396484376088,-0.021384103213938903,0,0.02952273559570312,None,None,None,None
cf3,2343.24,-0.7255050048828126,-0.022923961639404297,0.55788330078125,1.6831151247024536,0.12713623046886519,-0.10300436019906827,0.3377197265628092,None,None,None,None,None,None,None
cf1,2343.2599999999998,0.33937649536132813,0.9628267211914062,0.466791259765625,4.260014533996582,-0.028425598144558348,-0.0428863525391067,0.1912261962892366,0.008706485433853337,0,0.03320874023437498,None,None,None,None
cf2,2343.2599999999998,0.3381311340332031,-0.8022745971679688,0.37251269531250003,-3.327846050262451,0.0612625122070861,0.003311157226562847,0.10177154541024899,-0.023539497395772494,0,0.02748730468749999,None,None,None,None
cf3,2343.2599999999998,-0.7229323120117188,-0.02499984359741211,0.5642442016601562,1.6831151247024536,0.128634643554804,-0.10379409790048508,0.3180450439455979,0,0.008967657681763795,0.03575579833984377,None,None,None,None
cf1,2343.2799999999997,0.3387975463867188,0.9620076904296875,0.4702987365722656,4.260014533996582,-0.028947448730494388,-0.04095153808597435,0.17537384033218936,0.010078804774058195,0,0.02970126342773438,None,None,None,None
cf2,2343.2799999999997,0.3393612060546875,-0.8020872192382813,0.3740531005859375,-3.297607898712158,0.06150360107427575,0.009368896484382633,0.07702026367194315,-0.025517015232400513,0,0.02594689941406253,None,None,None,None
cf3,2343.2799999999997,-0.7203746948242188,-0.02715861701965332,0.5701243286132812,1.5904667377471924,0.12788085937511767,-0.10793867111215867,0.29400634765651784,0,0.013722231875006995,0.02987567138671876,None,None,None,None
cf1,2343.2999999999997,0.3382039794921875,0.961213134765625,0.47319854736328126,4.165055751800537,-0.029678344726590603,-0.03972778320316122,0.1449905395509141,0.011360394437841433,0,0.026801452636718737,None,None,None,None
cf2,2343.2999999999997,0.34054544067382814,-0.8019573974609375,0.3752457580566406,-3.297607898712158,0.05921173095708555,0.006491088867194647,0.059632873535210684,-0.027293724744268857,0,0.0247542419433594,None,None,None,None
cf3,2343.2999999999997,-0.7177391357421875,-0.029201623916625976,0.5754381713867187,1.5904667377471924,0.13177795410168386,-0.1021503448487257,0.26569213867211633,0,0.016977811970761224,0.024561828613281267,None,None,None,None
cf1,2343.3199999999997,0.33753887939453125,0.96042626953125,0.4755487060546875,4.165055751800537,-0.03325500488284255,-0.03934326171878525,0.1175079345704197,0.012724784250292914,0,0.02445129394531248,None,None,None,None
cf2,2343.3199999999997,0.34162249755859375,-0.8018525390625,0.37607012939453127,-3.297607898712158,0.05385284423832972,0.005242919921882078,0.041218566894570006,-0.028818185312334006,0,0.02392987060546875,None,None,None,None
cf3,2343.3199999999997,-0.7150745849609376,-0.031196252822875976,0.5802720336914062,1.5904667377471924,0.13322753906261825,-0.09973144531259073,0.2416931152345958,0,0.019600547371839968,0.019727966308593747,None,None,None,None
cf1,2343.3399999999997,0.3369649658203125,0.959848388671875,0.4773922119140625,4.08169412612915,-0.028695678710964352,-0.028894042968773036,0.09217529296883299,0.013871392414042751,0,0.022607788085937497,None,None,None,None
cf2,2343.3399999999997,0.3427719421386719,-0.801751708984375,0.37648712158203124,-3.2608938217163086,0.05747222900395985,0.005041503906254718,0.02084960937501721,-0.030363579216799785,0,0.023512878417968786,None,None,None,None
cf3,2343.3399999999997,-0.7125403442382813,-0.03316813278198242,0.5847122192382813,1.5323492288589478,0.1267120361329297,-0.09859399795541181,0.22200927734395623,0,0.021936522552570257,0.015287780761718661,None,None,None,None
cf1,2343.3599999999997,0.3366290588378906,0.9592808227539062,0.4788216247558594,4.08169412612915,-0.016795349121108426,-0.028378295898466018,0.07147064208990866,0.014360519426445882,0,0.021178375244140624,None,None,None,None
cf2,2343.3599999999997,0.34383444213867187,-0.80157080078125,0.3766049499511719,-3.2608938217163086,0.05312500000004663,0.009045410156258048,0.005891418457037808,-0.03171806816927134,0,0.023395050048828137,None,None,None,None
cf3,2343.3599999999997,-0.7101549682617188,-0.03501746368408203,0.5887105102539063,1.5323492288589478,0.11926879882823449,-0.09246654510506477,0.19991455078143125,0,0.023918585635770737,0.011289489746093673,None,None,None,None
cf1,2343.38,0.3361731262207031,0.9588033447265625,0.4797166748046875,4.016883850097656,-0.022796630858878175,-0.02387390136666736,0.04475250244042898,0.015177576024169625,0,0.020283325195312507,None,None,None,None
cf2,2343.38,0.34487539672851564,-0.8014127197265625,0.376389892578125,-3.2108564376831055,0.0520477294910523,0.007904052734202915,-0.010752868652109771,-0.03299331696803487,0,0.023610107421875026,None,None,None,None
cf3,2343.38,-0.707791015625,-0.036756870269775394,0.5918955078125,1.4501688480377197,0.11819763183335678,-0.08697032928276967,0.15924987792620862,0,0.025592339574986717,0.008104492187499979,None,None,None,None
cf1,2343.4,0.33574951171875,0.9584061279296875,0.4802325439453125,4.016883850097656,-0.021180725097674602,-0.019860839843767485,0.02579345703127415,0.015931656755478328,0,0.019767456054687493,None,None,None,None
cf2,2343.4,0.3458295593261719,-0.8012969970703125,0.3759184265136719,-3.2108564376831055,0.04770812988285531,0.005786132812501665,-0.023573303222675715,-0.03412361549004901,0,0.02408157348632811,None,None,None,None
cf3,2343.4,-0.7055220336914063,-0.03849055480957031,0.5947962646484375,1.4501688480377197,0.11344909667978846,-0.08668422698982466,0.14503784179700643,0,0.02719346694011224,0.0052037353515624885,None,None,None,None
cf1,2343.42,0.3354895935058594,0.9580567626953125,0.4803133850097656,4.016883850097656,-0.012995910644542804,-0.017468261718766375,0.00404205322265906,0.01631617848194851,0,0.019686614990234386,None,None,None,None
cf2,2343.42,0.346707275390625,-0.801124755859375,0.37511654663085936,-3.2108564376831055,0.043885803222696806,0.008612060546883188,-0.040093994140663995,-0.03512500563757693,0,0.024883453369140662,None,None,None,None
cf3,2343.42,-0.7032493286132813,-0.04005416488647461,0.596919189453125,1.4501688480377197,0.11363525390635575,-0.07818050384528623,0.10614624023447478,0,0.028472804188044952,0.0030808105468749236,None,None,None,None
cf1,2343.44,0.335233642578125,0.95773681640625,0.4799283752441406,3.9462876319885254,-0.012797546386731345,-0.015997314453140128,-0.019250488281267485,0.016700514542517395,0,0.020071624755859385,None,None,None,None
cf2,2343.44,0.34760452270507813,-0.8009512329101562,0.37420828247070315,-3.1717426776885986,0.044862365722696806,0.0086761474609477,-0.04541320800785198,-0.036120083735398614,0,0.025791717529296876,None,None,None,None
cf3,2343.44,-0.7011903686523437,-0.04146821212768555,0.598517822265625,1.3816596269607544,0.10294799804696979,-0.07070236206061105,0.07993164062506994,0,0.02958077297209782,0.0014821777343749787,None,None,None,None
cf1,2343.46,0.33494808959960937,0.9574396362304688,0.4792672729492188,3.9462876319885254,-0.014277648925794192,-0.014859008789072283,-0.03305511474612175,0.01715424897792349,0,0.02073272705078122,None,None,None,None
cf2,2343.46,0.3484351501464844,-0.8008286743164063,0.3730854187011719,-3.1717426776885986,0.04153137207035143,0.006127929687504996,-0.056143188476613363,-0.037021333506136296,0,0.026914581298828122,None,None,None,None
cf3,2343.46,-0.6992201538085938,-0.04279572677612305,0.5996094360351563,1.3816596269607544,0.09851074218758604,-0.06637573242193537,0.05458068847661281,0,0.03057103599382685,0.00039056396484371536,None,None,None,None
cf1,2343.48,0.33499267578125,0.9572759399414063,0.47846627807617187,3.9462876319885254,0.0022293090820350316,-0.008184814453134575,-0.040049743652382015,0.016962286778967064,0,0.02153372192382813,None,None,None,None
cf2,2343.48,0.3492255859375,-0.8007089233398438,0.3718394775390625,-3.1812546253204346,0.03952178955081695,0.005987548828129024,-0.06229705810552714,-0.03785884774690499,0,0.02816052246093753,None,None,None,None
cf3,2343.48,-0.6973920288085937,-0.04387520980834961,0.6002728881835938,1.3816596269607544,0.09140625000008659,-0.053974151611377134,0.03317260742190761,0,0.031274503414849615,-0.0002728881835938335,None,None,None,None
cf1,2343.5,0.33500912475585937,0.9570989990234375,0.47739410400390625,3.8700575828552246,0.0008224487304677438,-0.008847045898443814,-0.05360870361332972,0.016824996496587464,0,0.02260589599609375,None,None,None,None
cf2,2343.5,0.34989813232421874,-0.8005477905273438,0.37045193481445315,-3.1812546253204346,0.03362731933596602,0.008056640625005551,-0.06937713623052992,-0.03855097142199874,0,0.029548065185546868,None,None,None,None
cf3,2343.5,-0.6956924438476563,-0.044922065734863285,0.6004354248046875,1.3239970207214355,0.08497924804695091,-0.05234279632573149,0.008126831054690762,0,0.03196751410789281,-0.0004354248046875009,None,None,None,None
cf1,2343.52,0.33504910278320316,0.9570181884765625,0.47623159790039066,3.8700575828552246,0.0019989013671913164,-0.004040527343755274,-0.058125305175832497,0.016691800150559266,0,0.023768402099609343,None,None,None,None
cf2,2343.52,0.35042596435546874,-0.8003323974609375,0.369030517578125,-3.1812546253204346,0.026391601562524424,0.010769653320323671,-0.07107086181647262,-0.03907560509322776,0,0.030969482421875028,None,None,None,None
cf3,2343.52,-0.6940857543945312,-0.04574916458129883,0.6001317749023438,1.3239970207214355,0.08033447265632467,-0.04135494232181486,-0.015182495117196868,0,0.032417779497068214,-0.0001317749023438397,None,None,None,None
cf1,2343.54,0.33510076904296876,0.9569122314453126,0.4747300109863281,3.8049838542938232,0.002583312988282534,-0.005297851562501665,-0.07507934570319563,0.016518968280877205,0,0.02526998901367189,None,None,None,None
cf2,2343.54,0.3510887451171875,-0.8001884155273438,0.36772909545898436,-3.1870906352996826,0.0331390380859688,0.007199096679695202,-0.0650711059570911,-0.03973779784232002,0,0.032270904541015666,None,None,None,None
cf3,2343.54,-0.6927816772460937,-0.046408157348632816,0.5997559814453125,1.2923766374588013,0.06520385742193426,-0.03294963836672923,-0.018789672851582832,0,0.03276552408471252,0.00024401855468747513,None,None,None,None
cf1,2343.56,0.3353055419921875,0.9568200073242188,0.4734316711425781,3.8049838542938232,0.01023864746094548,-0.0046112060546929816,-0.06491699218755884,0.016016170266663264,0,0.026568328857421886,None,None,None,None
cf2,2343.56,0.3516248779296875,-0.8001069335937501,0.36641726684570314,-3.1870906352996826,0.026806640625023314,0.004074096679688541,-0.06559143066412058,-0.04026936795994323,0,0.033582733154296884,None,None,None,None
cf3,2343.56,-0.6915154418945313,-0.046921192169189455,0.599037109375,1.2923766374588013,0.06331176757818009,-0.02565174102785528,-0.035943603515658444,0,0.032954967738733146,0.0009628906249999902,None,None,None,None
cf1,2343.58,0.3356938781738281,0.9567953491210938,0.47189486694335936,3.8049838542938232,0.019416809082049465,-0.001232910156252498,-0.07684020996100765,0.015131296889446758,0,0.02810513305664064,None,None,None,None
cf2,2343.58,0.35208715820312503,-0.800021728515625,0.36520895385742186,-3.2280025482177734,0.02311401367189762,0.0042602539062558285,-0.060415649414118915,-0.040720496202659495,0,0.034791046142578164,None,None,None,None
cf3,2343.58,-0.6903040771484376,-0.047301475524902346,0.5980328369140625,1.2923766374588013,0.06056823730474183,-0.01901416778566188,-0.05021362304691983,0,0.033011482833397124,0.0019671630859374734,None,None,None,None
cf1,2343.6,0.33587786865234376,0.9567689208984376,0.47046044921875,3.736146926879883,0.009199523925790305,-0.001321411132810904,-0.07172088623053213,0.014697009130610799,0,0.02953955078124998,None,None,None,None
cf2,2343.6,0.35257232666015625,-0.7998789672851563,0.36388067626953124,-3.2280025482177734,0.024258422851583385,0.007138061523443815,-0.0664138793945911,-0.04118259610457658,0,0.03611932373046878,None,None,None,None
cf3,2343.6,-0.6893887939453125,-0.04749485778808594,0.5970836181640625,1.2451051473617554,0.045764160156294684,-0.009669113159188386,-0.04746093750004219,0,0.03295006503411987,0.002916381835937454,None,None,None,None
cf1,2343.62,0.3364309997558594,0.9567603149414062,0.46896795654296874,3.736146926879883,0.027656555175806403,-0.0004302978515672878,-0.07462463378913169,0.013401777675253884,0,0.031032043457031255,None,None,None,None
cf2,2343.62,0.3529060363769531,-0.7998399658203125,0.3628233337402344,-3.2280025482177734,0.016685485839858148,0.0019500732421924266,-0.05286712646489034,-0.04150409936366573,0,0.03717666625976562,None,None,None,None
cf3,2343.62,-0.6884215698242188,-0.04757392883300782,0.5957791748046876,1.2451051473617554,0.04836120605473073,-0.003953552246097532,-0.06522216796880745,0,0.03274726625617483,0.0042208251953124165,None,None,None,None
cf1,2343.64,0.33681591796875,0.9567611694335938,0.4676711730957031,3.6971240043640137,0.0192459106445478,4.272460937819189e-05,-0.06483917236334082,0.012479052981108055,0,0.03232882690429689,None,None,None,None
cf2,2343.64,0.35321954345703127,-0.7997410278320313,0.3617813720703125,-3.2665722370147705,0.015675354003922105,0.004946899414064512,-0.05209808349614118,-0.041796814718221366,0,0.0382186279296875,None,None,None,None
cf3,2343.64,-0.6878088989257812,-0.047476486206054686,0.5947431030273438,1.2169350385665894,0.03063354492190428,0.004872131347661003,-0.051803588867235725,0,0.03245489160770873,0.005256896972656189,None,None,None,None
cf1,2343.66,0.33741470336914064,0.9568095092773438,0.46628814697265625,3.6971240043640137,0.02993927001956001,0.002416992187500555,-0.06915130615240589,0.011025022822361095,0,0.03371185302734375,None,None,None,None
cf2,2343.66,0.3534659118652344,-0.7996511840820313,0.36076834106445316,-3.2665722370147705,0.012318420410167941,0.00449218750000333,-0.05065155029301437,-0.042023926607868814,0,0.039231658935546865,None,None,None,None
cf3,2343.66,-0.6872620239257813,-0.04725535583496094,0.593520263671875,1.2169350385665894,0.027343750000022204,0.011056518554697354,-0.061141967773492664,0,0.03204430018967645,0.00647973632812493,None,None,None,None
cf1,2343.68,0.33793273925781253,0.9568951416015625,0.46500686645507816,3.6971240043640137,0.025901794433617863,0.004281616210942149,-0.06406402587896264,0.009744116021096398,0,0.03499313354492184,None,None,None,None
cf2,2343.68,0.353641845703125,-0.7995582885742187,0.35991705322265627,-3.315247058868408,0.008796691894538362,0.0046447753906318,-0.04256439208988313,-0.0421819034666919,0,0.04008294677734375,None,None,None,None
cf3,2343.68,-0.6868078002929687,-0.04685604476928711,0.5923177490234375,1.2169350385665894,0.022711181640648455,0.019965553283709504,-0.06012573242193315,0,0.031459862548926756,0.007682250976562499,None,None,None,None
cf1,2343.7,0.33858563232421873,0.95689599609375,0.4638546142578125,3.652540445327759,0.03264465332033977,4.272460937264077e-05,-0.05761260986333582,0.008031458911290411,0,0.03614538574218751,None,None,None,None
cf2,2343.7,0.35376318359375003,-0.7994788818359375,0.3592109375,-3.315247058868408,0.006066894531256384,0.003970336914064512,-0.03530578613284588,-0.042288574621718186,0,0.04078906250000003,None,None,None,None
cf3,2343.7,-0.6864939575195312,-0.04634208679199219,0.5912323608398438,1.1770159006118774,0.01569213867188874,0.025697898864769423,-0.05426940917973517,0,0.03078405060306344,0.008767639160156215,None,None,None,None
cf1,2343.72,0.3392481689453125,0.9570029296875,0.4628310546875,3.652540445327759,0.03312683105471907,0.005346679687506106,-0.0511779785156701,0.006275478765097863,0,0.03716894531249998,None,None,None,None
cf2,2343.72,0.35387954711914066,-0.7994083862304687,0.35851028442382815,-3.315247058868408,0.005818176269536697,0.003524780273442704,-0.03503265380862397,-0.0423911821963124,0,0.04148971557617187,None,None,None,None
cf3,2343.72,-0.6861773681640625,-0.045822017669677736,0.5900640869140625,1.1770159006118774,0.015829467773451587,0.02600345611574641,-0.05841369628911447,0,0.030097861775543636,0.009935913085937442,None,None,None,None
cf1,2343.74,0.33987835693359375,0.9570313720703125,0.4619579162597656,3.6401209831237793,0.0315093994140906,0.0014221191406273593,-0.04365692138675965,0.004534174167255344,0,0.03804208374023438,None,None,None,None
cf2,2343.74,0.35401144409179686,-0.7993536987304688,0.35790420532226563,-3.3368375301361084,0.0065948486328159,0.0027343749999988896,-0.03030395507815345,-0.04251017211698106,0,0.04209579467773439,None,None,None,None
cf3,2343.74,-0.6859909057617187,-0.045094482421875,0.58906298828125,1.155825138092041,0.009323120117196868,0.03637676239016999,-0.05005493164067066,0,0.029204168653380172,0.010937011718749945,None,None,None,None
cf1,2343.7599999999998,0.3406322326660156,0.9570760498046875,0.4610849609375,3.6401209831237793,0.0376937866211273,0.002233886718751943,-0.04364776611332028,0.002408420103630733,0,0.03891503906249999,None,None,None,None
cf2,2343.7599999999998,0.35409075927734374,-0.7993352661132813,0.3573625183105469,-3.3368375301361084,0.003965759277347601,0.0009216308593748612,-0.027084350585962133,-0.04258332304202745,0,0.04263748168945314,None,None,None,None
cf3,2343.7599999999998,-0.6859996948242187,-0.04429781341552735,0.5881961059570313,1.155825138092041,-0.00043945312500111023,0.0398334503174188,-0.043344116210975454,0,0.028274736422896688,0.011803894042968666,None,None,None,None
cf1,2343.7799999999997,0.341301025390625,0.9570730590820312,0.4604262084960938,3.6401209831237793,0.033439636230500495,-0.00014953613281534496,-0.032937622070341434,0.0004932313562387861,0,0.03957379150390622,None,None,None,None
cf2,2343.7799999999997,0.35408547973632815,-0.7993597412109376,0.35691946411132813,-3.376936197280884,-0.00026397705077975815,-0.0012237548828131245,-0.02215270996095769,-0.042581303761471775,0,0.04308053588867189,None,None,None,None
cf3,2343.7799999999997,-0.6860760498046875,-0.04342860794067383,0.5873541259765626,1.2133984565734863,-0.0038177490234415938,0.0434602737427153,-0.04209899902347601,0,0.02726623523807698,0.01264587402343742,None,None,None,None
cf1,2343.7999999999997,0.34217703247070314,0.9570650634765625,0.4596763610839844,3.6523683071136475,0.043800354003945975,-0.0003997802734360428,-0.037492370605502714,-0.0020175294890220795,0,0.04032363891601559,None,None,None,None
cf2,2343.7999999999997,0.35402310180664065,-0.7993726196289063,0.35656109619140625,-3.376936197280884,-0.003118896484377637,-0.0006439208984360429,-0.017918395996110646,-0.042523579382283336,0,0.043438903808593776,None,None,None,None
cf3,2343.7999999999997,-0.6860900268554687,-0.04248415756225586,0.5863370971679688,1.2133984565734863,-0.0006988525390611816,0.04722251892094145,-0.05085144042973517,0,0.026137276708632907,0.013662902832031198,None,None,None,None
cf1,2343.8199999999997,0.34290835571289063,0.9571278076171875,0.45907666015625,3.6523683071136475,0.03656616210940817,0.003137207031253608,-0.02998504638674855,-0.0041072871776787765,0,0.04092333984375002,None,None,None,None
cf2,2343.8199999999997,0.3539381408691406,-0.7994268798828125,0.356269287109375,-3.376936197280884,-0.004248046875006106,-0.0027130126953125696,-0.014590454101575615,-0.0424492888150277,0,0.04373071289062502,None,None,None,None
cf3,2343.8199999999997,-0.6862562866210937,-0.04153853988647461,0.5855543823242187,1.2133984565734863,-0.008312988281258048,0.04728088378910566,-0.039135742187537195,0,0.025030598394933528,0.01444561767578123,None,None,None,None
cf1,2343.8399999999997,0.3436676330566406,0.9570414428710937,0.4586911926269531,3.67939829826355,0.03796386718753331,-0.004318237304694092,-0.019273376464860367,-0.006204760063085423,0,0.041308807373046874,None,None,None,None
cf2,2343.8399999999997,0.35383047485351565,-0.799474853515625,0.3559889831542969,-3.415487766265869,-0.005383300781252498,-0.002398681640627359,-0.01401519775391822,-0.042352382792450925,0,0.04401101684570313,None,None,None,None
cf3,2343.8399999999997,-0.6864953002929688,-0.040423023223876954,0.5849157104492188,1.2714613676071167,-0.011950683593764156,0.05577583312993344,-0.03193359375002887,0,0.02371390078072584,0.015084289550781227,None,None,None,None
cf1,2343.8599999999997,0.3443969421386719,0.9569554443359375,0.4581492614746094,3.67939829826355,0.03646545410159727,-0.004299926757815345,-0.027096557617211855,-0.008151635268588973,0,0.04185073852539062,None,None,None,None
cf2,2343.8599999999997,0.35367483520507814,-0.7995076904296875,0.35579949951171874,-3.415487766265869,-0.007781982421882633,-0.0016418457031279142,-0.009474182128915999,-0.0422074821672515,0,0.04420050048828128,None,None,None,None
cf3,2343.8599999999997,-0.686736328125,-0.039482063293457034,0.5843489990234375,1.2714613676071167,-0.012051391601569508,0.04704799652103878,-0.028335571289087827,0,0.022593731986682335,0.015651000976562468,None,None,None,None
cf1,2343.88,0.3452328186035156,0.9568309936523438,0.457828857421875,3.67939829826355,0.04179382324127434,-0.006222534179548167,-0.016020202636368754,-0.010280415865187253,0,0.04217114257812499,None,None,None,None
cf2,2343.88,0.3535137939453125,-0.7995670776367187,0.35567636108398437,-3.44228196144104,-0.008052062988105558,-0.002969360351497552,-0.0061569213865841355,-0.042060059226827935,0,0.04432363891601565,None,None,None,None
cf3,2343.88,-0.6869825439453126,-0.03834978485107422,0.5838963623046876,1.256719946861267,-0.012310791015360766,0.05661392211790481,-0.02263183593700373,0,0.021211646446413542,0.016103637695312423,None,None,None,None
cf1,2343.9,0.3459641418457031,0.956738037109375,0.45746478271484375,3.690267324447632,0.03656616210940817,-0.004647827148444925,-0.0182037353515795,-0.012064181570887513,0,0.042535217285156246,None,None,None,None
cf2,2343.9,0.3533659057617188,-0.7996461791992188,0.35551910400390624,-3.44228196144104,-0.007394409179693537,-0.003955078125004441,-0.007862854003913778,-0.04192706775947036,0,0.04448089599609378,None,None,None,None
cf3,2343.9,-0.68724560546875,-0.03727434921264648,0.5834381103515626,1.256719946861267,-0.013153076171885408,0.053771781921435946,-0.02291259765627026,0,0.019881723657234295,0.01656188964843741,None,None,None,None
cf1,2343.92,0.34740399169921876,0.9568328247070312,0.45854092407226565,3.690267324447632,0.07199249267584748,0.0047393798828164555,0.053807067871143956,-0.015495642333168719,0,0.041459075927734346,None,None,None,None
cf2,2343.92,0.3531680603027344,-0.7997528076171875,0.35545877075195315,-3.44228196144104,-0.009892272949228013,-0.005331420898440483,-0.0030166625976573947,-0.04174838238667121,0,0.044541229248046876,None,None,None,None
cf3,2343.92,-0.6875726928710938,-0.036230255126953125,0.583068115234375,1.256719946861267,-0.016354370117203528,0.05220470428471536,-0.018499755859397067,0,0.0185830788663986,0.016931884765625016,None,None,None,None
cf1,2343.94,0.34828729248046875,0.9567224731445313,0.45831085205078126,3.6700432300567627,0.044165039062539414,-0.005517578125002221,-0.011503601074230234,-0.01736727036889629,0,0.04168914794921874,None,None,None,None
cf2,2343.94,0.3529451599121094,-0.7999063720703126,0.35540606689453125,-3.4737470149993896,-0.01114501953126027,-0.00767822265626138,-0.0026351928710973234,-0.04154958431364515,0,0.044593933105468775,None,None,None,None
cf3,2343.94,-0.6879027709960938,-0.03515959167480469,0.58270556640625,1.2375664710998535,-0.01650390625001332,0.0535331726074705,-0.01812744140626249,0,0.017225437173013357,0.017294433593749936,None,None,None,None
cf1,2343.96,0.3489547729492188,0.9565555419921875,0.45808938598632815,3.6700432300567627,0.033374023437532194,-0.008346557617196868,-0.011073303222665722,-0.0186642483569715,0,0.041910614013671854,None,None,None,None
cf2,2343.96,0.35264508056640625,-0.8000848999023438,0.35536434936523437,-3.4737470149993896,-0.015003967285170717,-0.008926391601568398,-0.0020858764648459356,-0.04127652538241249,0,0.044635650634765656,None,None,None,None
cf3,2343.96,-0.6882914428710938,-0.034123134613037114,0.5824566040039063,1.2375664710998535,-0.019433593750018872,0.05182285308842587,-0.012448120117197977,0,0.015900342514081064,0.01754339599609367,None,None,None,None
cf1,2343.98,0.3495977783203125,0.9564033813476562,0.4579360656738281,3.6700432300567627,0.032150268554716296,-0.007608032226570619,-0.0076660156250088814,-0.01986554797242821,0,0.04206393432617189,None,None,None,None
cf2,2343.98,0.35236013793945314,-0.8002405395507812,0.35542779541015623,-3.4737470149993896,-0.014247131347668498,-0.007781982421879857,0.0031723022460962134,-0.0410134212027641,0,0.04457220458984379,None,None,None,None
cf3,2343.98,-0.6885473022460937,-0.03310911178588867,0.5821347045898437,1.2375664710998535,-0.012792968750008881,0.05070114135746828,-0.016094970703143457,0,0.014557150454003886,0.017865295410156246,None,None,None,None
cf1,2344.0,0.35013406372070316,0.956188720703125,0.4577734375,3.6274983882904053,0.026814270019556125,-0.010733032226571728,-0.008131408691413223,-0.020781990857316895,0,0.04222656250000001,None,None,None,None
cf2,2344.0,0.35209393310546877,-0.8004008178710937,0.3554639587402344,-3.4677734375,-0.013310241699230788,-0.008013916015632911,0.001808166503909893,-0.04076700214621878,0,0.044536041259765624,None,None,None,None
cf3,2344.0,-0.6888812255859376,-0.03217743682861328,0.5819022827148438,1.301336407661438,-0.01669616699220686,0.04658374786381193,-0.011621093750007772,0,0.013320845853643747,0.01809771728515619,None,None,None,None
cf1,2344.02,0.3507530212402344,0.9559971313476563,0.4577275390625,3.6274983882904053,0.030947875976589493,-0.009579467773443814,-0.002294921875000555,-0.021833176333893606,0,0.04227246093749998,None,None,None,None
cf2,2344.02,0.35183517456054686,-0.8005720825195313,0.355501708984375,-3.4677734375,-0.012937927246107315,-0.008563232421884299,0.001887512207031701,-0.04052680816052127,0,0.044498291015625024,None,None,None,None
cf3,2344.02,-0.6891762084960937,-0.03120789909362793,0.581663818359375,1.301336407661438,-0.014749145507822007,0.04847688674931158,-0.011923217773451586,0,0.012004886832181434,0.018336181640625004,None,None,None,None
cf1,2344.04,0.3512964477539063,0.9558169555664062,0.45755413818359375,3.561997890472412,0.02717132568361953,-0.009008789062511657,-0.008670043945321452,-0.022718585719913895,0,0.04244586181640625,None,None,None,None
cf2,2344.04,0.35154769897460936,-0.8007513427734375,0.35559051513671874,-3.4406304359436035,-0.014373779296888184,-0.00896301269532034,0.004440307617191316,-0.040256314029056384,0,0.04440948486328128,None,None,None,None
cf3,2344.04,-0.689425048828125,-0.030311208724975586,0.5814048461914063,1.2883965969085693,-0.01244201660157728,0.04483451843265795,-0.012948608398444925,0,0.010766499469775119,0.018595153808593667,None,None,None,None
cf1,2344.06,0.35175122070312503,0.9556331787109376,0.45750228881835936,3.561997890472412,0.022738647460958248,-0.009188842773441595,-0.0025924682617219073,-0.023421342225080088,0,0.04249771118164064,None,None,None,None
cf2,2344.06,0.35121444702148436,-0.8010077514648438,0.3556499328613281,-3.4406304359436035,-0.016662597656265266,-0.012820434570327003,0.0029708862304716295,-0.039943064636436675,0,0.0443500671386719,None,None,None,None
cf3,2344.06,-0.689651611328125,-0.02950214767456055,0.5812056274414062,1.2883965969085693,-0.011328125000008881,0.04045305252078862,-0.009960937500012212,0,0.009635418888876866,0.01879437255859373,None,None,None,None
cf1,2344.08,0.35216351318359373,0.9553600463867188,0.4573275146484375,3.561997890472412,0.020614624023453806,-0.01365661621095103,-0.0087387084961001,-0.023987538666007564,0,0.042672485351562484,None,None,None,None
cf2,2344.08,0.35086660766601563,-0.8012044067382813,0.3557069091796875,-3.406700372695923,-0.01739196777345214,-0.009832763671883188,0.0028488159179716295,-0.03960612786360202,0,0.04429309082031252,None,None,None,None
cf3,2344.08,-0.689885498046875,-0.02870749092102051,0.5809631958007813,1.237943172454834,-0.011694335937511657,0.03973283767703817,-0.01212158203126027,0,0.008513128350668475,0.019036804199218715,None,None,None,None
cf1,2344.1,0.3525107421875,0.9551744384765625,0.45718939208984377,3.5163917541503906,0.017361450195329222,-0.009280395507824227,-0.006906127929693537,-0.024478196425337547,0,0.04281060791015623,None,None,None,None
cf2,2344.1,0.350581298828125,-0.801404052734375,0.3557836303710938,-3.406700372695923,-0.014265441894544468,-0.009982299804692982,0.0038360595703175655,-0.03932911784098372,0,0.04421636962890624,None,None,None,None
cf3,2344.1,-0.690052978515625,-0.02794452476501465,0.5807735595703125,1.237943172454834,-0.008374023437503885,0.03814830780032759,-0.009481811523446034,0,0.007418151870742714,0.019226440429687464,None,None,None,None
cf1,2344.12,0.35272778320312503,0.9548621215820313,0.45712747192382813,3.5163917541503906,0.01085205078126138,-0.015615844726571728,-0.0030960083007847542,-0.02467923421012979,0,0.04287252807617187,None,None,None,None
cf2,2344.12,0.3502484130859375,-0.8016329956054687,0.35579177856445315,-3.406700372695923,-0.016644287109389293,-0.011447143554698534,0.00040740966796885407,-0.039001336200378794,0,0.04420822143554687,None,None,None,None
cf3,2344.12,-0.6901942138671875,-0.02733246421813965,0.5805138549804688,1.237943172454834,-0.007061767578132355,0.030603027343777893,-0.012985229492196868,0,0.0065334290941396625,0.019486145019531165,None,None,None,None
cf1,2344.14,0.3529290466308594,0.9545791625976563,0.4570735778808594,3.489427328109741,0.010063171386726903,-0.014147949218764156,-0.0026947021484393734,-0.024867590684262888,0,0.042926422119140606,None,None,None,None
cf2,2344.14,0.34994393920898437,-0.8018861083984375,0.35583401489257815,-3.3549628257751465,-0.015223693847671273,-0.012655639648451586,0.002111816406251943,-0.038699252780646246,0,0.04416598510742187,None,None,None,None
cf3,2344.14,-0.6903190307617187,-0.026752477645874025,0.5802724609375001,1.2007813453674316,-0.006240844726568398,0.028999328613307618,-0.012069702148448255,0,0.005688776057368618,0.01972753906249991,None,None,None,None
cf1,2344.16,0.35310848999023436,0.9542440185546875,0.4569463806152344,3.489427328109741,0.008972167968756939,-0.016757202148452697,-0.006359863281255274,-0.02499234789796996,0,0.043053619384765596,None,None,None,None
cf2,2344.16,0.3496174621582031,-0.8021558227539063,0.3559215393066406,-3.3549628257751465,-0.016323852539077834,-0.013485717773449365,0.004376220703126804,-0.0383695915138147,0,0.04407846069335941,None,None,None,None
cf3,2344.16,-0.6904317016601562,-0.026143091201782227,0.5800138549804688,1.2007813453674316,-0.005633544921878747,0.03046932220461761,-0.01293029785157728,0,0.004794695797667519,0.01998614501953122,None,None,None,None
cf1,2344.18,0.3532054748535156,0.9539298095703125,0.45686993408203125,3.489427328109741,0.004849243164066733,-0.015710449218767485,-0.0038223266601612807,-0.02499266146639896,0,0.04313006591796875,None,None,None,None
cf2,2344.18,0.34930316162109376,-0.8023873291015625,0.3560327453613281,-3.312473773956299,-0.015715026855481623,-0.011575317382822007,0.005560302734380412,-0.03804584995119168,0,0.043967254638671904,None,None,None,None
cf3,2344.18,-0.6905685424804687,-0.02562754249572754,0.5797879638671876,1.2007813453674316,-0.0068420410156318,0.025777435302757844,-0.011294555664070064,0,0.00403685007931253,0.020212036132812417,None,None,None,None
cf1,2344.2,0.35330020141601565,0.9536177368164063,0.45682696533203127,3.446902275085449,0.004736328125006106,-0.015603637695324782,-0.0021484375000011104,-0.024991074342940133,0,0.043173034667968735,None,None,None,None
cf2,2344.2,0.3489412536621094,-0.8026771850585938,0.3561503295898438,-3.312473773956299,-0.018095397949235786,-0.014492797851575059,0.005879211425788085,-0.037666622574237286,0,0.04384967041015625,None,None,None,None
cf3,2344.2,-0.69062548828125,-0.025214664459228518,0.579454345703125,1.1863454580307007,-0.002847290039067843,0.020643901824969828,-0.016680908203141238,0,0.003424461946624782,0.020545654296874938,None,None,None,None
cf1,2344.22,0.35327532958984376,0.9533175659179688,0.45687026977539064,3.446902275085449,-0.0012435913085956582,-0.01500854492188763,0.0021652221679705195,-0.024801252643955957,0,0.043129730224609364,None,None,None,None
cf2,2344.22,0.34861843872070314,-0.8029556884765625,0.35631814575195314,-3.312473773956299,-0.016140747070326446,-0.013925170898450476,0.00839080810547607,-0.03732135054310043,0.00032181579735455774,0.04368185424804688,None,None,None,None
cf3,2344.22,-0.6906686401367188,-0.024847911834716796,0.5791286010742187,1.1863454580307007,-0.002157592773440484,0.018337631225602755,-0.016287231445331445,0,0.0028788005306741213,0.02087139892578127,None,None,None,None
cf1,2344.24,0.35332852172851564,0.95302001953125,0.45680899047851564,3.375279426574707,0.0026596069335967686,-0.01487731933595103,-0.003063964843752498,-0.024741157020671884,0,0.04319100952148436,None,None,None,None
cf2,2344.24,0.34832827758789064,-0.8032495727539063,0.35647705078125,-3.2708263397216797,-0.014508056640637906,-0.014694213867202419,0.007945251464851488,-0.03700367874529539,0.0009286081399654138,0.043522949218749996,None,None,None,None
cf3,2344.24,-0.6906264038085937,-0.02449847984313965,0.5787323608398438,1.1771823167800903,0.0021118164062547185,0.017471599578873266,-0.019812011718763047,0,0.0023551372624367266,0.02126763916015617,None,None,None,None
cf1,2344.2599999999998,0.3532862548828125,0.9527388305664063,0.45682339477539063,3.375279426574707,-0.002113342285158505,-0.014059448242200198,0.0007202148437502776,-0.024534218734065784,0,0.043176605224609366,None,None,None,None
